time,field.header.seq,field.header.stamp,field.pose.pose.position.x,field.pose.pose.position.y,field.pose.pose.position.z,field.pose.pose.orientation.x,field.pose.pose.orientation.y,field.pose.pose.orientation.z,field.pose.pose.orientation.w,field.twist.twist.linear.x,field.twist.twist.linear.y,field.twist.twist.linear.z,field.twist.twist.angular.x,field.twist.twist.angular.y,field.twist.twist.angular.z
1609060335771473169,2,1609060335771473169,-0.004881,0.00853,-0.003045,0.999073,0.000359,0.042366,-0.007557,-0.019604,0.005604,0.000689,0.025465,0.005153,-0.01337
1609060335874435186,3,1609060335874435186,-0.002287,0.005295,-0.004349,0.999078,0.000399,0.042252,-0.007502,-0.008083,-0.003271,-0.002149,0.024463,0.006344,-0.013711
1609060335977810383,4,1609060335977810383,-0.001801,0.007954,-0.003814,0.999075,0.000405,0.04233,-0.007522,-0.005008,0.002791,0.000629,0.024845,0.00655,-0.012098
1609060336049498558,5,1609060336049498558,0.001568,0.008565,-0.004283,0.999066,9.4e-05,0.04255,-0.007455,0.004122,8.5e-05,-0.001137,0.007508,0.001302,-0.001163
1609060336150036335,6,1609060336150036335,0.003879,0.006727,-0.003982,0.999061,-3.7e-05,0.042647,-0.007608,0.007022,-0.005382,0.000222,0.00836,0.002322,-0.000198
1609060336252928734,7,1609060336252928734,0.005428,0.008999,-0.003151,0.999054,0.0001,0.042824,-0.007427,0.008352,0.002539,0.002009,0.00924,0.001471,-0.00243
1609060336356067896,8,1609060336356067896,0.00407,0.008077,-0.003859,0.999058,0.000173,0.042705,-0.007642,0.00335,-0.000539,0.001234,0.013985,0.002779,-0.005178
1609060336459221125,9,1609060336459221125,0.005587,0.004334,-0.004073,0.999056,0.000224,0.042759,-0.007595,0.006343,-0.008551,0.000278,0.016223,0.003124,-0.006402
1609060336562483311,10,1609060336562483311,0.006296,0.005136,-0.004292,0.999059,0.000111,0.042702,-0.007543,0.006327,-0.003267,0.00039,0.018661,0.001744,-0.009215
1609060336665447950,11,1609060336665447950,0.003828,0.005628,-0.004442,0.999059,0.00011,0.042699,-0.007589,-0.000842,-0.003215,4.5e-05,0.022133,0.007489,-0.010951
1609060336768593311,12,1609060336768593311,0.003964,0.003567,-0.004219,0.999057,0.000222,0.042704,-0.007748,-0.000952,-0.00837,0.001315,0.025333,0.004893,-0.012836
1609060336871572971,13,1609060336871572971,0.002163,0.004645,-0.00442,0.99906,0.000248,0.042656,-0.007633,-0.005847,-0.002264,0.002078,0.024716,0.005907,-0.013274
1609060336974601984,14,1609060336974601984,-0.000279,0.004394,-0.003296,0.99905,0.000388,0.042885,-0.007658,-0.0113,-0.001908,0.005618,0.024124,0.006104,-0.012916
1609060337077686787,15,1609060337077686787,-0.000899,0.007185,-0.003263,0.999067,0.000227,0.04249,-0.007614,-0.010233,0.004426,0.004686,0.023098,0.003646,-0.012637
1609060337149609566,16,1609060337149609566,0.001488,0.007139,-0.002612,0.999067,0.000105,0.042497,-0.007597,-0.001724,1.1e-05,0.005483,0.008755,0.002487,-0.001388
1609060337249248743,17,1609060337249248743,0.00274,0.008869,-0.003127,0.999063,9.7e-05,0.042601,-0.007611,0.0016,0.003049,0.00424,0.004876,0.001416,0.001401
1609060337352544308,18,1609060337352544308,0.003318,0.008851,-0.002728,0.999058,0.000174,0.042704,-0.007684,0.002978,0.002863,0.003762,0.008187,-3e-06,-0.00236
1609060337455909729,19,1609060337455909729,0.000806,0.00861,-0.003435,0.999064,0.000101,0.042579,-0.007613,-0.00345,0.001915,0.000783,0.012061,0.002778,-0.004961
1609060337558484793,20,1609060337558484793,0.003155,0.007227,-0.003098,0.999059,0.000113,0.042711,-0.007507,0.003359,-0.001701,0.00235,0.016359,0.004067,-0.008507
1609060337661578178,21,1609060337661578178,0.002336,0.005122,-0.003434,0.999064,0.000179,0.042567,-0.007678,-0.000217,-0.006342,0.001397,0.017407,0.003318,-0.009045
1609060337764630556,22,1609060337764630556,1.7e-05,0.008807,-0.002717,0.999062,0.0002,0.042602,-0.007628,-0.010286,0.008534,0.006285,0.023254,0.005889,-0.011274
1609060337867722511,23,1609060337867722511,0.000136,0.008008,-0.002174,0.999058,0.000209,0.042719,-0.007569,-0.007295,0.003984,0.007668,0.024323,0.003483,-0.013794
1609060337970884323,24,1609060337970884323,0.000757,0.006977,-0.003198,0.999063,0.00021,0.042568,-0.007744,-0.003686,0.000612,0.004305,0.025516,0.005327,-0.012768
1609060338074067116,25,1609060338074067116,0.000416,0.00745,-0.003067,0.999068,0.000201,0.042453,-0.007666,-0.00361,0.000862,0.005395,0.02386,0.004343,-0.012798
1609060338177568913,26,1609060338177568913,-1.2e-05,0.007215,-0.002482,0.999062,0.000366,0.042603,-0.007717,-0.003959,-0.001087,0.005586,0.023097,0.003894,-0.012339
1609060338249769926,27,1609060338249769926,-0.001102,0.007778,-0.003481,0.999066,5.1e-05,0.042509,-0.007666,-0.005306,-0.004857,0.002365,0.005831,0.000609,0.000577
1609060338349504709,28,1609060338349504709,0.000391,0.006006,-0.002922,0.999066,0.000153,0.042505,-0.007649,0.000135,-0.007042,0.004926,0.006518,0.00265,-0.000719
1609060338453515291,29,1609060338453515291,-0.000139,0.003818,-0.00229,0.999059,0.00013,0.042699,-0.007474,-0.001461,-0.010782,0.004802,0.009189,-0.000433,-0.001171
1609060338555536509,30,1609060338555536509,0.000594,0.003558,-0.001731,0.999058,0.000131,0.042719,-0.007508,0.000544,-0.007923,0.005065,0.011671,0.002245,-0.003524
1609060338660170555,31,1609060338660170555,0.00022,0.004566,-0.002282,0.999059,0.000123,0.042687,-0.007605,0.000173,-0.001453,0.00329,0.018907,0.003261,-0.008341
1609060338749192476,32,1609060338749192476,0.000577,0.004819,-0.002491,0.999058,6.9e-05,0.042725,-0.00748,0.001326,-0.00331,0.002594,0.006555,0.002771,0.001568
1609060338849263906,33,1609060338849263906,0.001725,0.00604,-0.001721,0.999061,0.000135,0.042675,-0.007412,0.003831,-0.000428,0.005326,0.004954,0.000823,0.002278
1609060338952213526,34,1609060338952213526,0.001984,0.004422,-0.002267,0.99906,5.5e-05,0.042671,-0.007567,0.00273,-0.004888,0.002055,0.008141,0.000931,-0.001285
1609060339058030844,35,1609060339058030844,0.002692,0.004013,-0.002925,0.99906,0.000155,0.04268,-0.007464,0.003084,-0.004277,0.000235,0.015283,0.005075,-0.007285
1609060339159605742,36,1609060339159605742,0.0045,0.004525,-0.003008,0.999055,0.000144,0.042816,-0.00742,0.006029,-0.001899,0.001463,0.017676,0.005336,-0.007357
1609060339262257338,37,1609060339262257338,0.002958,0.004376,-0.002806,0.999055,0.000169,0.042789,-0.0076,-8e-05,-0.000852,0.003647,0.018369,0.002589,-0.009518
1609060339365221739,38,1609060339365221739,0.003719,0.009032,-0.002438,0.99906,0.000232,0.042645,-0.007647,0.001687,0.009518,0.003927,0.022104,0.001705,-0.012125
1609060339469941139,39,1609060339469941139,0.003671,0.007446,-0.001716,0.999054,0.000308,0.042796,-0.007592,0.001047,0.003401,0.005527,0.025323,0.006538,-0.011697
1609060339571170568,40,1609060339571170568,0.001337,0.00576,-0.002565,0.999053,0.000272,0.042806,-0.007664,-0.005542,-0.001562,0.003564,0.025272,0.004708,-0.012126
1609060339674696684,41,1609060339674696684,0.002149,0.002794,-0.002129,0.999054,0.000316,0.042798,-0.007623,-0.002585,-0.008872,0.005112,0.023351,0.006581,-0.01261
1609060339777889967,42,1609060339777889967,0.000969,0.002658,-0.001782,0.999061,0.000237,0.042604,-0.007763,-0.004609,-0.006861,0.005156,0.025275,0.005461,-0.013141
1609060339849735260,43,1609060339849735260,0.001344,0.004023,-0.002451,0.999064,6.7e-05,0.042582,-0.007511,-0.002646,-0.00612,0.001522,0.006871,0.001835,0.001172
1609060339949380636,44,1609060339949380636,0.001838,0.005881,-0.00294,0.999072,4.3e-05,0.042421,-0.007413,-3.8e-05,0.000637,0.000738,0.006958,0.0029,-0.000232
1609060340052584410,45,1609060340052584410,0.000494,0.006217,-0.002771,0.999067,3e-05,0.042498,-0.007576,-0.003459,0.002546,0.002012,0.009387,0.002855,-0.002151
1609060340155597210,46,1609060340155597210,0.001296,0.009249,-0.00311,0.999072,0.000131,0.042379,-0.007615,-0.000637,0.00885,0.001046,0.013548,0.003338,-0.005566
1609060340258954525,47,1609060340258954525,0.000976,0.008476,-0.001682,0.999076,0.000104,0.042331,-0.00739,-0.000929,0.007024,0.003712,0.016361,0.003871,-0.006617
1609060340361977100,48,1609060340361977100,-0.001304,0.008824,-0.000252,0.999082,0.000155,0.042185,-0.007398,-0.005916,0.006706,0.006116,0.017805,0.003254,-0.010155
1609060340464877367,49,1609060340464877367,-1e-06,0.008004,-0.001579,0.999082,0.000249,0.042182,-0.007405,-0.001054,0.003602,0.002211,0.020688,0.003932,-0.011266
1609060340567844391,50,1609060340567844391,-0.002049,0.005805,-0.00021,0.999079,0.000291,0.042255,-0.007431,-0.005203,-0.001742,0.004303,0.023678,0.004387,-0.01243
1609060340671374798,51,1609060340671374798,-0.000614,0.006098,0.00054,0.999075,0.000255,0.042314,-0.007538,-0.00138,-0.000228,0.005317,0.025711,0.004702,-0.013767
1609060340773963451,52,1609060340773963451,-0.000633,0.005257,0.000583,0.999082,0.000462,0.042151,-0.007581,-0.000155,-0.000176,0.005518,0.025027,0.005349,-0.013285
1609060340876789331,53,1609060340876789331,-0.000654,0.006997,0.000373,0.999086,0.000315,0.042078,-0.007463,0.000436,0.003202,0.004076,0.02298,0.005764,-0.012666
1609060340948875189,54,1609060340948875189,-0.002858,0.008634,-0.001775,0.999074,0.000102,0.042358,-0.007511,-0.00457,0.002072,-0.001532,0.006289,0.001107,0.000864
1609060341048787832,55,1609060341048787832,-0.002088,0.00861,-0.001491,0.999069,6.1e-05,0.042487,-0.007475,-0.002545,0.000661,0.001318,0.005007,0.000324,0.002253
1609060341152105808,56,1609060341152105808,-0.00071,0.00704,-0.002209,0.999061,5e-05,0.042643,-0.00755,0.001572,-0.002611,-0.000107,0.009414,0.00165,-0.003738
1609060341255239725,57,1609060341255239725,2.6e-05,0.004261,-0.002656,0.999066,0.0001,0.042551,-0.007439,0.003,-0.007615,-0.000571,0.013114,0.003226,-0.004409
1609060341358510017,58,1609060341358510017,-6.4e-05,0.006295,-0.003076,0.999057,1.7e-05,0.042764,-0.007482,0.001416,-0.00038,-0.000949,0.015907,0.003895,-0.007595
1609060341461435556,59,1609060341461435556,0.000689,0.007936,-0.002441,0.999057,0.000186,0.042732,-0.007597,0.003019,0.004619,0.001622,0.017952,0.002627,-0.008229
1609060341564483643,60,1609060341564483643,-8.2e-05,0.008318,-0.001933,0.999065,0.000107,0.042548,-0.007626,0.000603,0.005174,0.002604,0.022687,0.002835,-0.011709
1609060341667694330,61,1609060341667694330,-0.001559,0.009292,-0.002208,0.999067,0.000216,0.042481,-0.007666,-0.002926,0.005802,0.001564,0.023923,0.005212,-0.011827
1609060341770805120,62,1609060341770805120,-0.003351,0.007359,-0.002888,0.999068,0.000126,0.04247,-0.007644,-0.006774,-0.000181,-0.000844,0.024747,0.004908,-0.013335
1609060341873924732,63,1609060341873924732,-0.002781,0.008179,-0.00306,0.999059,0.00027,0.042703,-0.007526,-0.004235,0.002267,-0.000867,0.023736,0.007336,-0.013014
1609060341977236986,64,1609060341977236986,-0.001988,0.008012,-0.002366,0.999066,0.000281,0.042517,-0.007606,-0.000105,0.001084,0.001628,0.023292,0.004233,-0.013272
1609060342049194098,65,1609060342049194098,-0.001644,0.010172,-0.001753,0.999068,-5.2e-05,0.042506,-0.007386,0.00138,0.002838,0.002316,0.007478,0.002557,0.000681
1609060342149164677,66,1609060342149164677,0.001256,0.009523,-0.002514,0.999058,5.9e-05,0.042738,-0.007468,0.00753,1.9e-05,0.000353,0.004785,-0.000111,0.000348
1609060342252700806,67,1609060342252700806,0.000569,0.007732,-0.003268,0.999055,8.5e-05,0.042806,-0.007488,0.00329,-0.006373,-0.001305,0.011096,0.002156,-0.003236
1609060342355244398,68,1609060342355244398,-0.000547,0.006563,-0.002465,0.999063,-5.5e-05,0.042604,-0.007535,0.000733,-0.008427,0.000842,0.012795,0.001896,-0.004684
1609060342458437681,69,1609060342458437681,0.000122,0.008507,-0.001517,0.999061,0.000155,0.042647,-0.007539,0.002231,-0.002081,0.003508,0.015409,0.003089,-0.00633
1609060342561306477,70,1609060342561306477,0.001186,0.006222,-0.000615,0.999053,7.2e-05,0.042872,-0.007411,0.003029,-0.0067,0.005152,0.018317,0.003083,-0.009554
1609060342664904356,71,1609060342664904356,-0.000402,0.006532,-0.002143,0.999063,0.000129,0.042617,-0.007502,-0.001021,-0.005315,0.001133,0.02302,0.002093,-0.011169
1609060342767347574,72,1609060342767347574,0.000266,0.006499,-0.002788,0.999063,0.000191,0.042595,-0.007559,0.000712,-0.00408,-0.000955,0.023153,0.002592,-0.013215
1609060342870455980,73,1609060342870455980,-7.2e-05,0.00621,-0.002088,0.999058,0.000265,0.042703,-0.007661,0.000227,-0.004118,0.00056,0.024731,0.004011,-0.014109
1609060342973705530,74,1609060342973705530,-0.001493,0.005409,-0.000927,0.999066,0.000312,0.042542,-0.007516,-0.002785,-0.004421,0.003288,0.022776,0.006074,-0.012834
1609060343077748299,75,1609060343077748299,-0.00087,0.002768,-0.002759,0.999057,0.000362,0.042751,-0.007563,-0.001054,-0.010725,-0.001662,0.023371,0.005996,-0.012664
1609060343148822784,76,1609060343148822784,-0.001423,0.004107,-0.00457,0.99906,0.000117,0.042686,-0.007466,-0.001905,-0.00986,-0.006607,0.005274,0.001673,0.000114
1609060343248710155,77,1609060343248710155,-0.000463,0.004341,-0.004537,0.999059,8.7e-05,0.042713,-0.007497,0.001357,-0.007227,-0.003985,0.008222,0.002908,-0.0016
1609060343351909876,78,1609060343351909876,-0.001021,0.004534,-0.002699,0.999064,6e-06,0.042558,-0.007632,0.000548,-0.00498,0.001742,0.010098,0.001169,-0.001497
1609060343455102205,79,1609060343455102205,-0.001142,0.006803,-0.003027,0.999062,3.5e-05,0.042615,-0.00756,-0.000101,0.00194,0.000251,0.014098,0.004539,-0.005168
1609060343558024645,80,1609060343558024645,-0.001788,0.007379,-0.004198,0.999064,9.3e-05,0.042582,-0.007589,-0.001184,0.003279,-0.001982,0.014517,0.004683,-0.008387
1609060343662369728,81,1609060343662369728,-0.000334,0.007382,-0.002949,0.999057,9.6e-05,0.042725,-0.007665,0.002485,0.003463,0.001262,0.019542,0.004827,-0.010146
1609060343764807224,82,1609060343764807224,-0.000938,0.007472,-0.002385,0.999063,9.7e-05,0.042587,-0.007603,0.000239,0.002733,0.002556,0.021973,0.002376,-0.011303
1609060343867611647,83,1609060343867611647,-0.000804,0.010037,-0.002983,0.999054,0.000179,0.042777,-0.007707,0.000324,0.007792,0.001019,0.025875,0.004787,-0.012994
1609060343970663548,84,1609060343970663548,-0.002478,0.010537,-0.002707,0.999057,0.000315,0.042722,-0.007704,-0.003295,0.006523,0.002371,0.024614,0.004713,-0.013136
1609060344073735714,85,1609060344073735714,-0.001149,0.010357,-0.001565,0.999057,0.000235,0.04272,-0.007744,0.001696,0.003499,0.004115,0.025199,0.006396,-0.013002
1609060344176668167,86,1609060344176668167,0.000503,0.009736,-0.001169,0.999053,0.000266,0.042808,-0.007651,0.00492,0.000354,0.005232,0.023133,0.005257,-0.01067
1609060344248834610,87,1609060344248834610,0.00089,0.007325,-0.001013,0.999057,2e-05,0.042752,-0.007487,0.004707,-0.009478,0.004002,0.00478,-0.000153,0.001435
1609060344348703623,88,1609060344348703623,-0.000362,0.00724,-0.001365,0.999056,2.5e-05,0.042758,-0.007572,-0.000597,-0.00716,0.002898,0.007561,0.000609,-0.00017
1609060344452110291,89,1609060344452110291,-7e-06,0.006674,-0.001812,0.999062,0.000117,0.042632,-0.007567,0.000535,-0.005186,0.002328,0.01042,0.00103,-0.003338
1609060344555062056,90,1609060344555062056,0.000288,0.006845,-0.000784,0.999056,0.000131,0.042747,-0.007615,0.000401,-0.00318,0.005318,0.01576,0.003028,-0.007881
1609060344658272982,91,1609060344658272982,-0.000808,0.006247,-0.001153,0.999061,0.000128,0.04265,-0.007568,-0.002446,-0.004305,0.003034,0.015907,0.003037,-0.008179
1609060344761461735,92,1609060344761461735,0.000396,0.005706,-0.000352,0.999052,0.000171,0.042885,-0.00747,0.000484,-0.003618,0.004347,0.018636,0.002018,-0.009878
1609060344864367723,93,1609060344864367723,-0.000479,0.006253,-0.000885,0.999058,0.000322,0.04272,-0.007545,-0.00208,-0.000706,0.002239,0.023848,0.004292,-0.011269
1609060344967698097,94,1609060344967698097,-0.000726,0.007124,-0.000997,0.999061,0.000308,0.042656,-0.007579,-0.002173,0.003702,0.002387,0.022641,0.006889,-0.012615
1609060345070574284,95,1609060345070574284,3.7e-05,0.008354,-0.001631,0.999058,0.000235,0.04268,-0.007716,0.000604,0.005784,0.000241,0.025323,0.005021,-0.013253
1609060345173685551,96,1609060345173685551,-0.001276,0.00776,-0.000498,0.99908,0.000356,0.04218,-0.007673,-0.001976,0.002779,0.002968,0.022328,0.004858,-0.013197
1609060345276948452,97,1609060345276948452,-0.001595,0.007242,0.001602,0.999082,0.000378,0.042131,-0.007637,0.000635,0.000455,0.006476,0.024706,0.005024,-0.012779
1609060345348872423,98,1609060345348872423,-0.000381,0.006653,-0.001856,0.999066,5.8e-05,0.042536,-0.007563,0.003436,-0.006421,-0.00331,0.006386,-0.000942,0.00119
1609060345448992968,99,1609060345448992968,0.000834,0.007687,-0.00435,0.999066,-3.2e-05,0.042528,-0.007561,0.004613,-0.002532,-0.00597,0.007193,0.002012,0.000148
1609060345552400589,100,1609060345552400589,0.000722,0.00658,-0.003245,0.999065,0.000127,0.042565,-0.007532,0.003199,-0.003386,-0.001233,0.011858,0.002627,-0.003742
1609060345655210018,101,1609060345655210018,0.000967,0.006175,-0.00298,0.999061,1e-06,0.042643,-0.00762,0.003018,-0.003536,0.000298,0.014563,0.00222,-0.005383
1609060345758053541,102,1609060345758053541,-2.7e-05,0.005964,-0.002572,0.999061,-2.3e-05,0.042649,-0.007593,-5.2e-05,-0.003644,0.001067,0.014668,0.002046,-0.005268
1609060345861207962,103,1609060345861207962,0.000978,0.00732,-0.001882,0.999064,3.6e-05,0.042589,-0.007556,0.002391,0.000906,0.003538,0.017931,0.001857,-0.008649
1609060345964406252,104,1609060345964406252,0.000635,0.007589,-0.002705,0.999056,9.2e-05,0.042774,-0.00756,9.1e-05,0.002368,0.001447,0.022755,0.004203,-0.012202
1609060346067427158,105,1609060346067427158,0.000425,0.009324,-0.001769,0.99906,0.000158,0.042658,-0.007608,-0.000893,0.006101,0.004349,0.023538,0.00517,-0.013145
1609060346171197653,106,1609060346171197653,-0.001236,0.008554,-0.0017,0.999065,0.000251,0.042539,-0.007697,-0.004404,0.001937,0.003713,0.025114,0.005318,-0.013407
1609060346273771524,107,1609060346273771524,-0.000934,0.011353,-0.0019,0.999062,0.000246,0.042607,-0.007642,-0.003164,0.008491,0.002739,0.024718,0.005422,-0.013303
1609060346376943350,108,1609060346376943350,0.000849,0.012257,-0.001653,0.999062,0.000257,0.042615,-0.007595,0.002041,0.007572,0.003556,0.022915,0.005264,-0.01222
1609060346448893309,109,1609060346448893309,-0.000549,0.011173,-0.003293,0.999065,-6.9e-05,0.042536,-0.007721,-0.001434,-0.000416,-0.002664,0.008361,-0.000614,0.000478
1609060346548856258,110,1609060346548856258,0.000458,0.010187,-0.003198,0.999063,-4.4e-05,0.042596,-0.007653,0.001387,-0.003633,-0.000706,0.00577,0.002995,0.000982
1609060346652072191,111,1609060346652072191,0.002808,0.009595,-0.002398,0.999067,-1.3e-05,0.042489,-0.007631,0.006934,-0.003936,0.002122,0.008804,0.001509,-0.001141
1609060346755150557,112,1609060346755150557,0.002672,0.007074,-0.00228,0.999059,5.9e-05,0.042671,-0.00772,0.004822,-0.008677,0.002919,0.013271,0.002368,-0.00359
1609060346858361006,113,1609060346858361006,0.00223,0.007576,-0.001437,0.99906,4.4e-05,0.04266,-0.007643,0.001796,-0.004202,0.00515,0.017645,0.001787,-0.008502
1609060346961341619,114,1609060346961341619,0.001573,0.007693,-0.002918,0.999064,0.000121,0.042573,-0.007647,-0.00024,-0.001833,0.001334,0.021351,0.003058,-0.011232
1609060347064414501,115,1609060347064414501,0.001733,0.007701,-0.002151,0.999065,0.000179,0.042541,-0.007631,0.000102,-3.1e-05,0.003991,0.021618,0.003813,-0.011155
1609060347167480946,116,1609060347167480946,0.003312,0.007965,-0.000841,0.999058,0.000254,0.042722,-0.007579,0.002786,0.001564,0.00689,0.022851,0.004943,-0.012038
1609060347270663261,117,1609060347270663261,0.00512,0.006,-0.002338,0.999052,0.000141,0.042842,-0.00766,0.005041,-0.004516,0.001738,0.023795,0.006419,-0.012851
1609060347373665094,118,1609060347373665094,0.003764,0.005745,-0.000262,0.99906,0.000217,0.042692,-0.007391,0.00023,-0.003307,0.007673,0.025439,0.00581,-0.013821
1609060347476710558,119,1609060347476710558,0.001746,0.005405,-0.001174,0.999065,0.000315,0.042584,-0.007453,-0.004997,-0.003486,0.004698,0.023331,0.005153,-0.012444
1609060347548682928,120,1609060347548682928,0.00238,0.004209,-0.001693,0.999063,0.000145,0.042632,-0.007406,-0.00234,-0.011021,0.001891,0.00636,0.000213,0.00098
1609060347648681164,121,1609060347648681164,-0.000282,0.005388,-0.00384,0.999067,6.5e-05,0.042492,-0.007598,-0.008197,-0.007432,-0.001855,0.009264,0.001525,-0.001826
1609060347751874447,122,1609060347751874447,-0.001547,0.005225,-0.00276,0.999065,0.0001,0.042566,-0.007466,-0.009633,-0.005698,0.002223,0.007799,0.001272,-0.0007
1609060347860090971,123,1609060347860090971,-0.001841,0.0047,-0.002433,0.999066,0.000103,0.042534,-0.007506,-0.007276,-0.003815,0.003093,0.015855,0.0025,-0.008339
1609060347963306189,124,1609060347963306189,-0.002359,0.003027,-0.00167,0.999066,0.000138,0.042528,-0.007541,-0.00651,-0.006119,0.004334,0.020181,0.00246,-0.011188
1609060348066298485,125,1609060348066298485,-0.002446,0.002395,-0.002085,0.999069,0.000175,0.042472,-0.007465,-0.005111,-0.00628,0.003045,0.024828,0.003134,-0.012396
1609060348169837475,126,1609060348169837475,-0.003243,0.002218,-0.002495,0.999071,0.000201,0.042409,-0.007646,-0.005966,-0.005285,0.002142,0.024214,0.005253,-0.013339
1609060348272389650,127,1609060348272389650,-0.002026,0.004423,-0.00277,0.99906,0.000243,0.042666,-0.007568,-0.001877,0.000911,0.00343,0.025583,0.005953,-0.01354
1609060348375344515,128,1609060348375344515,-0.001399,0.002585,-0.00101,0.999069,0.000244,0.042476,-0.007473,0.000384,-0.003565,0.007633,0.023615,0.005173,-0.01305
1609060348478895903,129,1609060348478895903,-0.001546,0.004503,-6.2e-05,0.999064,0.0003,0.042582,-0.007578,0.001086,0.000586,0.008483,0.024629,0.006195,-0.011918
1609060348548521042,130,1609060348548521042,-0.000668,0.006792,-0.001649,0.999067,4.6e-05,0.042501,-0.007584,0.004105,1.1e-05,0.002638,0.00862,0.000559,-0.000573
1609060348650807858,131,1609060348650807858,-0.000654,0.007919,-0.000801,0.999064,-7e-06,0.04261,-0.007439,0.002876,0.002499,0.004748,0.008117,0.000439,-0.00118
1609060348753650188,132,1609060348753650188,0.00044,0.008015,-0.000845,0.999065,4e-06,0.042561,-0.007472,0.004532,0.002474,0.005007,0.010927,0.00269,-0.003586
1609060348856770515,133,1609060348856770515,-0.000378,0.006029,-0.001342,0.99908,4.3e-05,0.042191,-0.007593,0.002231,-0.001847,0.003032,0.013542,0.001801,-0.006168
1609060348960122585,134,1609060348960122585,0.001534,0.006266,-0.002052,0.999071,9.1e-05,0.042421,-0.007574,0.005947,-0.000144,0.002263,0.016234,0.002701,-0.007537
1609060349062848091,135,1609060349062848091,0.002952,0.006922,-0.000193,0.999056,0.000166,0.04279,-0.007417,0.006617,0.00277,0.007724,0.020662,0.002541,-0.00922
1609060349165938854,136,1609060349165938854,0.003214,0.005217,-0.000338,0.999059,0.000234,0.042694,-0.007591,0.005243,-0.002398,0.006094,0.022216,0.006163,-0.011721
1609060349269557953,137,1609060349269557953,0.002,0.004465,-0.000266,0.999066,0.000306,0.042528,-0.007599,0.001409,-0.00437,0.00548,0.022764,0.003856,-0.012689
1609060349372140408,138,1609060349372140408,0.001227,0.00667,-0.000968,0.999066,0.000315,0.042521,-0.00764,-0.000919,0.001615,0.004382,0.024177,0.004975,-0.014072
1609060349475540161,139,1609060349475540161,0.001662,0.006537,-0.001943,0.999057,0.000411,0.042712,-0.007711,-6.9e-05,0.001072,0.003046,0.024748,0.003976,-0.012928
1609060349578554153,140,1609060349578554153,-0.000448,0.004403,-0.001139,0.999057,0.000394,0.04273,-0.007636,-0.004906,-0.003981,0.004004,0.024035,0.004744,-0.011933
1609060349648634672,141,1609060349648634672,-0.000629,0.006107,-0.00026,0.99906,9.4e-05,0.042687,-0.007459,-0.003894,-0.003561,0.005902,0.005197,-0.000646,0.001765
1609060349750355005,142,1609060349750355005,4.9e-05,0.006555,-0.000462,0.999064,2.7e-05,0.042577,-0.007527,-0.001624,-0.000197,0.005037,0.008489,0.000874,-0.000302
1609060349853764772,143,1609060349853764772,-0.001265,0.006933,-0.000502,0.999069,7.6e-05,0.042486,-0.007414,-0.004686,0.000927,0.004507,0.01307,0.002288,-0.00306
1609060349956382990,144,1609060349956382990,-0.00153,0.006602,-0.000186,0.99907,2e-06,0.042458,-0.007503,-0.004505,-0.00039,0.004951,0.013061,0.002076,-0.005276
1609060350059517145,145,1609060350059517145,-0.000222,0.006864,-0.000777,0.999067,0.000104,0.042518,-0.007481,-0.000422,0.001389,0.003641,0.01799,0.002961,-0.007933
1609060350162584782,146,1609060350162584782,-0.000109,0.005152,-0.000772,0.999073,0.00032,0.042362,-0.007536,9.2e-05,-0.002197,0.003571,0.022522,0.003848,-0.010652
1609060350265693426,147,1609060350265693426,0.001256,0.004632,-0.000836,0.999074,0.000232,0.042361,-0.007501,0.003716,-0.002675,0.00236,0.023166,0.003921,-0.012987
1609060350369354963,148,1609060350369354963,0.000893,0.005865,-0.000787,0.999076,0.000274,0.042307,-0.007518,0.002413,-6.8e-05,0.002706,0.02402,0.003631,-0.013085
1609060350472209215,149,1609060350472209215,0.001015,0.00772,-0.000564,0.999074,0.000281,0.042364,-0.007415,0.003172,0.005269,0.003575,0.026889,0.00386,-0.012124
1609060350575234413,150,1609060350575234413,0.000388,0.007674,-0.002325,0.999077,0.000311,0.042268,-0.007568,0.000809,0.004017,0.000245,0.023296,0.006155,-0.012562
1609060350678378105,151,1609060350678378105,-0.000336,0.003304,-0.002676,0.999082,0.000368,0.042157,-0.007581,-0.000105,-0.005865,-0.000119,0.024763,0.005452,-0.011229
1609060350749866486,152,1609060350749866486,-0.00172,0.005949,-0.002663,0.999071,5.8e-05,0.042411,-0.007549,-0.002512,-0.003015,-0.000142,0.010928,0.001064,-0.002151
1609060350850369453,153,1609060350850369453,0.001019,0.00675,-0.002461,0.999064,7.1e-05,0.042595,-0.007509,0.003222,-0.000516,0.002245,0.008372,0.002341,-0.002021
1609060350955535412,154,1609060350955535412,0.001205,0.010055,-0.001249,0.999062,5.8e-05,0.042628,-0.007523,0.002789,0.007931,0.005612,0.015732,0.001258,-0.005748
1609060351056481838,155,1609060351056481838,0.002129,0.0108,-0.000155,0.999062,4.1e-05,0.042646,-0.00744,0.004214,0.009055,0.008314,0.016125,0.003225,-0.006281
1609060351159757376,156,1609060351159757376,0.001527,0.009595,-0.000379,0.999063,0.000133,0.0426,-0.007622,0.001477,0.004597,0.006176,0.020671,0.002879,-0.009549
1609060351262967587,157,1609060351262967587,0.000864,0.007975,-0.000215,0.999066,3.3e-05,0.042537,-0.007507,-0.000578,0.000436,0.006586,0.020559,0.001987,-0.011146
1609060351365724325,158,1609060351365724325,0.001198,0.005758,0.000203,0.999061,0.000275,0.042651,-0.007483,-0.000387,-0.003587,0.007024,0.022364,0.005908,-0.011613
1609060351468960762,159,1609060351468960762,0.001509,0.005501,-0.00061,0.999064,0.00027,0.042584,-0.007575,0.000745,-0.004244,0.004144,0.023778,0.005276,-0.01338
1609060351572281599,160,1609060351572281599,-0.000304,0.00775,-0.000275,0.999067,0.000263,0.042495,-0.007589,-0.003427,0.001719,0.004746,0.025855,0.005423,-0.012949
1609060351680430174,161,1609060351680430174,-9.4e-05,0.007678,-0.000352,0.999066,0.000339,0.042502,-0.007667,-0.00255,0.002255,0.005505,0.023117,0.00558,-0.012197
1609060351778410196,162,1609060351778410196,0.000197,0.007619,-0.001146,0.999061,0.000261,0.042644,-0.0076,-0.001567,0.001064,0.003038,0.024727,0.005457,-0.010705
1609060351849167109,163,1609060351849167109,-0.000131,0.009638,-0.001233,0.999065,2.3e-05,0.04259,-0.007368,-0.00153,0.001908,0.001795,0.005786,0.001921,0.001726
1609060351951774836,164,1609060351951774836,0.000689,0.008544,-0.001291,0.999066,0.000105,0.042536,-0.007519,0.001017,-0.000938,0.001836,0.011903,0.001569,-0.002927
1609060352053684950,165,1609060352053684950,0.000237,0.007773,-0.001802,0.999066,9.5e-05,0.042536,-0.007487,-0.000681,-0.002381,0.001227,0.01318,0.00359,-0.005991
1609060352156837225,166,1609060352156837225,0.001182,0.009928,-0.001827,0.99906,6.4e-05,0.042678,-0.007495,0.001376,0.003288,0.002271,0.016292,0.005093,-0.006878
1609060352260051012,167,1609060352260051012,0.002777,0.010819,-0.002618,0.999063,0.000116,0.042623,-0.007468,0.004367,0.005631,0.000944,0.01884,0.002993,-0.008856
1609060352362803698,168,1609060352362803698,0.000815,0.011082,-0.002185,0.999063,0.000108,0.042601,-0.007561,-0.001988,0.004236,0.003214,0.022221,0.003056,-0.010372
1609060352465768814,169,1609060352465768814,0.000343,0.010914,-0.001392,0.999067,0.000224,0.042511,-0.007538,-0.002997,0.00299,0.006113,0.021099,0.003127,-0.011729
1609060352568870783,170,1609060352568870783,0.00015,0.011732,-0.000897,0.999066,0.000246,0.042504,-0.00773,-0.002753,0.004284,0.007116,0.024825,0.004621,-0.012292
1609060352672152281,171,1609060352672152281,-8.5e-05,0.010746,4.7e-05,0.999058,0.000183,0.0427,-0.007693,-0.002826,0.002067,0.008954,0.023723,0.006388,-0.01213
1609060352775721312,172,1609060352775721312,0.000118,0.008872,0.000683,0.999065,0.000254,0.042534,-0.007719,-0.001044,-0.0021,0.009578,0.024629,0.005581,-0.011865
1609060352849160910,173,1609060352849160910,-0.0005,0.008728,0.000423,0.999075,6.8e-05,0.042343,-0.007437,-0.001407,-0.005254,0.006992,0.008338,0.00283,-0.000198
1609060352950887918,174,1609060352950887918,-5.6e-05,0.008935,5e-05,0.999068,9.7e-05,0.042498,-0.007514,0.000592,-0.002956,0.004549,0.008344,0.001319,-0.002406
1609060353053784370,175,1609060353053784370,-0.001095,0.009174,-1.8e-05,0.999066,0.000108,0.042553,-0.007389,-0.002433,-0.001643,0.004962,0.014679,0.004419,-0.005469
1609060353156775951,176,1609060353156775951,0.001921,0.008747,-0.000435,0.999061,4e-05,0.042645,-0.00752,0.005091,-0.00264,0.003297,0.013842,0.003899,-0.006255
1609060353259968281,177,1609060353259968281,0.000236,0.006804,2.5e-05,0.999063,0.000162,0.042614,-0.007544,-0.000114,-0.005914,0.00418,0.019811,0.000895,-0.010287
1609060353363960743,178,1609060353363960743,5.1e-05,0.007937,-0.000979,0.999073,7.4e-05,0.042359,-0.007575,-0.000105,-0.002375,0.00196,0.022743,0.001523,-0.010591
1609060353466013432,179,1609060353466013432,0.0021,0.006676,-0.002668,0.999064,0.000115,0.042566,-0.007646,0.003936,-0.006083,-0.002099,0.020878,0.003827,-0.010937
1609060353568959236,180,1609060353568959236,0.000668,0.007327,-0.001892,0.999058,0.000261,0.042719,-0.007621,-0.00137,-0.003137,0.001111,0.024039,0.005271,-0.01209
1609060353672769070,181,1609060353672769070,0.000971,0.004975,-0.002167,0.999058,0.000228,0.042713,-0.007643,-0.001069,-0.007223,0.001543,0.024943,0.005437,-0.013095
1609060353775416613,182,1609060353775416613,-7.9e-05,0.004603,-0.00196,0.99907,0.000348,0.042396,-0.007721,-0.002753,-0.00677,0.001394,0.024579,0.005884,-0.012548
1609060353878434420,183,1609060353878434420,-0.00087,0.00473,-0.001762,0.99906,0.000412,0.042652,-0.007643,-0.004341,-0.004703,0.002465,0.023249,0.003523,-0.012498
1609060353950099945,184,1609060353950099945,-2.3e-05,0.005061,-0.003245,0.999062,0.000119,0.042635,-0.007529,-0.001074,-0.00641,-0.001773,0.007735,0.002836,-0.000629
1609060354050130129,185,1609060354050130129,0.001438,0.006859,-0.003652,0.99906,8.4e-05,0.0427,-0.007389,0.003149,-0.000344,-0.001549,0.009784,0.000641,-0.003725
1609060354154399157,186,1609060354154399157,0.001866,0.006381,-0.003517,0.999062,0.000114,0.042612,-0.007592,0.003115,-0.001403,0.000225,0.016872,0.00465,-0.006827
1609060354256497860,187,1609060354256497860,0.00216,0.005723,-0.003159,0.999063,0.000201,0.042601,-0.007512,0.00307,-0.00164,0.001842,0.015629,0.003549,-0.007443
1609060354359743595,188,1609060354359743595,0.003792,0.004779,-0.003107,0.999061,0.000113,0.04266,-0.007455,0.006552,-0.001983,0.001877,0.015008,0.003615,-0.008261
1609060354462809086,189,1609060354462809086,0.002832,0.006549,-0.002107,0.999061,0.000176,0.042676,-0.007463,0.001852,0.00384,0.00413,0.022684,0.003752,-0.011216
1609060354566198111,190,1609060354566198111,0.002872,0.005833,-0.002372,0.999064,0.00023,0.042591,-0.007536,0.000945,0.001246,0.003229,0.0204,0.001386,-0.012379
1609060354668872833,191,1609060354668872833,0.002822,0.006236,-0.001393,0.999052,0.0003,0.04285,-0.007575,-0.000252,0.002171,0.005773,0.025827,0.005165,-0.01266
1609060354772094727,192,1609060354772094727,0.001111,0.008656,-0.001474,0.999055,0.000237,0.042764,-0.007661,-0.004274,0.007501,0.004783,0.02377,0.005482,-0.013195
1609060354875271082,193,1609060354875271082,0.000631,0.008441,-0.00152,0.999059,0.000336,0.042664,-0.007678,-0.004422,0.00618,0.003477,0.024134,0.006168,-0.012629
1609060354978046894,194,1609060354978046894,-0.000368,0.009606,-0.003226,0.999057,0.000372,0.042675,-0.007887,-0.005875,0.007024,-0.000611,0.023315,0.004088,-0.012169
1609060355048535824,195,1609060355048535824,7.2e-05,0.009568,-0.003032,0.999065,-4.2e-05,0.042541,-0.007625,-0.003372,0.001892,-0.0008,0.007874,0.003082,-0.000202
1609060355150753736,196,1609060355150753736,-0.000616,0.008121,-0.001914,0.999074,9.4e-05,0.04235,-0.007497,-0.005108,-0.00114,0.004665,0.011119,0.003047,-0.002462
1609060355253820658,197,1609060355253820658,0.000756,0.008993,-0.001588,0.999068,0.000114,0.042499,-0.007445,-0.000661,0.002469,0.005546,0.014006,0.00285,-0.0051
1609060355356574297,198,1609060355356574297,0.000445,0.008833,-0.000895,0.999063,3.8e-05,0.042616,-0.00748,-0.002169,0.001697,0.006029,0.016317,0.002775,-0.006983
1609060355459748983,199,1609060355459748983,-0.000763,0.007098,-0.000667,0.999068,9.4e-05,0.042498,-0.00748,-0.003651,-0.002277,0.00462,0.018094,0.003074,-0.009625
1609060355565509081,200,1609060355565509081,-0.000488,0.008014,-0.002341,0.999064,0.000189,0.04258,-0.007562,-0.002523,0.001267,0.001197,0.024376,0.004706,-0.013547
1609060355665901661,201,1609060355665901661,-0.000115,0.007272,-0.001873,0.999066,7.4e-05,0.04251,-0.007627,-0.000889,-0.000799,0.00301,0.0231,0.003754,-0.012174
1609060355769042015,202,1609060355769042015,-0.000287,0.00917,-0.000801,0.999068,0.000199,0.0425,-0.007405,-0.000492,0.004172,0.004896,0.022708,0.00442,-0.011681
1609060355872229338,203,1609060355872229338,-0.00099,0.009469,-0.000998,0.999069,0.00021,0.042451,-0.007602,-0.002043,0.004433,0.003563,0.025839,0.006098,-0.012933
1609060355975613117,204,1609060355975613117,-0.001596,0.010474,-0.001302,0.999072,0.00032,0.042376,-0.007664,-0.003341,0.005821,0.002892,0.022923,0.005172,-0.013279
1609060356078740358,205,1609060356078740358,0.001091,0.011152,-0.00107,0.999058,0.00022,0.042683,-0.00773,0.004047,0.005447,0.00331,0.025231,0.006722,-0.012153
1609060356148900032,206,1609060356148900032,-0.001512,0.011299,-3.3e-05,0.99907,-1.1e-05,0.042446,-0.007461,-0.002406,0.001103,0.00426,0.006017,0.002244,0.001644
1609060356250971794,207,1609060356250971794,0.000916,0.010932,-0.000344,0.999069,8e-05,0.042488,-0.007433,0.004723,-0.000295,0.00265,0.007033,0.000855,0.000559
1609060356353475809,208,1609060356353475809,-0.000614,0.011533,-0.001619,0.999059,8e-05,0.042688,-0.00755,-0.000311,0.001721,-0.001111,0.011404,0.002476,-0.002839
1609060356456522942,209,1609060356456522942,0.000982,0.010901,-0.002175,0.999065,7e-06,0.042551,-0.007608,0.003257,0.001057,-0.000551,0.014854,0.002368,-0.005968
1609060356561446905,210,1609060356561446905,0.000121,0.012089,-0.002077,0.999064,8.2e-05,0.042587,-0.007574,0.000849,0.004124,-4.6e-05,0.016193,0.005299,-0.008708
1609060356664868832,211,1609060356664868832,0.000803,0.010774,-0.002831,0.999063,0.000272,0.042602,-0.007539,0.002257,0.000643,-0.00036,0.021068,0.001651,-0.010193
1609060356766592026,212,1609060356766592026,0.00084,0.009714,-0.002732,0.999064,0.000163,0.042591,-0.007423,0.002032,-0.002019,0.000223,0.022539,0.005802,-0.012995
1609060356869700670,213,1609060356869700670,0.001149,0.009048,-0.0038,0.999065,0.000246,0.042546,-0.007601,0.002647,-0.003451,-0.001621,0.023269,0.004911,-0.012269
1609060356972997665,214,1609060356972997665,0.002029,0.008054,-0.003746,0.999061,0.00015,0.042634,-0.007683,0.004521,-0.005276,-0.000711,0.024381,0.007465,-0.012146
1609060357075427771,215,1609060357075427771,0.001526,0.005219,-0.002693,0.999059,0.000344,0.042698,-0.007593,0.002525,-0.01054,0.001649,0.023049,0.005152,-0.012632
1609060357178622246,216,1609060357178622246,0.00071,0.00731,-0.002871,0.999064,0.000332,0.042574,-0.007587,0.001108,-0.003302,5e-05,0.022428,0.004002,-0.012309
1609060357248783112,217,1609060357248783112,-0.001454,0.004663,0.001,0.999064,9e-05,0.042618,-0.007381,-0.003194,-0.011508,0.006918,0.007036,0.003272,-0.001066
1609060357350047350,218,1609060357350047350,0.000156,0.004178,0.000815,0.999066,2.3e-05,0.042548,-0.00747,0.002692,-0.009103,0.003978,0.008285,0.000552,0.000383
1609060357453486919,219,1609060357453486919,-0.002998,0.006308,-0.000881,0.999069,3e-06,0.042484,-0.007385,-0.004989,-0.002141,-0.000566,0.012061,0.001294,-0.00215
1609060357556615591,220,1609060357556615591,-0.001112,0.005821,-0.000454,0.999063,7.7e-05,0.042664,-0.007242,0.000798,-0.001208,0.001432,0.013661,0.002176,-0.005702
1609060357659832239,221,1609060357659832239,-0.001929,0.00831,-0.00124,0.999061,0.000248,0.04268,-0.0074,-0.001125,0.005536,-5.3e-05,0.018629,0.003583,-0.009761
1609060357762833118,222,1609060357762833118,-0.001793,0.006446,-0.00066,0.99906,0.000105,0.042664,-0.007545,-0.000715,0.000206,0.002469,0.022234,0.001993,-0.011959
1609060357865934134,223,1609060357865934134,-0.003288,0.00766,-0.000415,0.999061,0.00012,0.042646,-0.007539,-0.004007,0.003473,0.00258,0.02213,0.003595,-0.010606
1609060357968722343,224,1609060357968722343,-0.002456,0.009904,-0.000926,0.999063,0.000214,0.042585,-0.007599,-0.000319,0.008196,0.00137,0.02332,0.006183,-0.011885
1609060358072232246,225,1609060358072232246,-0.000695,0.008911,-0.002287,0.999057,0.000211,0.042731,-0.007669,0.004237,0.004299,-0.001832,0.023647,0.00519,-0.01328
1609060358175340652,226,1609060358175340652,-0.00041,0.007471,-0.003039,0.999063,0.000236,0.042574,-0.007664,0.004945,-0.000487,-0.002972,0.024736,0.005939,-0.012394
1609060358278251410,227,1609060358278251410,-0.00072,0.008103,-0.002089,0.999054,0.000355,0.042804,-0.007666,0.003482,-0.000101,-0.00093,0.02359,0.005554,-0.009936
1609060358348742962,228,1609060358348742962,-0.001563,0.006886,2.5e-05,0.999061,4.7e-05,0.042662,-0.007452,0.001538,-0.006215,0.002895,0.006963,0.002157,0.000313
1609060358450282574,229,1609060358450282574,-0.002867,0.007733,0.000232,0.999066,6.4e-05,0.042553,-0.007466,-0.000557,-0.001847,0.002576,0.008875,0.001499,-0.001532
1609060358553434372,230,1609060358553434372,-0.003259,0.007265,-0.000284,0.999061,3.6e-05,0.042628,-0.007666,-0.001562,-0.002158,0.001603,0.01382,0.002102,-0.005061
1609060358656509638,231,1609060358656509638,-0.002338,0.005406,0.000682,0.999067,3.5e-05,0.042514,-0.007545,0.001787,-0.005314,0.004714,0.014419,0.00217,-0.00613
1609060358759878397,232,1609060358759878397,-0.00069,0.006045,-0.000343,0.999064,9.5e-05,0.042577,-0.007527,0.005342,-0.002585,0.001886,0.017177,0.002653,-0.006237
1609060358862795830,233,1609060358862795830,-0.000851,0.009378,-0.001464,0.999063,6.1e-05,0.042576,-0.007694,0.003303,0.00591,0.000237,0.020088,0.002558,-0.011133
1609060358965811729,234,1609060358965811729,-0.001649,0.009864,-0.00096,0.999058,0.000211,0.042714,-0.007551,0.000663,0.006162,0.001839,0.022329,0.002523,-0.011831
1609060359068913221,235,1609060359068913221,-0.002496,0.00924,2.4e-05,0.999062,0.000199,0.0426,-0.007639,-0.001321,0.003652,0.003687,0.024981,0.005248,-0.012624
1609060359172047138,236,1609060359172047138,-0.003305,0.008533,-0.001603,0.999055,0.000227,0.042761,-0.007693,-0.004097,0.001136,-0.000793,0.025095,0.005999,-0.013849
1609060359275064945,237,1609060359275064945,-0.004202,0.009972,-0.005042,0.999066,0.000359,0.0425,-0.007681,-0.00506,0.003554,-0.006911,0.02586,0.006919,-0.011759
1609060359378169775,238,1609060359378169775,-0.002487,0.008305,-0.0056,0.999064,0.000329,0.042569,-0.007666,1.9e-05,-0.001103,-0.006258,0.023884,0.007239,-0.011738
1609060359448380709,239,1609060359448380709,-0.003449,0.007703,0.000366,0.999069,3.7e-05,0.042473,-0.007438,3.3e-05,-0.006351,0.005623,0.007049,0.000294,1e-06
1609060359550393581,240,1609060359550393581,-0.002188,0.006467,-0.000331,0.999068,2.4e-05,0.04251,-0.007466,0.002681,-0.007715,0.002752,0.007169,0.002137,0.000361
1609060359653324127,241,1609060359653324127,-0.002807,0.008313,-0.001128,0.999063,-4e-06,0.042607,-0.007536,0.00027,-0.002031,-0.00017,0.011937,0.001647,-0.003443
1609060359756447077,242,1609060359756447077,-0.003433,0.006529,-0.001404,0.999068,9.1e-05,0.042514,-0.007409,-0.00063,-0.004474,-0.000582,0.018215,0.003316,-0.008437
1609060359859733820,243,1609060359859733820,-4.4e-05,0.007688,-0.001816,0.999061,0.00017,0.042659,-0.007433,0.008405,-0.00031,-0.001276,0.01896,0.004129,-0.010683
1609060359962715626,244,1609060359962715626,0.000272,0.006837,-0.002256,0.99906,0.000196,0.042674,-0.007566,0.006826,-0.00121,-0.000414,0.020816,0.004466,-0.009659
1609060360065917492,245,1609060360065917492,-0.000733,0.005745,-0.001491,0.999062,0.000236,0.042628,-0.007579,0.002908,-0.002914,0.001692,0.02181,0.004353,-0.012531
1609060360169003725,246,1609060360169003725,-0.000948,0.00676,-0.001284,0.999062,0.000236,0.042627,-0.007571,0.001442,0.002009,0.003401,0.02405,0.00649,-0.012188
1609060360272150040,247,1609060360272150040,-0.002691,0.00871,-0.002321,0.999054,0.000275,0.042784,-0.007695,-0.003535,0.006154,0.000164,0.02285,0.003931,-0.013958
1609060360375067234,248,1609060360375067234,-0.00334,0.011107,-0.001712,0.999062,0.000275,0.042618,-0.007588,-0.003771,0.010283,0.002493,0.024636,0.005452,-0.013616
1609060360478045464,249,1609060360478045464,-0.002885,0.011569,-0.001952,0.999056,0.000326,0.042721,-0.007743,-0.000504,0.00822,0.000533,0.024463,0.003481,-0.012281
1609060360548471689,250,1609060360548471689,-0.004048,0.01041,0.001026,0.999067,8e-06,0.042526,-0.007478,-0.001971,-0.000597,0.005158,0.004419,-0.000137,0.00252
1609060360650310040,251,1609060360650310040,-0.005501,0.008546,0.001209,0.999071,-2e-06,0.042421,-0.007532,-0.003763,-0.006123,0.003096,0.006404,0.001874,0.000201
1609060360753682852,252,1609060360753682852,-0.003899,0.006193,0.000983,0.999068,3.1e-05,0.042519,-0.007336,0.001845,-0.010466,0.001961,0.00977,0.00145,-0.002123
1609060360856611252,253,1609060360856611252,-0.002974,0.004558,2e-05,0.999068,0.000103,0.042503,-0.00743,0.004093,-0.011748,-0.000226,0.016311,0.002918,-0.008858
1609060360959744453,254,1609060360959744453,-0.002842,0.00564,-0.001893,0.999068,0.000138,0.042485,-0.007542,0.003836,-0.006442,-0.004735,0.020161,0.003082,-0.010644
1609060361062636852,255,1609060361062636852,-0.001907,0.006496,-0.003278,0.999067,0.000223,0.042516,-0.007486,0.005196,-0.002679,-0.005577,0.02034,0.002993,-0.010199
1609060361166207075,256,1609060361166207075,-0.001854,0.005872,-0.002913,0.999066,0.000142,0.04252,-0.007645,0.004337,-0.003402,-0.002325,0.023886,0.004561,-0.011809
1609060361269498348,257,1609060361269498348,-0.000808,0.006126,-0.002821,0.999064,0.000297,0.042547,-0.007686,0.006124,-0.001514,-6.5e-05,0.025802,0.004843,-0.013239
1609060361372528076,258,1609060361372528076,-0.001802,0.006985,-0.00301,0.999065,0.000312,0.042553,-0.007609,0.002266,0.001217,-0.000524,0.024281,0.00462,-0.014388
1609060361475512743,259,1609060361475512743,-0.001836,0.00755,-0.00276,0.999055,0.000223,0.042755,-0.007709,0.001919,0.00144,-0.000173,0.023121,0.006505,-0.012732
1609060361579172611,260,1609060361579172611,-0.001185,0.00786,-0.003414,0.999051,0.000231,0.042849,-0.00777,0.003988,0.001089,-0.002786,0.023378,0.005318,-0.011698
1609060361648321629,261,1609060361648321629,-0.000549,0.007831,0.000348,0.999063,3.2e-05,0.042642,-0.007285,0.005514,-0.001252,0.004554,0.008062,0.000197,2.2e-05
1609060361750512123,262,1609060361750512123,-0.001118,0.002744,0.001616,0.999055,0.000118,0.042835,-0.007289,0.003179,-0.010513,0.0045,0.009247,0.002385,-0.001822
1609060361852807999,263,1609060361852807999,0.000138,0.002606,0.00056,0.999059,1.6e-05,0.04273,-0.007425,0.005633,-0.008189,0.001223,0.013407,0.003286,-0.004798
1609060361955957174,264,1609060361955957174,-0.002067,0.004559,-0.000563,0.999063,2.4e-05,0.042617,-0.007531,-0.001122,-0.001225,-0.001,0.015085,0.001988,-0.005933
1609060362059494495,265,1609060362059494495,-0.002251,0.004072,-0.001591,0.999065,6.2e-05,0.04258,-0.007472,-0.000525,-0.001228,-0.003901,0.015843,0.002768,-0.008738
1609060362162713528,266,1609060362162713528,-0.001741,0.00473,3e-06,0.999065,0.000145,0.042559,-0.007533,0.001885,0.002238,0.001436,0.02217,0.003436,-0.011786
1609060362265881777,267,1609060362265881777,-0.001294,0.003358,-0.001052,0.999061,0.000173,0.042649,-0.007543,0.002591,0.000386,-0.000421,0.023254,0.005413,-0.012357
1609060362369132042,268,1609060362369132042,-0.002208,0.006699,-0.002186,0.999057,0.000302,0.042729,-0.00759,0.000436,0.007985,-0.002726,0.026194,0.004814,-0.013489
1609060362472335339,269,1609060362472335339,-0.001931,0.008326,-0.002738,0.999064,0.000294,0.042576,-0.007602,0.000996,0.009742,-0.003963,0.02519,0.005513,-0.013131
1609060362575396538,270,1609060362575396538,-0.003592,0.00999,-0.003704,0.99906,0.00038,0.042643,-0.007688,-0.002753,0.010656,-0.006756,0.023963,0.005225,-0.012308
1609060362678878307,271,1609060362678878307,-0.004534,0.009323,-0.004779,0.999058,0.000322,0.042707,-0.007657,-0.003521,0.007732,-0.007883,0.022171,0.004135,-0.01061
1609060362748673916,272,1609060362748673916,-0.003812,0.009513,-0.002713,0.999062,9e-06,0.042647,-0.007431,-0.000475,0.003634,-0.004461,0.008266,0.001164,-8e-05
1609060362850505829,273,1609060362850505829,-0.002576,0.010172,-0.003475,0.999061,-2.4e-05,0.042657,-0.00756,0.00311,0.004089,-0.007366,0.007868,-0.000217,-0.000369
1609060362953424215,274,1609060362953424215,-0.00118,0.009705,-0.003942,0.999065,2.2e-05,0.042555,-0.007523,0.005898,0.002571,-0.005633,0.013018,0.003415,-0.005606
1609060363056455612,275,1609060363056455612,-0.001113,0.009432,-0.004476,0.999062,-1.1e-05,0.04261,-0.007598,0.004977,0.001221,-0.005674,0.015393,0.002904,-0.006555
1609060363159607410,276,1609060363159607410,-0.002861,0.010329,-0.002999,0.999073,8.4e-05,0.042379,-0.007508,0.00034,0.004473,-0.000933,0.018135,0.002769,-0.010004
1609060363262762547,277,1609060363262762547,-0.002141,0.009738,-0.002948,0.99906,0.000137,0.042673,-0.00757,0.001428,0.002929,-8e-05,0.022904,0.002415,-0.011753
1609060363365814924,278,1609060363365814924,-0.001324,0.00999,-0.001087,0.99907,0.000135,0.042457,-0.007422,0.004174,0.00367,0.00471,0.023039,0.004632,-0.011691
1609060363469112635,279,1609060363469112635,0.000515,0.011293,-0.001916,0.99906,0.000187,0.042639,-0.007689,0.007971,0.005288,0.001297,0.026121,0.004123,-0.013671
1609060363572238445,280,1609060363572238445,0.000474,0.008106,-0.003212,0.999071,0.000131,0.042396,-0.007682,0.006331,-0.003199,-0.003025,0.024933,0.005119,-0.014512
1609060363675321579,281,1609060363675321579,0.000185,0.009005,-0.003084,0.999066,0.000177,0.042506,-0.007753,0.005572,-0.001204,-0.002911,0.024708,0.004634,-0.012209
1609060363778607130,282,1609060363778607130,0.002161,0.008332,-0.003366,0.999064,0.000214,0.042534,-0.007833,0.009547,-0.002873,-0.003222,0.02427,0.00559,-0.011999
1609060363848457098,283,1609060363848457098,0.000143,0.009245,-0.00118,0.999062,1.5e-05,0.042613,-0.007562,0.004919,-0.004357,-0.000192,0.006042,0.001994,0.001535
1609060363950571060,284,1609060363950571060,3.9e-05,0.00943,-0.00158,0.999065,-1e-06,0.042561,-0.007553,0.004979,-0.003371,-0.004263,0.006177,0.000362,-0.000177
1609060364053252220,285,1609060364053252220,0.000482,0.006752,-0.003888,0.999062,0.000108,0.04263,-0.00748,0.004378,-0.009671,-0.007791,0.012208,0.003849,-0.002659
1609060364156430006,286,1609060364156430006,-0.000221,0.008981,-0.004416,0.999072,0.0001,0.042415,-0.007407,0.001784,-0.001375,-0.006897,0.0149,0.003058,-0.00683
1609060364259648085,287,1609060364259648085,0.000208,0.005264,-0.003715,0.999076,0.000176,0.042306,-0.00756,0.002949,-0.00825,-0.004433,0.02004,0.004567,-0.009064
1609060364362620354,288,1609060364362620354,-0.000684,0.002944,-0.003332,0.99907,0.00019,0.042444,-0.007534,3e-06,-0.011071,-0.001676,0.020401,0.003306,-0.01192
1609060364465783358,289,1609060364465783358,0.000696,0.005368,-0.001777,0.99907,0.000167,0.042444,-0.007478,0.003329,-0.003209,0.003516,0.024326,0.003025,-0.012882
1609060364568794966,290,1609060364568794966,-0.000832,0.005638,0.00021,0.99908,0.000316,0.04221,-0.007519,0.000144,-0.001215,0.006684,0.024137,0.005113,-0.0118
1609060364671866655,291,1609060364671866655,-0.002291,0.005959,-0.000247,0.999062,0.00028,0.042646,-0.007437,-0.00345,-4.2e-05,0.005501,0.026408,0.004805,-0.012764
1609060364775324106,292,1609060364775324106,-0.003299,0.006735,-0.000497,0.999062,0.000309,0.042621,-0.007586,-0.005289,0.002194,0.004476,0.023253,0.004961,-0.013076
1609060364878245115,293,1609060364878245115,-0.004773,0.006829,-0.002791,0.999053,0.000367,0.042836,-0.00753,-0.007176,0.001747,-0.001574,0.025984,0.006801,-0.013129
1609060364948561430,294,1609060364948561430,-0.005345,0.007433,-0.00088,0.999062,9.9e-05,0.042644,-0.007427,-0.005753,0.000596,0.000769,0.008161,0.001498,-0.002989
1609060365050234318,295,1609060365050234318,-0.003906,0.008928,-0.002369,0.999058,1.3e-05,0.042758,-0.007364,-0.003073,0.005885,-0.00065,0.011527,0.002103,-0.00342
1609060365153410673,296,1609060365153410673,-0.002076,0.009963,-0.00287,0.999056,-7.2e-05,0.042772,-0.007485,0.002215,0.008868,0.000255,0.015824,0.002847,-0.010753
1609060365256483078,297,1609060365256483078,-0.001394,0.00832,-0.00214,0.999059,2.3e-05,0.042704,-0.007566,0.00296,0.002356,0.002471,0.0195,0.00361,-0.00499
1609060365359792948,298,1609060365359792948,-7.1e-05,0.007517,-0.002923,0.999065,0.000146,0.042576,-0.007472,0.006124,0.002652,-9.5e-05,0.018475,-0.000562,-0.011962
1609060365462662697,299,1609060365462662697,-0.00052,0.009049,-0.004367,0.999068,7.7e-05,0.042506,-0.007395,0.002118,0.004262,-0.001378,0.021885,0.007037,-0.005857
1609060365565434456,300,1609060365565434456,-0.001521,0.008789,-0.004132,0.99906,-0.000127,0.042668,-0.007524,-0.002712,0.006082,0.002522,0.027193,0.013918,-0.014017
1609060365669104576,301,1609060365669104576,-0.002266,0.01053,-0.003629,0.999059,0.000644,0.042689,-0.007594,0.001566,0.012401,-0.00107,0.023397,-0.005175,-0.038557
1609060365771614790,302,1609060365771614790,3.2e-05,0.012181,-0.005665,0.99906,0.000167,0.042667,-0.007526,0.00271,0.00112,-0.001739,0.029441,0.0032,0.034444
1609060365874801397,303,1609060365874801397,-0.001764,0.011993,-0.005274,0.999069,0.00027,0.042434,-0.00769,-0.000579,0.010326,-0.005532,-0.000502,-0.003618,-0.059837
1609060365978292465,304,1609060365978292465,-0.003399,0.011619,-0.004785,0.999059,0.000418,0.04258,-0.008165,-0.003053,0.017215,0.005834,0.107038,0.025352,-0.03018
1609060366048538923,305,1609060366048538923,-0.006775,0.011482,-0.001071,0.999072,0.000129,0.042428,-0.00735,-0.01532,-0.031091,0.004454,-0.112873,0.004954,0.0639
1609060366150029182,306,1609060366150029182,-0.004803,0.010636,-0.002097,0.999046,0.000154,0.042773,-0.008756,-0.005403,-0.00429,0.003297,-0.014851,0.004585,-0.004954
1609060366253244400,307,1609060366253244400,-0.002927,0.007536,-0.003364,0.999045,0.00108,0.042732,-0.009015,-0.002839,-0.010655,-0.009293,0.042467,-0.012946,-0.01355
1609060366356507778,308,1609060366356507778,-0.002788,0.006627,-0.00333,0.99906,0.000397,0.042554,-0.008214,-0.007666,-0.003432,-0.004742,0.024147,0.003219,0.001621
1609060366459547997,309,1609060366459547997,-0.001789,0.009095,-0.004289,0.999094,2.4e-05,0.041876,-0.007471,0.018558,0.004229,-0.003394,-0.035822,-0.01693,-0.038974
1609060366562590599,310,1609060366562590599,0.000283,0.009253,-0.003559,0.999072,0.000611,0.042427,-0.00727,-0.013983,0.001793,0.017989,-0.0042,0.062662,-0.032361
1609060366665657997,311,1609060366665657997,-0.000917,0.009231,-0.003732,0.999102,0.00014,0.041668,-0.007553,0.018103,-0.014918,0.003604,0.117486,-0.00529,-0.003514
1609060366769158363,312,1609060366769158363,-0.00236,0.012126,-0.000306,0.999086,-0.000552,0.042094,-0.007379,0.049661,-0.002237,-0.010405,0.075099,-0.122436,-0.004419
1609060366872115135,313,1609060366872115135,0.001852,0.010224,-0.006026,0.999054,0.000248,0.042914,-0.007006,0.017325,-0.007585,-0.00886,-0.04448,0.042132,0.034572
1609060366974959135,314,1609060366974959135,0.002627,0.011131,-0.009137,0.999086,0.000332,0.042173,-0.00691,0.030832,0.001614,-0.049911,-0.1494,-0.054636,0.010752
1609060367078755617,315,1609060367078755617,0.010344,0.009503,-0.011594,0.999023,0.000244,0.043351,-0.008463,0.05332,-0.003624,-0.037515,-0.038505,0.004255,0.002213
1609060367148311377,316,1609060367148311377,0.00667,0.008036,-0.007119,0.999058,0.000604,0.042803,-0.007063,0.051434,-0.012362,-0.018085,0.031629,0.032025,-0.019881
1609060367250182152,317,1609060367250182152,0.007165,0.007864,-0.007304,0.999058,0.000623,0.042712,-0.007547,0.032,-0.010684,-0.018068,-0.007142,0.025203,-0.001727
1609060367353706121,318,1609060367353706121,0.004962,0.00783,-0.004707,0.999059,0.000116,0.04264,-0.007861,0.009957,-0.01098,-0.000954,0.026084,0.003529,0.009611
1609060367456403732,319,1609060367456403732,0.003948,0.006357,-0.002771,0.999067,0.000456,0.042545,-0.007325,0.003619,-0.01229,0.007546,0.03671,-0.033749,-0.002519
1609060367559820890,320,1609060367559820890,0.002067,0.007173,0.000511,0.999041,0.000679,0.043121,-0.007437,0.002754,-0.0079,0.004383,0.002395,-0.069403,0.005493
1609060367662819862,321,1609060367662819862,0.005597,0.00646,-0.000554,0.999009,0.000402,0.043867,-0.007389,0.018253,-0.006637,0.008542,4.9e-05,0.0278,0.005083
1609060367765856028,322,1609060367765856028,0.005588,0.005587,0.000493,0.999028,0.000435,0.043409,-0.007566,0.011885,-0.003981,0.013186,0.017427,0.064258,-0.006693
1609060367868984699,323,1609060367868984699,0.003125,0.008908,-0.000953,0.999056,0.000687,0.042758,-0.007565,-0.002427,0.000681,0.010896,0.004418,0.06721,0.001983
1609060367972021103,324,1609060367972021103,0.004988,0.008639,-0.005411,0.99911,0.000556,0.041487,-0.007481,0.015755,0.000257,-0.031894,0.024755,-0.126191,-0.001954
1609060368075006485,325,1609060368075006485,-0.000347,0.012055,-0.006949,0.999226,0.000331,0.03857,-0.007596,0.015382,0.011797,-0.013686,-0.012451,-0.055692,-0.006928
1609060368178050756,326,1609060368178050756,0.004523,0.00942,-0.010677,0.999357,0.000853,0.035124,-0.007101,0.013038,0.000806,-0.018922,-0.007373,-0.041893,-0.005766
1609060368248478413,327,1609060368248478413,0.015061,0.001725,-0.008053,0.999389,0.001293,0.034258,-0.00666,0.02731,-0.023284,-0.011895,0.000871,-0.042001,0.012577
1609060368350262165,328,1609060368350262165,0.030088,-0.003859,-0.011208,0.999441,0.001488,0.032816,-0.006147,0.044549,-0.027728,0.005426,-0.013036,0.02925,0.008768
1609060368453233242,329,1609060368453233242,0.038719,-0.007925,-0.010606,0.999418,0.001846,0.033488,-0.006114,0.042054,-0.028136,0.020345,0.034578,0.042772,0.009488
1609060368556213856,330,1609060368556213856,0.036993,-0.010151,-0.008304,0.999414,0.001701,0.033555,-0.006402,0.014684,-0.037444,0.018825,-0.066012,-0.042741,0.000609
1609060368659443140,331,1609060368659443140,0.039005,-0.013629,-0.008742,0.999533,0.002445,0.029565,-0.007249,-0.025856,-0.024566,0.055955,0.108597,-0.181071,-0.010072
1609060368762521744,332,1609060368762521744,0.018623,-0.016973,0.010374,0.999714,0.003111,0.022097,-0.008565,-0.092123,-0.025701,0.268784,0.038851,-0.133652,-0.017067
1609060368865485668,333,1609060368865485668,0.006534,-0.018818,0.049487,0.999834,0.003386,0.015728,-0.008441,-0.10487,-0.031429,0.497442,-0.002815,-0.12366,-0.015154
1609060368968556881,334,1609060368968556881,0.001953,-0.019027,0.113967,0.999881,0.004131,0.011419,-0.009493,-0.08737,-0.027012,0.75676,0.066025,-0.083173,-0.009667
1609060369071669817,335,1609060369071669817,-0.007052,-0.025073,0.197661,0.999923,0.00359,0.008609,-0.008106,-0.076787,-0.028209,0.995129,0.06558,-0.031866,-0.009384
1609060369174860954,336,1609060369174860954,-0.018029,-0.021805,0.314615,0.999917,0.003373,0.005882,-0.010877,-0.059858,-0.026825,1.224294,0.000318,-0.024135,-0.006416
1609060369277888775,337,1609060369277888775,-0.020872,-0.022209,0.45602,0.999926,0.002813,0.004301,-0.011017,-0.031712,-0.038727,1.429597,0.058593,0.003128,0.021229
1609060369348282337,338,1609060369348282337,-0.019069,-0.032934,0.562044,0.999909,0.003576,0.005368,-0.011818,-0.007813,-0.062758,1.534074,0.023363,-0.015614,0.014542
1609060369449961424,339,1609060369449961424,-0.011343,-0.054746,0.72663,0.99993,0.003633,0.004799,-0.010121,0.031295,-0.107486,1.657474,-0.110883,0.018667,0.012065
1609060369553020477,340,1609060369553020477,-0.011682,-0.069672,0.891534,0.999982,0.003095,0.004951,8.9e-05,0.042817,-0.11327,1.662778,-0.162259,0.007291,-0.001165
1609060369656153917,341,1609060369656153917,-0.015857,-0.079543,1.05502,0.99996,0.002863,0.005493,0.006298,0.035903,-0.109566,1.603387,-0.251952,0.011135,0.00139
1609060369759435415,342,1609060369759435415,-0.00393,-0.09035,1.209931,0.999687,0.00271,0.005101,0.024322,0.0756,-0.078098,1.483161,-0.398745,-0.009711,-0.007116
1609060369862546206,343,1609060369862546206,0.007122,-0.096786,1.352668,0.999305,0.002393,0.004513,0.036918,0.102518,-0.010469,1.363952,-0.27492,-0.010881,0.000963
1609060369965663671,344,1609060369965663671,0.017605,-0.092264,1.489741,0.998895,0.002835,0.004216,0.046705,0.121491,0.091167,1.282696,-0.096749,0.007117,0.007237
1609060370068766832,345,1609060370068766832,0.036611,-0.073294,1.619536,0.998759,0.002589,0.004369,0.049528,0.162153,0.223447,1.243981,0.080215,-0.009538,0.005836
1609060370171928167,346,1609060370171928167,0.062883,-0.044685,1.757059,0.999165,0.002689,0.00491,0.040452,0.209068,0.349154,1.254419,0.417515,0.026299,0.014123
1609060370275095940,347,1609060370275095940,0.088799,-0.013138,1.891504,0.999724,0.003167,0.006014,0.022463,0.245719,0.412662,1.271147,0.470032,0.040077,0.001489
1609060370378220320,348,1609060370378220320,0.10924,0.026669,2.028605,0.999952,0.00268,0.009238,-0.001661,0.249604,0.42011,1.303495,0.336189,0.091006,0.002592
1609060370448285580,349,1609060370448285580,0.123206,0.065315,2.124807,0.999794,0.0031,0.012992,-0.015231,0.255408,0.418024,1.330186,0.217535,0.10716,0.008613
1609060370549949884,350,1609060370549949884,0.147933,0.102413,2.260175,0.999631,0.003844,0.01697,-0.020855,0.257626,0.376475,1.340058,0.100789,0.07745,0.001398
1609060370652942657,351,1609060370652942657,0.186909,0.126187,2.390866,0.999546,0.004261,0.020589,-0.021576,0.285088,0.302875,1.313212,0.010546,0.050077,-0.004814
1609060370756180763,352,1609060370756180763,0.221701,0.149819,2.513724,0.999512,0.004444,0.022608,-0.021084,0.290073,0.249618,1.210168,-0.04218,-0.01004,-0.010818
1609060370859647036,353,1609060370859647036,0.245839,0.170346,2.625252,0.999551,0.005969,0.023751,-0.017254,0.262017,0.235839,1.051905,-0.199284,0.085986,-0.110279
1609060370962866783,354,1609060370962866783,0.26919,0.198345,2.723969,0.999514,0.012274,0.025564,-0.012876,0.239212,0.248262,0.898293,-0.07592,0.009242,-0.15787
1609060371066040516,355,1609060371066040516,0.29266,0.226877,2.812208,0.999383,0.020875,0.026282,-0.010274,0.218345,0.252447,0.798276,0.005866,0.000501,-0.175383
1609060371169297218,356,1609060371169297218,0.325112,0.25885,2.890768,0.999141,0.030471,0.027112,-0.007242,0.219901,0.266589,0.72094,-0.050657,0.012857,-0.188817
1609060371272195101,357,1609060371272195101,0.347144,0.284007,2.962696,0.998816,0.03918,0.028208,-0.005854,0.193639,0.257683,0.668368,-0.014724,-0.007739,-0.163103
1609060371375003576,358,1609060371375003576,0.348578,0.305893,3.034098,0.998531,0.045696,0.028562,-0.00547,0.126203,0.235381,0.635732,0.003175,0.005487,-0.104979
1609060371477913857,359,1609060371477913857,0.355091,0.324577,3.100903,0.998351,0.049733,0.028298,-0.004375,0.08776,0.209676,0.609253,0.02823,0.00401,-0.046602
1609060371547983646,360,1609060371547983646,0.366354,0.345005,3.145307,0.998247,0.052389,0.027199,-0.004146,0.085296,0.211242,0.606946,-0.045936,-0.068332,-0.023034
1609060371649642229,361,1609060371649642229,0.382064,0.368335,3.201275,0.998224,0.053655,0.025438,-0.004636,0.084374,0.220019,0.61482,-0.000693,-0.063331,-0.013907
1609060371752567768,362,1609060371752567768,0.396558,0.385311,3.254769,0.998275,0.053837,0.02303,-0.004098,0.085297,0.204128,0.550848,-0.010808,-0.051748,0.005691
1609060371855727673,363,1609060371855727673,0.410943,0.406922,3.305781,0.998327,0.053971,0.020295,-0.004144,0.089045,0.214296,0.517999,0.053217,-0.037376,0.007508
