time,field.header.seq,field.header.stamp,field.pose.pose.position.x,field.pose.pose.position.y,field.pose.pose.position.z,field.pose.pose.orientation.x,field.pose.pose.orientation.y,field.pose.pose.orientation.z,field.pose.pose.orientation.w,field.twist.twist.linear.x,field.twist.twist.linear.y,field.twist.twist.linear.z,field.twist.twist.angular.x,field.twist.twist.angular.y,field.twist.twist.angular.z
1609059608451182842,3,1609059608451182842,-0.011025,-0.013195,0.003895,0.999716,0.00029,0.022112,0.008864,0.016365,0.005201,0.003307,0.021342,0.004422,0.00497
1609059608546182394,4,1609059608546182394,-0.011929,-0.016338,0.002635,0.999717,0.000231,0.022015,0.008932,0.011561,-0.001516,-0.000109,0.021424,0.002081,0.00591
1609059608640260458,5,1609059608640260458,-0.015507,-0.013188,0.001799,0.999717,0.000227,0.022071,0.00886,0.00223,0.006368,-0.001686,0.01667,0.002436,0.007784
1609059608751183748,6,1609059608751183748,-0.016758,-0.011809,0.001795,0.999718,7.2e-05,0.02204,0.008746,2.8e-05,0.009266,0.000174,0.021271,0.004673,0.005286
1609059608844347715,7,1609059608844347715,-0.016032,-0.008861,0.001385,0.999716,0.000206,0.022155,0.008688,0.001229,0.01312,0.000171,0.01939,0.003149,0.006415
1609059608940175772,8,1609059608940175772,-0.011395,-0.007319,0.002765,0.999719,0.000181,0.021997,0.008745,0.01019,0.014269,0.003331,0.01833,0.003433,0.007439
1609059609051267624,9,1609059609051267624,-0.016306,-0.006037,0.003973,0.999717,0.000124,0.02206,0.008837,-0.000669,0.015411,0.005544,0.023209,0.005187,0.006163
1609059609145016670,10,1609059609145016670,-0.015585,-0.006749,0.004285,0.999717,0.000162,0.022064,0.008839,0.000667,0.011624,0.005091,0.020659,0.002798,0.007099
1609059609240235329,11,1609059609240235329,-0.017413,-0.005553,0.003197,0.999715,0.000276,0.022126,0.008928,-0.003512,0.012128,0.001772,0.01793,0.0016,0.008082
1609059609351190329,12,1609059609351190329,-0.017403,-0.006722,0.002337,0.999715,0.000161,0.022158,0.008798,-0.002827,0.008,0.000455,0.021571,0.003317,0.005433
1609059609445044994,13,1609059609445044994,-0.014943,-0.009361,0.003245,0.999719,0.000208,0.021923,0.008922,0.003702,0.001357,0.001578,0.020245,0.004973,0.006899
1609059609540071487,14,1609059609540071487,-0.017827,-0.010645,0.003179,0.999718,0.000149,0.022046,0.008806,-0.002523,-0.001664,0.001547,0.015215,-0.001676,0.006629
1609059609651515722,15,1609059609651515722,-0.018258,-0.011174,0.003196,0.999717,0.00013,0.022113,0.008725,-0.002792,-0.001029,0.002581,0.020147,0.004695,0.004732
1609059609745394945,16,1609059609745394945,-0.01607,-0.013502,0.003017,0.999717,0.0002,0.02213,0.008708,0.002715,-0.005745,0.002093,0.019454,0.001608,0.00691
1609059609840183735,17,1609059609840183735,-0.015721,-0.012333,0.00333,0.999716,0.000179,0.022143,0.0088,0.002994,-0.001132,0.003024,0.015636,0.000561,0.007121
1609059609951174736,18,1609059609951174736,-0.014923,-0.01024,0.002904,0.999717,4.5e-05,0.022028,0.008884,0.00406,0.005808,0.001078,0.020988,0.004881,0.005618
1609059610045047283,19,1609059610045047283,-0.015975,-0.009778,0.003021,0.999715,0.00014,0.022156,0.008855,0.001383,0.005206,0.001761,0.019453,0.002384,0.006964
1609059610140227318,20,1609059610140227318,-0.01903,-0.01003,0.004017,0.999715,0.000233,0.02214,0.008836,-0.004342,0.004612,0.004467,0.018342,0.002118,0.007815
1609059610251176357,21,1609059610251176357,-0.019306,-0.010641,0.00423,0.999721,8.1e-05,0.022003,0.008514,-0.00356,0.002986,0.005305,0.022394,0.004497,0.004035
1609059610344976187,22,1609059610344976187,-0.018424,-0.009605,0.004409,0.999718,0.000176,0.022055,0.008707,-0.001335,0.005333,0.003802,0.019487,0.002564,0.007325
1609059610440017223,23,1609059610440017223,-0.016872,-0.007269,0.004936,0.99972,0.000209,0.021935,0.008828,0.001749,0.009361,0.002819,0.015309,0.000743,0.007722
1609059610551044464,24,1609059610551044464,-0.017724,-0.008096,0.00515,0.999718,0.000111,0.022033,0.008823,-0.000101,0.00708,0.00402,0.021797,0.004263,0.004419
1609059610645067692,25,1609059610645067692,-0.01523,-0.011424,0.004614,0.999717,0.000128,0.02211,0.008708,0.005187,-0.001725,0.002257,0.020013,0.002491,0.006234
1609059610739526987,26,1609059610739526987,-0.016158,-0.010307,0.003915,0.999716,0.00022,0.022125,0.008825,0.002794,0.001171,-0.000639,0.015492,-4.3e-05,0.007177
1609059610850683689,27,1609059610850683689,-0.015496,-0.008426,0.004478,0.999713,0.000126,0.022218,0.008938,0.003213,0.00699,0.000233,0.019911,0.000312,0.007542
1609059610946766138,28,1609059610946766138,-0.016405,-0.010674,0.004094,0.999718,3.1e-05,0.022005,0.008916,0.001226,0.000799,-0.000508,0.020887,0.004322,0.006766
1609059611040043831,29,1609059611040043831,-0.015833,-0.010464,0.002388,0.999718,0.000148,0.022025,0.008843,0.002519,0.001876,-0.004581,0.016333,0.000547,0.007007
1609059611153013945,30,1609059611153013945,-0.021934,-0.012781,0.00397,0.999716,0.000171,0.022116,0.00884,-0.01858,-0.004309,0.003101,0.021252,0.002849,0.003672
1609059611246251822,31,1609059611246251822,-0.016135,-0.015933,0.002334,0.999715,0.000144,0.022167,0.008801,0.002991,-0.012503,-0.002466,0.019793,0.003998,0.007215
1609059611340208530,32,1609059611340208530,-0.012247,-0.016891,0.004338,0.999712,0.000144,0.022238,0.008922,0.011959,-0.010604,0.003441,0.017179,0.002563,0.007652
1609059611451697111,33,1609059611451697111,-0.013995,-0.013834,0.006496,0.999713,0.000221,0.022132,0.009064,0.006323,0.000319,0.007167,0.021687,0.003443,0.006245
1609059611545896769,34,1609059611545896769,-0.010221,-0.012175,0.004282,0.999718,0.000143,0.021988,0.008857,0.013173,0.004265,0.001475,0.020652,0.003073,0.005482
1609059611639676809,35,1609059611639676809,-0.009841,-0.013507,0.001178,0.99972,0.000245,0.022034,0.008615,0.011688,7.4e-05,-0.005124,0.016557,0.001438,0.008261
1609059611750478029,36,1609059611750478029,-0.011938,-0.015568,0.003223,0.999713,9.5e-05,0.022245,0.008867,0.005991,-0.001964,0.00047,0.021921,0.002043,0.005143
1609059611844249964,37,1609059611844249964,-0.011573,-0.01392,0.002678,0.999715,0.000127,0.022159,0.00887,0.005449,0.003322,-0.000855,0.019034,0.003668,0.007274
1609059611939869404,38,1609059611939869404,-0.008603,-0.013545,0.001948,0.999719,0.000154,0.021971,0.008821,0.010178,0.004833,-0.001761,0.015246,0.000668,0.008592
1609059612050566912,39,1609059612050566912,-0.012362,-0.012987,0.003864,0.999714,0.0,0.022204,0.008863,0.001366,0.006874,0.003917,0.021096,0.004897,0.004853
1609059612144885778,40,1609059612144885778,-0.013129,-0.010851,0.003778,0.999716,0.000161,0.022106,0.008877,-0.000315,0.011252,0.003551,0.020214,0.004174,0.006353
1609059612239547253,41,1609059612239547253,-0.011079,-0.009539,0.000291,0.999717,0.000238,0.02211,0.008687,0.0041,0.012196,-0.005575,0.017205,0.002136,0.008497
1609059612350527048,42,1609059612350527048,-0.009749,-0.00988,0.002917,0.999717,0.000101,0.022121,0.008645,0.005874,0.008741,0.00449,0.021243,0.004096,0.004783
1609059612444316149,43,1609059612444316149,-0.008434,-0.010028,0.003485,0.999716,0.000149,0.022151,0.008772,0.0079,0.007177,0.005378,0.020432,0.00363,0.006354
1609059612539931536,44,1609059612539931536,-0.010301,-0.012714,0.005582,0.999715,0.000199,0.022177,0.008829,0.003058,0.000905,0.00867,0.016228,0.000873,0.008441
1609059612650884390,45,1609059612650884390,-0.016743,-0.012052,0.005453,0.999716,0.000171,0.022115,0.008784,-0.009857,0.004033,0.006768,0.022079,0.004758,0.00472
1609059612745012522,46,1609059612745012522,-0.015317,-0.012804,0.003881,0.999716,0.000197,0.022117,0.008795,-0.005385,0.00226,0.002387,0.019643,0.00106,0.006578
1609059612840616703,47,1609059612840616703,-0.011256,-0.013878,0.003845,0.999722,0.00029,0.0219,0.008709,0.004356,-0.000591,0.001533,0.0146,0.000764,0.007417
1609059612950987577,48,1609059612950987577,-0.014025,-0.012345,0.003891,0.999716,0.000146,0.022123,0.008771,-0.001229,0.005335,0.002419,0.021418,0.002882,0.0051
1609059613044886351,49,1609059613044886351,-0.015169,-0.009889,0.004335,0.999718,0.000171,0.022016,0.008801,-0.003284,0.01118,0.003031,0.019538,0.002374,0.005736
1609059613140022993,50,1609059613140022993,-0.014057,-0.011298,0.003552,0.999717,0.000285,0.022088,0.008788,-0.000314,0.006278,0.000892,0.016413,0.00115,0.007399
1609059613251049280,51,1609059613251049280,-0.016623,-0.013267,0.003186,0.999722,0.00013,0.021904,0.008675,-0.00461,0.001275,0.001737,0.020303,0.003467,0.007201
1609059613345152140,52,1609059613345152140,-0.015752,-0.014424,0.003146,0.999717,0.000176,0.022131,0.00872,-0.001716,-0.000285,0.001428,0.020445,0.002254,0.006781
1609059613439872503,53,1609059613439872503,-0.017475,-0.014276,0.002544,0.999718,0.000247,0.022045,0.008715,-0.004379,0.000977,0.000533,0.015995,0.001675,0.00795
1609059613550514698,54,1609059613550514698,-0.016267,-0.015075,0.003395,0.999714,0.000128,0.022202,0.008817,-0.00184,0.000744,0.003926,0.023467,0.004653,0.00489
1609059613645120621,55,1609059613645120621,-0.016186,-0.012957,0.002778,0.999714,0.000242,0.02218,0.008839,-0.000832,0.005303,0.002314,0.0206,0.002776,0.006553
1609059613739439487,56,1609059613739439487,-0.013144,-0.011991,0.001842,0.999715,0.000261,0.022123,0.008909,0.00591,0.007548,6.3e-05,0.014523,0.000234,0.009425
1609059613850419521,57,1609059613850419521,-0.01361,-0.014561,0.002448,0.999716,0.000199,0.022159,0.008739,0.003956,0.000311,0.002992,0.020656,0.00354,0.006292
1609059613944536924,58,1609059613944536924,-0.013878,-0.01337,0.004002,0.999714,0.000148,0.022202,0.008859,0.00287,0.00315,0.005797,0.019839,0.002381,0.007267
1609059614039515734,59,1609059614039515734,-0.011833,-0.010878,0.00438,0.999714,0.000152,0.022199,0.008801,0.006094,0.009273,0.004964,0.01598,0.002713,0.008346
1609059614150661469,60,1609059614150661469,-0.010902,-0.011968,0.00445,0.999718,0.000122,0.02204,0.008785,0.007176,0.006361,0.004352,0.021393,0.004724,0.00524
1609059614244650364,61,1609059614244650364,-0.010299,-0.013259,0.004354,0.999716,0.000138,0.022059,0.008914,0.008458,0.00352,0.002616,0.019548,0.003292,0.007378
1609059614341736794,62,1609059614341736794,-0.012014,-0.011294,0.002854,0.999715,0.000247,0.022065,0.009099,0.003279,0.008041,-0.001887,0.015756,0.000595,0.007568
1609059614451108694,63,1609059614451108694,-0.012858,-0.012294,0.000854,0.999717,0.000216,0.022115,0.008759,0.000791,0.005134,-0.003604,0.020757,0.004577,0.005473
1609059614545197248,64,1609059614545197248,-0.01435,-0.010386,0.002946,0.999714,7e-05,0.022183,0.00882,-0.001809,0.009321,0.00055,0.020335,0.003768,0.006858
1609059614639674425,65,1609059614639674425,-0.017369,-0.010492,0.002282,0.999717,0.000166,0.022101,0.008753,-0.006135,0.007695,-0.001461,0.013138,0.001331,0.009533
1609059614750735521,66,1609059614750735521,-0.016981,-0.009455,0.002981,0.999716,0.000231,0.022149,0.008718,-0.004565,0.009893,0.000827,0.02163,0.003347,0.006082
1609059614845012665,67,1609059614845012665,-0.016124,-0.007708,0.002746,0.999717,0.000155,0.022096,0.008732,-0.002623,0.012304,0.00043,0.017675,0.00119,0.006243
1609059614939806700,68,1609059614939806700,-0.013901,-0.0078,0.002893,0.999716,0.000263,0.022135,0.008736,0.003579,0.009823,0.000396,0.016269,0.00077,0.007627
1609059615050611973,69,1609059615050611973,-0.015151,-0.005704,0.004342,0.999716,0.000171,0.022146,0.008789,0.000148,0.014897,0.004916,0.019889,0.004385,0.006634
1609059615144959450,70,1609059615144959450,-0.013076,-0.005778,0.00314,0.999718,0.000213,0.022116,0.00864,0.004068,0.013257,0.001152,0.019334,0.002745,0.006657
1609059615239545107,71,1609059615239545107,-0.012449,-0.007387,0.002267,0.999717,0.000156,0.022066,0.008825,0.005136,0.008003,-6.8e-05,0.016353,0.002659,0.007702
1609059615350768805,72,1609059615350768805,-0.013172,-0.007804,0.002495,0.999716,0.000114,0.022127,0.00877,0.003098,0.006812,0.000973,0.020417,0.004787,0.005568
1609059615444312334,73,1609059615444312334,-0.015448,-0.007853,0.002751,0.999717,0.000108,0.02207,0.008775,-0.001267,0.006142,0.001181,0.018602,0.002531,0.007419
1609059615539756775,74,1609059615539756775,-0.015774,-0.010695,0.002935,0.999717,0.000107,0.022103,0.00877,-0.001344,-0.001337,0.001547,0.017206,0.001926,0.00869
1609059615651205063,75,1609059615651205063,-0.016207,-0.014135,0.003769,0.999717,8.7e-05,0.022118,0.008702,-0.001565,-0.010299,0.004549,0.02249,0.00573,0.005899
1609059615744613647,76,1609059615744613647,-0.015653,-0.015401,0.002579,0.999722,0.000101,0.021999,0.008454,0.000826,-0.011023,0.001009,0.01951,0.002191,0.007672
1609059615840117455,77,1609059615840117455,-0.018482,-0.014561,0.003233,0.999717,0.000135,0.022156,0.008592,-0.005218,-0.006317,0.00179,0.015296,0.000435,0.007955
1609059615950735807,78,1609059615950735807,-0.020211,-0.014699,0.002595,0.999715,0.00016,0.022202,0.008704,-0.007551,-0.002904,0.000816,0.02186,0.004168,0.005587
1609059616044845581,79,1609059616044845581,-0.015022,-0.013739,0.002662,0.999717,0.000251,0.022084,0.008787,0.003316,0.0006,0.000509,0.020823,0.004362,0.005705
1609059616139888048,80,1609059616139888048,-0.012838,-0.016008,0.002312,0.99972,0.000198,0.021937,0.008847,0.008052,-0.003198,0.000173,0.016158,0.001688,0.008135
1609059616250955105,81,1609059616250955105,-0.01354,-0.014536,0.003065,0.999719,5.8e-05,0.022022,0.008731,0.00646,0.003359,0.00241,0.02093,0.007339,0.004872
1609059616344603777,82,1609059616344603777,-0.013344,-0.014187,0.002294,0.999715,0.000113,0.0222,0.008764,0.006097,0.003568,0.000286,0.019393,0.003118,0.006769
1609059616439706564,83,1609059616439706564,-0.013573,-0.012104,0.00325,0.999715,0.000187,0.022164,0.008809,0.003929,0.008613,0.003663,0.017738,0.001799,0.007891
1609059616550727606,84,1609059616550727606,-0.014638,-0.011756,0.00526,0.999715,5.9e-05,0.022137,0.008893,0.000981,0.008782,0.008302,0.020824,0.005085,0.006269
1609059616644537687,85,1609059616644537687,-0.013116,-0.011795,0.004289,0.999719,0.000138,0.022014,0.008757,0.004431,0.00703,0.003911,0.018439,0.003163,0.007265
1609059616740008116,86,1609059616740008116,-0.014413,-0.012611,0.003109,0.999714,0.000227,0.022176,0.00887,0.001567,0.004667,0.001029,0.015088,0.001799,0.007639
1609059616850827694,87,1609059616850827694,-0.010765,-0.012345,0.002462,0.999716,0.000177,0.022166,0.008709,0.008194,0.006085,0.000384,0.020585,0.004702,0.004493
1609059616944585800,88,1609059616944585800,-0.006938,-0.010815,0.001011,0.999717,6.8e-05,0.022109,0.008684,0.014017,0.008217,-0.002631,0.016356,0.000695,0.006617
1609059617039831638,89,1609059617039831638,-0.006534,-0.011111,0.001094,0.999719,0.000154,0.022,0.008805,0.013009,0.006515,-0.002002,0.014589,0.000745,0.00722
1609059617152529001,90,1609059617152529001,-0.008991,-0.013006,0.001912,0.99972,-4e-06,0.022059,0.008539,0.006807,0.001912,0.00215,0.020967,0.004921,0.004072
1609059617244947433,91,1609059617244947433,-0.009365,-0.013568,0.003174,0.99972,0.000119,0.022036,0.008589,0.005752,0.000525,0.003919,0.018496,0.002461,0.006116
1609059617340040445,92,1609059617340040445,-0.008958,-0.016596,0.004392,0.999719,8.3e-05,0.021996,0.008786,0.006808,-0.005637,0.006121,0.016205,0.002477,0.008059
1609059617451854229,93,1609059617451854229,-0.013101,-0.014906,0.005016,0.999716,0.000142,0.022129,0.00883,-0.001732,0.000847,0.006505,0.020813,0.00535,0.004918
1609059617544720888,94,1609059617544720888,-0.012933,-0.013249,0.004201,0.999719,0.000162,0.022018,0.008721,-0.000747,0.004866,0.003779,0.020955,0.004997,0.00703
1609059617640109301,95,1609059617640109301,-0.010797,-0.012226,0.004288,0.999717,0.000175,0.02204,0.00888,0.00428,0.007136,0.001762,0.016969,0.001849,0.009311
1609059617751121283,96,1609059617751121283,-0.01087,-0.012316,0.005435,0.999717,-1.5e-05,0.022035,0.008886,0.003474,0.007712,0.005214,0.022319,0.004205,0.00542
1609059617844768047,97,1609059617844768047,-0.01181,-0.012732,0.005376,0.99972,2.5e-05,0.021913,0.008849,0.002264,0.006102,0.004682,0.019538,0.003183,0.006188
1609059617940230131,98,1609059617940230131,-0.013463,-0.013227,0.005926,0.999718,0.000105,0.021999,0.008869,-0.000964,0.004399,0.005529,0.015554,0.002194,0.008331
1609059618051217318,99,1609059618051217318,-0.013122,-0.009947,0.005357,0.999719,4.1e-05,0.022089,0.008586,-0.000642,0.012587,0.004859,0.021073,0.007775,0.004278
1609059618145310402,100,1609059618145310402,-0.010246,-0.01052,0.003289,0.999715,1e-05,0.02223,0.008618,0.005826,0.008727,-0.00128,0.018509,0.00258,0.006232
1609059618241776466,101,1609059618241776466,-0.012508,-0.014259,0.003202,0.999717,0.000121,0.022092,0.008753,0.001093,-0.000664,-0.001318,0.015367,0.002215,0.007172
1609059618351482153,102,1609059618351482153,-0.013691,-0.012035,0.004156,0.999716,5e-05,0.022157,0.008688,-0.001744,0.006276,0.002229,0.021451,0.005829,0.004768
1609059618445366383,103,1609059618445366383,-0.011381,-0.014053,0.003551,0.999715,2e-06,0.022185,0.008704,0.00356,0.000555,0.000566,0.018625,0.005872,0.006806
1609059618540445566,104,1609059618540445566,-0.012598,-0.014194,0.003614,0.999719,0.000116,0.021964,0.008843,0.001305,0.001359,0.001394,0.015273,0.001635,0.008287
1609059618651310444,105,1609059618651310444,-0.012934,-0.011543,0.003493,0.999719,-2.2e-05,0.021935,0.008904,0.001786,0.007678,0.001381,0.020584,0.00624,0.006256
1609059618745106936,106,1609059618745106936,-0.014267,-0.011803,0.001696,0.999717,4.2e-05,0.022109,0.008765,-0.000762,0.005628,-0.00253,0.019431,0.003249,0.006129
1609059618840212822,107,1609059618840212822,-0.01417,-0.012443,0.001263,0.999719,1.2e-05,0.021951,0.008875,0.000446,0.002672,-0.002977,0.015906,0.002219,0.007971
1609059618951279879,108,1609059618951279879,-0.013416,-0.013881,0.001795,0.999717,8e-05,0.022113,0.008707,0.002057,-1.9e-05,0.000876,0.020861,0.003367,0.005829
1609059619046012402,109,1609059619046012402,-0.01269,-0.014114,0.003573,0.999719,4.7e-05,0.021981,0.008788,0.004488,0.000183,0.005121,0.018599,0.004031,0.006338
1609059619140285254,110,1609059619140285254,-0.014982,-0.015133,0.003075,0.999719,4.8e-05,0.021966,0.00886,-0.000243,-0.001638,0.003732,0.015507,0.003157,0.006677
1609059619252959967,111,1609059619252959967,-0.015908,-0.01882,0.003294,0.999717,0.000176,0.022088,0.008806,-0.001759,-0.007795,0.005788,0.021971,0.006128,0.005329
1609059619347090483,112,1609059619347090483,-0.018357,-0.017312,0.003218,0.999715,0.000171,0.022161,0.008826,-0.006249,-0.002085,0.004598,0.01861,0.005509,0.0058
1609059619440510035,113,1609059619440510035,-0.018253,-0.015591,0.003887,0.999715,0.000263,0.022107,0.008914,-0.004635,0.0046,0.005206,0.015648,0.002417,0.008488
1609059619554473639,114,1609059619554473639,-0.022116,-0.013304,0.003289,0.999715,8.5e-05,0.022196,0.008673,-0.011462,0.010694,0.003522,0.021212,0.008923,0.003119
1609059619649059534,115,1609059619649059534,-0.019557,-0.013397,0.004522,0.999715,8.8e-05,0.022235,0.008678,-0.003884,0.008756,0.00553,0.020639,0.004417,0.005355
1609059619743403912,116,1609059619743403912,-0.017487,-0.011884,0.004494,0.999716,1.8e-05,0.022116,0.008785,0.00183,0.010639,0.004546,0.018359,0.002562,0.007384
1609059619854454279,117,1609059619854454279,-0.012071,-0.010077,0.001974,0.999718,2.4e-05,0.022064,0.008684,0.011691,0.012913,-0.001197,0.022325,0.007409,0.004667
1609059619948391914,118,1609059619948391914,-0.01181,-0.009735,0.001281,0.999715,0.000136,0.022222,0.008626,0.010238,0.010769,-0.004999,0.021484,0.00446,0.005849
1609059620041976213,119,1609059620041976213,-0.010577,-0.0112,0.000993,0.999719,0.000147,0.022042,0.008622,0.012102,0.004421,-0.004384,0.016309,0.002539,0.006774
1609059620154183149,120,1609059620154183149,-0.008748,-0.011488,0.000968,0.999719,0.000127,0.022071,0.008613,0.014242,0.003605,-0.002398,0.022874,0.006028,0.005366
1609059620248071909,121,1609059620248071909,-0.008719,-0.012107,-0.000299,0.99972,7.5e-05,0.021948,0.008829,0.012816,0.000828,-0.007154,0.01922,0.00281,0.006579
1609059620341902494,122,1609059620341902494,-0.007511,-0.012333,-0.000353,0.999718,0.000156,0.022034,0.00875,0.013656,-0.000245,-0.005776,0.01627,-0.000209,0.008112
1609059620454445839,123,1609059620454445839,-0.007962,-0.013225,-0.0006,0.999719,4.4e-05,0.022064,0.008598,0.009974,-0.001578,-0.002815,0.022097,0.008494,0.004351
1609059620548113585,124,1609059620548113585,-0.008113,-0.013888,-0.000264,0.999718,5.1e-05,0.022112,0.008618,0.008258,-0.002888,-0.002371,0.020301,0.004852,0.006715
1609059620642411470,125,1609059620642411470,-0.008589,-0.013824,-0.000139,0.999715,0.000256,0.022174,0.008777,0.005775,-0.000617,-0.001428,0.0185,0.003347,0.00584
1609059620755493402,126,1609059620755493402,-0.006217,-0.014459,-0.000308,0.999717,9.9e-05,0.022161,0.008578,0.009555,-0.000334,-0.000121,0.020726,0.004904,0.00426
1609059620848266840,127,1609059620848266840,-0.008319,-0.012959,-0.00027,0.999717,3.7e-05,0.022105,0.008726,0.003936,0.003509,0.00024,0.02225,0.003017,0.00698
1609059620942099094,128,1609059620942099094,-0.008017,-0.013017,-8.1e-05,0.999718,0.000137,0.022072,0.008735,0.004543,0.003265,0.000696,0.017396,0.001893,0.007553
1609059621054895401,129,1609059621054895401,-0.009502,-0.012098,0.000364,0.999717,4.2e-05,0.022079,0.008805,0.00089,0.006029,0.003219,0.022081,0.006982,0.004015
1609059621148100376,130,1609059621148100376,-0.013589,-0.011269,-0.000111,0.999718,2.6e-05,0.021978,0.008925,-0.007386,0.006936,0.000876,0.021405,0.004261,0.006594
1609059621241881371,131,1609059621241881371,-0.015009,-0.010516,0.001126,0.999717,0.000236,0.022063,0.008822,-0.00854,0.006731,0.004241,0.01638,0.002865,0.007089
1609059621354220390,132,1609059621354220390,-0.016391,-0.010609,0.001355,0.999713,-0.000279,0.022216,0.008951,-0.010184,0.00609,0.005084,0.022868,0.006984,0.00494
1609059621449510336,133,1609059621449510336,-0.015166,-0.01021,0.001956,0.999718,0.000156,0.022054,0.008753,-0.005399,0.006424,0.006055,0.01999,0.005131,0.005971
1609059621543064833,134,1609059621543064833,-0.015034,-0.012107,0.002066,0.999717,0.000253,0.022023,0.008899,-0.003674,0.000949,0.004291,0.018591,0.002891,0.007771
1609059621641418219,135,1609059621641418219,-0.010878,-0.010654,0.002269,0.999719,0.000158,0.02196,0.008827,0.005507,0.004108,0.004727,0.016475,0.001164,0.007523
1609059621749258280,136,1609059621749258280,-0.010817,-0.011697,0.002157,0.999719,0.000113,0.022007,0.008787,0.004503,0.001254,0.00461,0.020046,0.006004,0.00633
1609059621843134642,137,1609059621843134642,-0.013048,-0.010533,0.001961,0.99972,0.000237,0.021933,0.008828,-0.000306,0.004514,0.003668,0.018544,0.002942,0.006838
1609059621939890146,138,1609059621939890146,-0.013869,-0.008815,0.001821,0.999717,0.00028,0.022084,0.008799,-0.001974,0.008323,0.003102,0.016166,0.002778,0.006675
1609059622050305843,139,1609059622050305843,-0.011934,-0.008937,0.001676,0.999721,0.000127,0.021918,0.008722,0.003064,0.006939,0.002573,0.022143,0.006305,0.005988
1609059622143744230,140,1609059622143744230,-0.011155,-0.007985,0.000926,0.999719,0.000163,0.021961,0.008813,0.004585,0.007629,0.000378,0.019222,0.002208,0.007469
1609059622241899490,141,1609059622241899490,-0.01077,-0.008081,0.001396,0.999721,0.000269,0.021959,0.00865,0.005128,0.006619,0.001926,0.017451,0.002887,0.00734
1609059622349622726,142,1609059622349622726,-0.011964,-0.008849,0.001885,0.999719,0.000257,0.021994,0.008734,0.002182,0.004223,0.003549,0.02011,0.00754,0.00653
1609059622443579912,143,1609059622443579912,-0.011925,-0.010029,0.002127,0.999717,0.000167,0.022074,0.008756,0.00203,0.000413,0.003534,0.019261,0.001965,0.006161
1609059622540438890,144,1609059622540438890,-0.011645,-0.009389,0.002161,0.999717,0.000248,0.022082,0.008775,0.002391,0.002468,0.002519,0.015099,0.001466,0.007868
1609059622649741650,145,1609059622649741650,-0.012397,-0.012414,0.002634,0.99972,0.000186,0.022012,0.008637,0.001434,-0.00407,0.004669,0.019946,0.00393,0.006492
1609059622743291378,146,1609059622743291378,-0.015774,-0.010458,0.00222,0.999717,0.000186,0.022054,0.008906,-0.005371,0.002879,0.002945,0.018817,0.002785,0.00681
1609059622840158701,147,1609059622840158701,-0.01416,-0.01066,0.003113,0.999717,0.000132,0.022067,0.008874,-0.000231,0.00295,0.005796,0.016851,0.002296,0.007491
1609059622949543238,148,1609059622949543238,-0.012803,-0.009332,0.002679,0.999719,0.000131,0.022026,0.00875,0.003328,0.007245,0.004935,0.022026,0.00572,0.006398
1609059623043590307,149,1609059623043590307,-0.014435,-0.008935,0.001922,0.999716,0.000279,0.022111,0.008841,-0.000432,0.007425,0.001714,0.018768,0.002763,0.005527
1609059623141092539,150,1609059623141092539,-0.013942,-0.0071,0.001838,0.999719,0.000119,0.022018,0.008674,0.001391,0.0115,0.001084,0.017052,0.001725,0.008479
1609059623249552488,151,1609059623249552488,-0.012352,-0.008978,0.001075,0.999718,0.000291,0.022114,0.008576,0.004501,0.004895,0.000469,0.021822,0.005222,0.006125
1609059623343284130,152,1609059623343284130,-0.012491,-0.009158,0.00183,0.999718,0.000285,0.022061,0.008755,0.004354,0.004505,0.001804,0.016906,0.003739,0.007395
1609059623440180540,153,1609059623440180540,-0.011751,-0.00968,0.001751,0.999719,0.000255,0.022055,0.008586,0.005522,0.001809,0.0021,0.014757,0.001794,0.008003
1609059623549568653,154,1609059623549568653,-0.011186,-0.011605,0.002199,0.999719,0.000106,0.0221,0.008503,0.006168,-0.00026,0.005657,0.01923,0.005731,0.006528
1609059623643646240,155,1609059623643646240,-0.009386,-0.009878,0.00146,0.99972,0.000144,0.022051,0.008578,0.009463,0.004061,0.002795,0.017572,0.002117,0.007649
1609059623741259813,156,1609059623741259813,-0.011184,-0.010287,0.001885,0.999719,0.000104,0.022082,0.008553,0.004445,0.002142,0.003791,0.016426,0.002825,0.007922
1609059623850082636,157,1609059623850082636,-0.008899,-0.009637,0.002492,0.999719,0.000204,0.02209,0.008552,0.009142,0.004135,0.005353,0.019893,0.004281,0.005941
1609059623944103241,158,1609059623944103241,-0.010336,-0.008566,0.002435,0.999719,0.000212,0.022038,0.008619,0.005072,0.005928,0.004429,0.018912,0.000939,0.006774
1609059624040393829,159,1609059624040393829,-0.01088,-0.008499,0.003361,0.999719,0.000195,0.022007,0.008759,0.003776,0.004531,0.005455,0.018006,0.003699,0.007661
1609059624150387049,160,1609059624150387049,-0.013078,-0.010204,0.003013,0.999715,0.000178,0.022234,0.008688,-0.001717,0.000105,0.004188,0.021658,0.00563,0.005405
1609059624243723631,161,1609059624243723631,-0.011109,-0.008362,0.003218,0.999719,0.000178,0.021959,0.008867,0.004157,0.005432,0.004214,0.016761,0.001814,0.006438
1609059624342013121,162,1609059624342013121,-0.008738,-0.009381,0.002917,0.99972,0.000168,0.021968,0.008721,0.00822,0.002049,0.002855,0.017949,0.001715,0.009083
1609059624451016188,163,1609059624451016188,-0.010182,-0.009177,0.002651,0.999715,1.5e-05,0.022183,0.008778,0.003581,0.003964,0.000671,0.019781,0.003375,0.006159
1609059624541338682,164,1609059624541338682,-0.012271,-0.00832,0.002514,0.999717,0.000143,0.022104,0.00868,-0.001076,0.005704,0.000188,0.016586,0.001192,0.007794
1609059624646738529,165,1609059624646738529,-0.012467,-0.008455,0.002204,0.999715,9.1e-05,0.022177,0.008784,-0.001059,0.004779,6.9e-05,0.021291,0.006074,0.00612
1609059624749919653,166,1609059624749919653,-0.012499,-0.01016,0.003418,0.999717,0.000158,0.022036,0.008899,0.000301,0.000802,0.001608,0.019618,0.004738,0.004661
1609059624853056908,167,1609059624853056908,-0.010749,-0.010922,0.001149,0.999715,0.000152,0.022162,0.008764,0.004866,-0.000863,-0.004054,0.021592,0.006328,0.00351
1609059624955962181,168,1609059624955962181,-0.01489,-0.009179,0.002245,0.999716,-0.000171,0.02215,0.008782,-0.005699,0.005242,-8.1e-05,0.020729,0.007007,0.003108
1609059625059198380,169,1609059625059198380,-0.013071,-0.00944,0.000967,0.999717,2.7e-05,0.022145,0.008604,6e-05,0.004444,-0.003793,0.021252,0.00853,0.003442
1609059625162179232,170,1609059625162179232,-0.012946,-0.010718,0.000968,0.999719,-0.00037,0.022056,0.008631,0.000875,0.0025,-0.002369,0.01972,0.006331,0.001768
1609059625266400099,171,1609059625266400099,-0.01375,-0.011608,0.000621,0.999719,-0.000216,0.02204,0.008645,-0.002618,0.00118,-0.001764,0.017748,0.007575,0.00014
1609059625368346930,172,1609059625368346930,-0.01186,-0.011835,0.001589,0.999717,-0.000325,0.022135,0.00868,0.001222,0.002479,0.00087,0.017558,0.005555,1.2e-05
1609059625471310616,173,1609059625471310616,-0.01434,-0.010717,0.001819,0.999717,-0.000338,0.02209,0.008806,-0.00395,0.005497,0.000316,0.0137,0.007161,-0.000424
1609059625542162895,174,1609059625542162895,-0.009371,-0.006586,0.00184,0.999721,-0.000155,0.021892,0.00885,0.007422,0.012909,-0.000595,0.018592,0.002644,0.008622
1609059625644007444,175,1609059625644007444,-0.004302,-0.007933,0.001659,0.99972,6.3e-05,0.021944,0.008791,0.016864,0.007832,0.000252,0.018692,0.002565,0.007506
1609059625749497175,176,1609059625749497175,-0.001514,-0.009067,0.001533,0.999718,-3.4e-05,0.022046,0.008734,0.020372,0.00392,0.001156,0.021858,0.002822,0.005515
1609059625850284100,177,1609059625850284100,-0.000326,-0.010346,0.000624,0.99972,-0.000149,0.022041,0.00852,0.019889,0.000803,-0.002358,0.021914,0.004469,0.005219
1609059625954216003,178,1609059625954216003,0.000144,-0.009941,0.001866,0.999719,-0.000132,0.022032,0.008692,0.017756,0.003534,0.001442,0.020422,0.005984,0.004304
1609059626054726124,179,1609059626054726124,0.002774,-0.00957,0.001668,0.999718,-0.000263,0.022017,0.008869,0.021071,0.004811,0.000466,0.023079,0.005173,0.003826
1609059626158308506,180,1609059626158308506,0.008717,-0.00857,0.002415,0.999717,-0.000284,0.022111,0.008731,0.029338,0.007823,0.002649,0.020573,0.009723,0.004604
1609059626261777639,181,1609059626261777639,0.005823,-0.010658,0.000788,0.999719,-0.0002,0.022078,0.008584,0.018512,0.002273,-0.000941,0.019029,0.007033,0.001841
1609059626366475821,182,1609059626366475821,0.00626,-0.009908,0.00103,0.999717,-0.000236,0.022161,0.008608,0.014288,0.00472,-6.7e-05,0.015712,0.006609,-0.000319
1609059626468487263,183,1609059626468487263,0.001895,-0.008969,0.001888,0.999716,-0.000441,0.022108,0.008804,0.00303,0.007579,0.002638,0.016443,0.006922,0.000937
1609059626571579695,184,1609059626571579695,0.003295,-0.010811,0.001521,0.999714,-0.000477,0.022244,0.008755,0.00549,0.002706,0.00074,0.014401,0.007593,-0.001251
1609059626642094612,185,1609059626642094612,0.007738,-0.008956,0.001964,0.999717,-0.00028,0.02206,0.008793,0.014363,0.005022,0.001497,0.018247,0.002317,0.008156
1609059626743574381,186,1609059626743574381,0.004535,-0.009846,0.001827,0.999718,-0.000159,0.021997,0.008869,0.005759,0.002207,0.001331,0.01916,0.001812,0.008462
1609059626846412897,187,1609059626846412897,0.00066,-0.008542,0.001171,0.999719,-0.000113,0.022034,0.008681,-0.002591,0.005596,-3.5e-05,0.021123,0.00315,0.007639
1609059626949452877,188,1609059626949452877,-0.00152,-0.008987,0.000844,0.999719,-6.2e-05,0.022041,0.008719,-0.005625,0.003714,-0.001193,0.020556,0.004402,0.005616
1609059627050997496,189,1609059627050997496,-0.000567,-0.008735,0.000741,0.999719,-0.000136,0.021987,0.008778,-0.001654,0.003213,-0.002294,0.018962,0.004074,0.006833
1609059627154438019,190,1609059627154438019,0.000161,-0.009087,0.001788,0.999719,-0.000167,0.021984,0.008787,0.002574,0.003258,0.001424,0.021536,0.006002,0.003032
1609059627258007288,191,1609059627258007288,-0.001218,-0.009985,0.002735,0.999717,-0.000512,0.022003,0.008983,0.000131,0.002029,0.003482,0.022352,0.008607,0.003879
1609059627361147881,192,1609059627361147881,5.3e-05,-0.010497,0.002332,0.999717,-0.000448,0.022068,0.008783,0.002701,0.002121,0.000967,0.020057,0.007602,0.002657
1609059627464278698,193,1609059627464278698,0.003576,-0.011034,0.002247,0.999717,-0.000511,0.022047,0.008885,0.009195,0.002288,0.000632,0.017363,0.009582,0.001063
1609059627567514420,194,1609059627567514420,0.004005,-0.013235,0.001779,0.999717,-0.000588,0.022065,0.008765,0.00716,-0.002366,0.001383,0.017598,0.007959,0.000525
1609059627670237541,195,1609059627670237541,0.003174,-0.013387,0.001285,0.99972,-0.000548,0.02199,0.008715,0.003309,-0.000196,0.000743,0.014849,0.008802,-0.001778
1609059627740649939,196,1609059627740649939,0.008296,-0.01048,0.001445,0.999717,-0.000121,0.022032,0.008918,0.013597,0.005659,3.2e-05,0.013579,-0.000456,0.007175
1609059627842521191,197,1609059627842521191,0.005866,-0.011525,0.001633,0.999718,-0.000156,0.022007,0.008838,0.007337,0.002544,0.00048,0.01879,0.000983,0.008803
1609059627946083069,198,1609059627946083069,0.005259,-0.012389,0.001557,0.999717,-0.00019,0.022066,0.008773,0.005523,0.001623,0.000881,0.020199,0.00304,0.006292
1609059628048667669,199,1609059628048667669,0.002209,-0.010712,0.002669,0.999721,-7.9e-05,0.021906,0.008785,-0.00078,0.006944,0.004117,0.020884,0.003694,0.005583
1609059628151597738,200,1609059628151597738,-0.001425,-0.01063,0.00185,0.999716,-0.000198,0.022125,0.008782,-0.00636,0.007227,0.000977,0.021296,0.004008,0.005574
1609059628254879236,201,1609059628254879236,-0.00096,-0.008783,0.001834,0.999717,-0.000381,0.02205,0.008875,-0.003795,0.011742,0.000448,0.022871,0.006949,0.003628
1609059628358010530,202,1609059628358010530,-0.004547,-0.008841,0.000989,0.999718,-0.000134,0.022089,0.008697,-0.007723,0.010847,-0.001548,0.02223,0.009333,0.002543
1609059628461334229,203,1609059628461334229,-0.003751,-0.008638,0.002806,0.999716,-0.000503,0.022057,0.008912,-0.005082,0.009597,0.003177,0.021416,0.005544,0.002307
1609059628564254999,204,1609059628564254999,-0.006041,-0.008189,0.002464,0.999719,-0.000354,0.022052,0.008681,-0.008068,0.009797,0.002825,0.017835,0.00693,0.000878
1609059628667524815,205,1609059628667524815,-0.00709,-0.007699,0.003268,0.999716,-0.000308,0.022156,0.008689,-0.00929,0.010156,0.003783,0.017939,0.007258,-0.000472
1609059628770237207,206,1609059628770237207,-0.009823,-0.00829,0.003212,0.999716,-0.000531,0.022097,0.008819,-0.014717,0.007968,0.003776,0.015603,0.007782,-0.00136
1609059628840472460,207,1609059628840472460,-0.005587,-0.00488,0.00247,0.999716,-6e-05,0.022111,0.008877,-0.00355,0.013813,-0.000218,0.017626,0.002805,0.007779
1609059628942599297,208,1609059628942599297,-0.007701,-0.006111,0.001452,0.999721,0.000166,0.021984,0.00858,-0.006724,0.008018,-0.000776,0.020693,0.002497,0.008255
1609059629045954227,209,1609059629045954227,-0.00909,-0.006897,0.001405,0.999723,0.000141,0.021864,0.00867,-0.006655,0.006242,7.4e-05,0.020915,0.00488,0.005541
1609059629148391008,210,1609059629148391008,-0.008736,-0.006315,0.000652,0.999722,-1.4e-05,0.021987,0.008487,-0.004085,0.00668,-0.001744,0.021684,0.002907,0.005578
1609059629251374006,211,1609059629251374006,-0.008281,-0.007207,0.002048,0.999722,-3.6e-05,0.021884,0.008664,-0.001047,0.004509,0.002701,0.021801,0.005651,0.005807
1609059629354388237,212,1609059629354388237,-0.008398,-0.006383,0.002146,0.999719,0.000166,0.022078,0.008567,0.000474,0.007405,0.002583,0.0224,0.005976,0.003189
1609059629457515001,213,1609059629457515001,-0.009821,-0.00669,0.00162,0.999721,-0.000188,0.021984,0.008607,-0.002481,0.006226,0.000199,0.02431,0.006867,0.003959
1609059629561185837,214,1609059629561185837,-0.011805,-0.007545,0.001365,0.999718,5e-05,0.02211,0.008638,-0.00653,0.005592,-0.000692,0.019663,0.008978,0.000954
1609059629663714170,215,1609059629663714170,-0.01062,-0.007112,0.001461,0.999721,-0.000283,0.021894,0.008797,-0.00245,0.006662,-0.001617,0.019638,0.009984,0.000559
1609059629766873121,216,1609059629766873121,-0.011387,-0.006938,0.001509,0.999718,-0.000241,0.022086,0.008714,-0.003701,0.006833,-0.000609,0.017365,0.007469,0.001788
1609059629870262384,217,1609059629870262384,-0.011008,-0.008314,0.00183,0.999716,-0.000334,0.022103,0.008843,-0.003013,0.003896,-0.000474,0.013975,0.009047,-0.00119
1609059629940274954,218,1609059629940274954,-0.009529,-0.006224,0.00116,0.999721,4.3e-05,0.021904,0.008785,0.001381,0.007259,-0.002983,0.016131,0.001323,0.007066
1609059630042287350,219,1609059630042287350,-0.008309,-0.006411,0.000665,0.999722,0.000119,0.021927,0.008636,0.004458,0.005425,-0.002058,0.017969,0.00322,0.006553
1609059630145982265,220,1609059630145982265,-0.009185,-0.006749,-0.000178,0.999719,7.9e-05,0.022079,0.008521,0.001674,0.005777,-0.001355,0.023054,0.005733,0.006626
1609059630248558521,221,1609059630248558521,-0.011614,-0.011695,0.000749,0.999718,2e-05,0.022114,0.008633,-0.003554,-0.003868,0.003089,0.020257,0.003045,0.005238
1609059630351599932,222,1609059630351599932,-0.01375,-0.013041,0.002161,0.999716,0.00019,0.022126,0.008754,-0.006105,-0.005262,0.005499,0.022769,0.004834,0.005572
1609059630454874277,223,1609059630454874277,-0.008276,-0.010214,0.001983,0.999716,0.000113,0.022165,0.008733,0.005765,0.004302,0.003918,0.021413,0.007051,0.00296
1609059630557589531,224,1609059630557589531,-0.010337,-0.010374,0.002182,0.999715,-9.3e-05,0.022132,0.008842,0.002842,0.003862,0.003104,0.022415,0.006077,0.003677
1609059630660714865,225,1609059630660714865,-0.008399,-0.010716,0.001607,0.999717,-0.000183,0.022155,0.00864,0.006858,0.002926,0.00134,0.02109,0.007173,0.002574
1609059630764342546,226,1609059630764342546,-0.009057,-0.011716,0.001093,0.999716,-0.000173,0.022183,0.008672,0.00318,0.001973,-6.7e-05,0.020125,0.008488,0.001756
1609059630867688179,227,1609059630867688179,-0.010009,-0.011121,0.001117,0.999717,-0.000379,0.022109,0.008764,-0.000262,0.005113,0.001059,0.017165,0.005241,-0.001603
1609059630969963789,228,1609059630969963789,-0.013272,-0.01013,0.000843,0.999718,-0.000347,0.022065,0.008758,-0.007037,0.008278,0.001047,0.014516,0.004284,-0.000707
1609059631040233612,229,1609059631040233612,-0.006834,-0.005472,0.000532,0.999719,-8.4e-05,0.021973,0.008803,0.007333,0.0163,-0.000457,0.014779,0.001294,0.008054
1609059631142629862,230,1609059631142629862,-0.006177,-0.003652,-0.000235,0.999722,2.2e-05,0.021852,0.008757,0.007806,0.016898,-0.00147,0.018925,0.001186,0.007286
1609059631245857239,231,1609059631245857239,-0.007423,-0.006762,0.000255,0.99972,6.3e-05,0.021928,0.008783,0.004832,0.007107,0.001614,0.020364,0.002861,0.005253
1609059631348634243,232,1609059631348634243,-0.008093,-0.007395,0.00129,0.999721,6.6e-05,0.021911,0.008772,0.003095,0.005247,0.004608,0.02143,0.00509,0.005561
1609059631451478004,233,1609059631451478004,-0.008489,-0.005024,0.000502,0.99972,-2.7e-05,0.021964,0.008798,0.003167,0.01247,0.000386,0.021808,0.004317,0.004954
1609059631554595709,234,1609059631554595709,-0.008609,-0.008543,0.001809,0.999721,-0.000224,0.021934,0.008693,0.003667,0.001657,0.003734,0.02335,0.004987,0.004535
1609059631657731056,235,1609059631657731056,-0.008185,-0.010609,-0.000203,0.999718,-1.2e-05,0.02212,0.008595,0.003724,-0.002427,-0.001761,0.021674,0.006297,0.003362
1609059631761119604,236,1609059631761119604,-0.009167,-0.009632,0.000391,0.999719,-0.000365,0.021988,0.008818,0.000849,0.003044,-0.000228,0.021201,0.009598,0.00193
1609059631863940001,237,1609059631863940001,-0.00927,-0.008107,0.000535,0.999717,-0.000288,0.022071,0.008764,-0.000382,0.008374,0.001494,0.019665,0.009114,0.002474
1609059631967845440,238,1609059631967845440,-0.0084,-0.006373,0.001422,0.99972,-0.000489,0.021963,0.008784,0.001088,0.01254,0.002895,0.017968,0.007915,8.6e-05
1609059632070766211,239,1609059632070766211,-0.010121,-0.008091,0.001035,0.999718,-0.000237,0.022011,0.008828,-0.0038,0.008141,0.002449,0.013043,0.007273,-0.002481
1609059632140625954,240,1609059632140625954,-0.007532,-0.004479,0.000669,0.999719,9e-06,0.021924,0.008929,0.001548,0.014685,0.00088,0.015832,0.000865,0.00777
1609059632243268013,241,1609059632243268013,-0.007716,-0.00505,0.0,0.999722,0.000167,0.021922,0.008654,0.0,0.011064,0.001468,0.018237,0.003476,0.008048
1609059632344876528,242,1609059632344876528,-0.007667,-0.006285,0.000401,0.99972,7e-05,0.021937,0.008807,0.000588,0.007351,0.004049,0.021044,0.003515,0.006482
1609059632448350430,243,1609059632448350430,-0.011101,-0.008133,-0.000144,0.99972,7.1e-05,0.02197,0.008755,-0.005783,0.002628,0.002416,0.021337,0.004333,0.006196
1609059632550857306,244,1609059632550857306,-0.010149,-0.006114,0.000609,0.999725,0.000169,0.021716,0.008743,-0.001508,0.008144,0.004028,0.021944,0.002839,0.005136
1609059632654719114,245,1609059632654719114,-0.013062,-0.006498,-1.2e-05,0.999719,-1e-06,0.022013,0.00879,-0.008053,0.007567,0.001429,0.022552,0.007271,0.004753
1609059632757835388,246,1609059632757835388,-0.010041,-0.006631,-0.00011,0.999723,6.4e-05,0.021858,0.008689,-0.000105,0.007327,-4.1e-05,0.02412,0.007899,0.002865
1609059632861136913,247,1609059632861136913,-0.012077,-0.008077,-0.000459,0.999719,0.000132,0.022079,0.00856,-0.004277,0.003735,-0.000824,0.020544,0.007353,0.001546
1609059632964036703,248,1609059632964036703,-0.012522,-0.010383,-0.000716,0.999723,0.000131,0.021923,0.008539,-0.00438,-0.000492,-0.001043,0.018385,0.006529,0.000979
1609059633067565918,249,1609059633067565918,-0.010857,-0.01134,-0.001218,0.999722,-0.000154,0.021869,0.008732,0.000137,0.000196,-0.002254,0.017126,0.008128,-0.000203
1609059633171382904,250,1609059633171382904,-0.011359,-0.010012,0.000106,0.99972,-0.000261,0.021957,0.00879,-0.00269,0.005555,0.00107,0.016313,0.007984,0.00074
1609059633240575314,251,1609059633240575314,-0.011213,-0.006932,-0.0006,0.999721,-2.9e-05,0.021914,0.008793,-0.002343,0.01098,-0.001099,0.01727,0.004092,0.007448
1609059633342576981,252,1609059633342576981,-0.010515,-0.006866,-0.000119,0.999721,0.00023,0.021929,0.008701,0.000919,0.009542,0.001121,0.019837,0.002959,0.008196
1609059633444869518,253,1609059633444869518,-0.010519,-0.005618,0.000621,0.999722,8.4e-05,0.021864,0.008807,0.0014,0.012328,0.004022,0.020079,-0.001038,0.006258
1609059633548509598,254,1609059633548509598,-0.012125,-0.006971,0.001347,0.999722,-2e-06,0.021814,0.008869,-0.001649,0.00793,0.006137,0.021066,0.004453,0.006064
1609059633651117802,255,1609059633651117802,-0.013095,-0.006839,0.001182,0.999721,2.5e-05,0.021937,0.00874,-0.002689,0.007264,0.003982,0.022459,0.003137,0.004574
1609059633756008387,256,1609059633756008387,-0.012673,-0.006468,0.001362,0.99972,0.000103,0.021957,0.008717,-0.000419,0.008395,0.004268,0.021853,0.008607,0.003432
1609059633857959270,257,1609059633857959270,-0.012227,-0.006926,0.000694,0.999721,-0.000136,0.021904,0.008742,0.001643,0.006879,0.000549,0.020962,0.008203,0.003856
1609059633961118698,258,1609059633961118698,-0.01327,-0.008189,0.001017,0.99972,-0.000256,0.021962,0.00874,-0.000475,0.004499,-6.3e-05,0.022648,0.007613,0.001712
1609059634064155817,259,1609059634064155817,-0.010622,-0.008286,0.001134,0.999718,-0.00036,0.022047,0.008802,0.003339,0.005375,0.00172,0.01818,0.006965,-0.000379
1609059634167503595,260,1609059634167503595,-0.011132,-0.007107,-0.000145,0.999716,-0.000356,0.022043,0.008938,0.00035,0.009738,-0.001646,0.018407,0.009431,0.001229
1609059634270431280,261,1609059634270431280,-0.007817,-0.007044,-0.000738,0.99972,-0.00018,0.021931,0.008866,0.005338,0.010597,-0.001806,0.015995,0.006729,-0.000295
1609059634340927839,262,1609059634340927839,-0.005353,-0.004247,-0.000883,0.99972,7.3e-05,0.021955,0.008804,0.010117,0.013609,-0.001269,0.017749,0.000633,0.008396
1609059634443070412,263,1609059634443070412,-0.007698,-0.006792,-0.001294,0.999723,0.000246,0.021818,0.008762,0.004265,0.006465,-0.001795,0.019493,0.00247,0.007425
1609059634546288729,264,1609059634546288729,-0.009382,-0.008478,-0.000972,0.999721,6.8e-05,0.021942,0.008669,0.000206,0.00223,0.001188,0.019983,0.002355,0.006116
1609059634648950338,265,1609059634648950338,-0.009588,-0.006679,0.000958,0.999723,0.000107,0.021851,0.008696,0.000859,0.007571,0.00707,0.022227,0.006151,0.007
1609059634751736164,266,1609059634751736164,-0.008348,-0.006515,-0.00011,0.999721,1.7e-05,0.021967,0.008671,0.004403,0.007622,0.002022,0.021695,0.003891,0.005199
1609059634854748726,267,1609059634854748726,-0.008332,-0.009293,0.000249,0.999719,-0.000154,0.022017,0.00875,0.004231,0.000855,0.002456,0.022776,0.005704,0.005019
1609059634956871748,268,1609059634956871748,-0.005896,-0.007971,-0.000235,0.999719,-3.3e-05,0.022052,0.008628,0.009813,0.004587,0.000962,0.022712,0.006969,0.005165
1609059635061185837,269,1609059635061185837,-0.008987,-0.005788,-0.000671,0.99972,-0.000144,0.021979,0.008683,0.001415,0.010491,-8.1e-05,0.020936,0.008661,0.002251
1609059635163706064,270,1609059635163706064,-0.013063,-0.007331,0.001034,0.999713,-0.000376,0.022233,0.008819,-0.007048,0.00606,0.005252,0.02096,0.0073,0.000918
1609059635267838955,271,1609059635267838955,-0.015609,-0.010572,0.003364,0.999717,-0.000347,0.022052,0.008806,-0.010394,0.000775,0.009366,0.016578,0.007377,-0.000627
1609059635370737076,272,1609059635370737076,-0.015512,-0.012597,0.004617,0.999719,-0.000231,0.022068,0.008647,-0.008041,-0.002475,0.01125,0.014666,0.007116,-0.000995
1609059635440284252,273,1609059635440284252,-0.006176,-0.008371,0.003613,0.999721,6e-05,0.021854,0.008948,0.011863,0.005789,0.005811,0.01658,-0.00058,0.006533
1609059635542498350,274,1609059635542498350,-0.000977,-0.008242,0.000885,0.999722,-7.8e-05,0.021859,0.008793,0.018968,0.00474,0.000554,0.019773,0.002458,0.006638
1609059635645349026,275,1609059635645349026,-0.001402,-0.010056,0.000287,0.999722,-0.000226,0.021882,0.008719,0.015569,0.000753,0.00012,0.022023,0.002912,0.005452
1609059635748491764,276,1609059635748491764,0.001018,-0.011525,-0.0007,0.999719,-6.9e-05,0.022035,0.008704,0.017661,-0.002219,-0.001992,0.021088,0.004491,0.007443
1609059635851588488,277,1609059635851588488,0.003599,-0.013812,0.001698,0.999719,-8.4e-05,0.021985,0.008766,0.020656,-0.005045,0.004896,0.022808,0.004066,0.006575
1609059635954748392,278,1609059635954748392,0.004406,-0.014861,0.000744,0.999718,-0.000104,0.022072,0.008675,0.017601,-0.005366,0.001768,0.022126,0.004995,0.004341
1609059636057807684,279,1609059636057807684,0.003152,-0.013891,0.000226,0.999719,-0.000224,0.022015,0.008698,0.011108,-0.000722,-0.000782,0.023561,0.007481,0.003393
1609059636160921812,280,1609059636160921812,0.005048,-0.011945,-0.000463,0.99972,-0.000245,0.022019,0.008561,0.013784,0.004864,-0.001979,0.022342,0.008002,0.003143
1609059636263975620,281,1609059636263975620,0.00882,-0.009915,0.000243,0.999717,-0.00046,0.02208,0.008797,0.018437,0.0096,-0.000329,0.019763,0.006868,0.00203
1609059636367682934,282,1609059636367682934,0.009273,-0.009687,0.000488,0.999719,-0.000492,0.02201,0.008777,0.015609,0.009431,0.000509,0.015615,0.006077,0.001387
1609059636470263958,283,1609059636470263958,0.008721,-0.01034,8.4e-05,0.999717,-0.000608,0.021989,0.008949,0.009332,0.008101,-0.000298,0.016119,0.008085,-0.000596
1609059636540706158,284,1609059636540706158,0.012789,-0.007203,0.000829,0.999719,-0.000375,0.021899,0.009022,0.017429,0.012745,0.000857,0.016327,-0.000682,0.006683
1609059636642848253,285,1609059636642848253,0.008742,-0.010695,0.000832,0.99972,-0.000291,0.02188,0.00896,0.007083,0.002856,0.001572,0.019345,0.00246,0.007186
1609059636745905638,286,1609059636745905638,0.006687,-0.009635,0.001242,0.999719,-0.000187,0.021901,0.008972,0.002308,0.007105,0.003518,0.021906,0.003364,0.007267
1609059636848819256,287,1609059636848819256,0.0059,-0.009355,0.000907,0.999722,-0.0002,0.021825,0.008807,0.000764,0.00805,0.003229,0.020542,0.003272,0.006252
1609059636951866388,288,1609059636951866388,0.002948,-0.006666,0.000564,0.999721,-0.000201,0.021884,0.008823,-0.004697,0.014123,0.001461,0.021915,0.003918,0.006169
1609059637054830313,289,1609059637054830313,0.001008,-0.007303,0.001527,0.99972,-0.000117,0.021969,0.008784,-0.007473,0.011806,0.005257,0.022679,0.006971,0.003858
1609059637157818079,290,1609059637157818079,-0.003479,-0.006057,0.001871,0.999718,-0.000523,0.022036,0.008828,-0.015591,0.015901,0.004582,0.021098,0.009252,0.002775
1609059637261689186,291,1609059637261689186,-0.003551,-0.005414,0.000818,0.999719,-0.000171,0.021922,0.008974,-0.011247,0.016063,0.000226,0.021172,0.006916,0.003216
1609059637363964558,292,1609059637363964558,-0.003325,-0.003931,-8.3e-05,0.999718,-0.000233,0.022009,0.008808,-0.007938,0.018892,-0.002585,0.018578,0.007492,0.001607
1609059637467119455,293,1609059637467119455,-0.002179,-0.002724,0.000176,0.999719,-0.000365,0.021948,0.008922,-0.004821,0.01999,-0.000441,0.017202,0.006497,-0.000489
1609059637570128679,294,1609059637570128679,-0.003885,-0.007011,0.001148,0.999715,-0.000459,0.022065,0.009044,-0.007479,0.007105,0.002274,0.013604,0.008093,-0.000409
1609059637640229464,295,1609059637640229464,0.001749,-0.001851,0.001017,0.999721,-0.000161,0.021865,0.008924,0.004722,0.016476,0.001214,0.015413,0.000972,0.00619
1609059637742368698,296,1609059637742368698,0.000429,-0.004913,0.000659,0.999719,-1.1e-05,0.021947,0.008868,0.002216,0.006717,-1e-05,0.020112,0.001417,0.006349
1609059637845342875,297,1609059637845342875,0.000753,-0.008794,0.001158,0.999721,-7.2e-05,0.021877,0.008902,0.004059,-0.003753,0.002486,0.020075,0.000742,0.007446
1609059637948607206,298,1609059637948607206,-0.001215,-0.007771,0.001846,0.999721,-6.6e-05,0.021889,0.008779,0.000588,0.002001,0.005269,0.022323,0.006709,0.006155
1609059638051672220,299,1609059638051672220,-0.003523,-0.010682,0.001937,0.999715,-8.9e-05,0.022127,0.008859,-0.002733,-0.003505,0.002846,0.021327,0.002327,0.003757
1609059638155035257,300,1609059638155035257,-0.002081,-0.010601,0.001799,0.999717,-0.000437,0.022025,0.008951,0.000486,-0.001056,0.002478,0.021586,0.006999,0.004465
1609059638257940531,301,1609059638257940531,0.000578,-0.011381,0.000284,0.999716,-7.7e-05,0.022157,0.008678,0.006129,-0.00171,-0.002183,0.020367,0.00532,0.003865
1609059638361246347,302,1609059638361246347,-0.003618,-0.008544,-0.000697,0.999719,-0.000467,0.021963,0.008794,-0.003433,0.006578,-0.003781,0.02104,0.009731,0.001587
1609059638464171886,303,1609059638464171886,-0.002688,-0.009003,0.000269,0.999717,-0.000402,0.022057,0.008873,-0.002924,0.005467,0.000994,0.018292,0.00659,0.000973
1609059638567869425,304,1609059638567869425,-0.005314,-0.009406,0.000683,0.999719,-0.000503,0.021929,0.008939,-0.006329,0.004593,0.0015,0.017288,0.007842,0.000334
1609059638669744492,305,1609059638669744492,-0.002669,-0.011938,0.000672,0.999715,-0.000316,0.022078,0.008981,-0.001859,-0.001279,0.002291,0.017629,0.008299,-8.5e-05
1609059638742183447,306,1609059638742183447,-0.001496,-0.008741,0.000753,0.999717,-0.000172,0.021965,0.009021,0.000874,0.005149,0.001804,0.017698,0.001986,0.007458
1609059638843070984,307,1609059638843070984,-0.003618,-0.008851,0.000285,0.999721,-3.5e-05,0.021873,0.008909,-0.003103,0.004734,0.002643,0.018717,0.002641,0.006824
1609059638945852041,308,1609059638945852041,-0.005901,-0.010702,0.000677,0.999719,-5.2e-05,0.021908,0.008953,-0.006009,0.001605,0.004213,0.021914,0.003652,0.006038
1609059639048739433,309,1609059639048739433,-0.006413,-0.00835,-7.5e-05,0.999719,-7.2e-05,0.021965,0.008907,-0.00535,0.007042,0.001255,0.02071,0.006041,0.006725
1609059639151747704,310,1609059639151747704,-0.003426,-0.00629,0.002193,0.99972,-0.000104,0.021908,0.008932,0.00278,0.009812,0.006049,0.02243,0.001286,0.007099
1609059639254476786,311,1609059639254476786,-0.005592,-0.007248,0.000806,0.999719,-8.2e-05,0.021987,0.008831,-0.001535,0.007404,0.002321,0.02163,0.007062,0.003726
1609059639357740641,312,1609059639357740641,-0.005408,-0.008443,0.001699,0.999719,-0.000149,0.022013,0.008757,-0.000679,0.003715,0.003002,0.022908,0.008208,0.003733
1609059639460936308,313,1609059639460936308,-0.004826,-0.010311,0.001502,0.999718,0.0,0.022115,0.008586,-0.000784,-0.000558,0.001478,0.020702,0.009573,0.001598
1609059639564024687,314,1609059639564024687,-0.004906,-0.010943,0.001508,0.999718,-0.000175,0.022056,0.008711,-0.001668,-0.00051,0.000921,0.019982,0.00737,0.000756
1609059639667537451,315,1609059639667537451,-0.008717,-0.01117,0.00211,0.999715,-0.000494,0.022101,0.008954,-0.009573,0.000713,0.002561,0.014126,0.00591,-0.000317
1609059639770946264,316,1609059639770946264,-0.007957,-0.012094,0.002003,0.999716,-0.000545,0.022082,0.00889,-0.008741,-0.000171,0.001033,0.013939,0.009512,-0.002493
1609059639840313673,317,1609059639840313673,-0.00394,-0.009599,0.001367,0.999717,-8.8e-05,0.022013,0.008931,0.001521,0.004413,-0.001166,0.018616,6.8e-05,0.008038
1609059639942510843,318,1609059639942510843,-0.004303,-0.011273,0.000823,0.999722,3.7e-05,0.021901,0.00871,0.002118,-0.000627,-0.002188,0.018646,3.7e-05,0.007348
1609059640045302391,319,1609059640045302391,-0.003418,-0.009651,9.9e-05,0.99972,-5e-05,0.021944,0.008743,0.003765,0.005073,-0.001256,0.020715,0.003532,0.006983
1609059640148955822,320,1609059640148955822,-0.004977,-0.00858,0.001017,0.999717,-2e-05,0.022124,0.008688,-0.000909,0.007938,0.00251,0.022538,0.003248,0.006541
1609059640251667738,321,1609059640251667738,-0.008249,-0.013295,0.001423,0.999716,-2.7e-05,0.02216,0.008757,-0.006552,-0.003044,0.002767,0.021056,0.00337,0.005616
1609059640355035305,322,1609059640355035305,-0.008548,-0.013284,0.00275,0.999719,4e-06,0.022034,0.008699,-0.005125,-0.000446,0.005106,0.022598,0.007658,0.003234
1609059640457949162,323,1609059640457949162,-0.006473,-0.012119,0.001386,0.999718,0.000203,0.022179,0.008437,0.001299,0.002159,0.000163,0.020384,0.006864,0.001944
1609059640561670780,324,1609059640561670780,-0.007183,-0.012592,0.001652,0.999716,-0.000464,0.022074,0.008884,-0.001473,0.001279,0.001285,0.022147,0.008076,0.002498
1609059640664230347,325,1609059640664230347,-0.007624,-0.010883,0.002675,0.999714,-0.000682,0.022138,0.008914,-0.002638,0.006756,0.004125,0.018601,0.006352,0.001359
1609059640767337322,326,1609059640767337322,-0.006772,-0.010583,0.001463,0.999718,-0.000333,0.021985,0.008895,0.000549,0.0075,0.000413,0.017385,0.006895,0.00149
1609059640870260715,327,1609059640870260715,-0.005885,-0.012572,0.001209,0.999715,-0.000415,0.022098,0.008946,0.001909,0.002977,-0.000611,0.012803,0.007506,-0.002131
1609059640940513134,328,1609059640940513134,-0.000249,-0.009057,0.0008,0.999719,-6.7e-05,0.021994,0.008808,0.013113,0.007709,-0.000505,0.018017,0.000649,0.007611
1609059641042613745,329,1609059641042613745,-0.000534,-0.011765,0.002307,0.999718,3.4e-05,0.022015,0.008874,0.010205,0.000196,0.003527,0.015254,0.00043,0.007648
1609059641145589590,330,1609059641145589590,-0.002524,-0.012061,0.002065,0.999719,8.4e-05,0.021958,0.008823,0.004494,0.000785,0.003454,0.02107,0.006193,0.006498
1609059641248315334,331,1609059641248315334,-0.006934,-0.011244,0.002646,0.99972,8.5e-05,0.021935,0.008809,-0.005846,0.003174,0.005573,0.021471,0.005847,0.005957
1609059641351305962,332,1609059641351305962,-0.009744,-0.009694,0.00209,0.999715,1.8e-05,0.022188,0.008787,-0.0093,0.00687,0.001761,0.022337,0.005241,0.005736
1609059641454667330,333,1609059641454667330,-0.009204,-0.007486,0.001268,0.999717,-0.0002,0.022077,0.008817,-0.006042,0.0116,-0.001278,0.022066,0.00657,0.00448
1609059641557387829,334,1609059641557387829,-0.002307,-0.010618,0.000272,0.999718,-9.2e-05,0.022094,0.008611,0.011362,0.002273,-0.002046,0.023271,0.005979,0.003914
1609059641660469294,335,1609059641660469294,0.000562,-0.012977,0.000345,0.99972,-0.000508,0.021951,0.00872,0.016247,-0.00438,-0.002055,0.021305,0.006936,0.00256
1609059641763750792,336,1609059641763750792,-0.000235,-0.015032,0.001424,0.999718,-0.000454,0.022038,0.008749,0.010573,-0.007678,0.003737,0.020555,0.008666,0.001261
1609059641866935253,337,1609059641866935253,0.000293,-0.01472,0.00152,0.999718,-0.000632,0.022055,0.00874,0.010093,-0.004682,0.00224,0.015772,0.006504,0.001207
1609059641970881939,338,1609059641970881939,0.000591,-0.016066,0.001789,0.999715,-0.000554,0.022178,0.00875,0.006358,-0.005003,0.003995,0.015017,0.009599,-0.00044
1609059642039943218,339,1609059642039943218,0.003291,-0.012261,0.001966,0.99972,-9.1e-05,0.021938,0.008813,0.012613,0.004028,0.003175,0.01803,0.001001,0.006765
1609059642142550468,340,1609059642142550468,0.000364,-0.008729,0.00129,0.99972,7.6e-05,0.021928,0.008826,0.003368,0.012657,0.00206,0.019082,0.001815,0.006457
1609059642245106220,341,1609059642245106220,-0.002996,-0.007901,0.00167,0.999721,-5.9e-05,0.021912,0.008732,-0.003755,0.012718,0.003455,0.022114,0.003671,0.005965
1609059642348171473,342,1609059642348171473,-0.00263,-0.007836,0.0014,0.999719,-7e-06,0.022034,0.008652,-0.001937,0.010933,0.001756,0.022481,0.003786,0.006221
1609059642451626778,343,1609059642451626778,-0.003527,-0.008691,0.003355,0.999722,-1.4e-05,0.0219,0.008713,-0.002043,0.007009,0.006742,0.024691,0.003173,0.005382
1609059642554716825,344,1609059642554716825,-0.006903,-0.010375,0.001723,0.999718,-1.4e-05,0.022107,0.008606,-0.007236,0.001212,0.000476,0.024059,0.005603,0.004295
1609059642657505989,345,1609059642657505989,-0.004958,-0.010272,0.00327,0.999717,-0.000432,0.022138,0.008673,-0.002541,0.003187,0.003093,0.022065,0.007889,0.00383
1609059642761380911,346,1609059642761380911,-0.003822,-0.010008,0.002303,0.999719,-0.000113,0.022106,0.008487,0.000914,0.004103,-0.000474,0.020069,0.008524,0.001299
1609059642863876343,347,1609059642863876343,-0.000925,-0.010184,0.00185,0.99972,-0.000399,0.022062,0.008464,0.005052,0.004414,-0.001332,0.01876,0.008902,0.000297
1609059642967548847,348,1609059642967548847,-0.000545,-0.011382,0.002805,0.999719,-0.000641,0.022089,0.008558,0.004324,0.001545,0.002335,0.015567,0.007339,-0.000553
1609059643070142984,349,1609059643070142984,0.003853,-0.011957,0.00272,0.999718,-0.000468,0.022111,0.008571,0.010514,0.000716,0.001822,0.013814,0.006649,-0.001723
1609059643139916420,350,1609059643139916420,0.006526,-0.008245,0.002814,0.99972,-0.000104,0.021971,0.008766,0.015812,0.007595,0.00028,0.016227,0.000702,0.007453
1609059643241876841,351,1609059643241876841,0.00096,-0.009727,0.00243,0.99972,2.7e-05,0.021959,0.008702,0.001478,0.002404,-8.1e-05,0.018291,0.000217,0.007222
1609059643345610857,352,1609059643345610857,0.000216,-0.010174,0.00155,0.999719,-2.1e-05,0.021984,0.008762,0.001423,0.001865,-0.001631,0.019862,0.000141,0.007746
1609059643447978735,353,1609059643447978735,0.003773,-0.012771,0.002504,0.999721,-0.000293,0.021969,0.008663,0.009412,-0.004693,0.002072,0.02332,0.003938,0.006046
1609059643550931454,354,1609059643550931454,0.000506,-0.009728,0.001862,0.999716,-0.000237,0.022156,0.008687,0.001892,0.005481,0.000268,0.022223,0.00178,0.004871
1609059643654123783,355,1609059643654123783,0.00113,-0.011348,0.001905,0.999719,-0.000224,0.022021,0.008678,0.003872,0.001614,0.001441,0.024309,0.005897,0.003754
1609059643757308245,356,1609059643757308245,-0.002275,-0.010483,0.001249,0.999718,-0.000438,0.02201,0.008823,-0.004072,0.005075,0.000276,0.02255,0.009454,0.003479
1609059643859513998,357,1609059643859513998,-0.007588,-0.008691,0.002195,0.999719,-0.000383,0.021917,0.008913,-0.012756,0.009646,0.002404,0.021373,0.0083,0.004058
1609059643964254856,358,1609059643964254856,-0.003296,-0.009174,0.001376,0.999718,-0.000261,0.022061,0.008684,-0.001061,0.007546,0.000765,0.020144,0.007951,0.000358
1609059644066686869,359,1609059644066686869,0.000503,-0.010826,0.002143,0.999717,-0.000636,0.022042,0.008916,0.005257,0.003361,0.003924,0.018357,0.007807,0.001544
1609059644170776129,360,1609059644170776129,-8.9e-05,-0.012996,0.002454,0.999716,-0.000516,0.022043,0.008999,0.003147,0.000458,0.004396,0.014097,0.008436,-0.000897
1609059644239807606,361,1609059644239807606,0.001508,-0.011014,0.002398,0.999718,-0.000331,0.02195,0.009037,0.005855,0.002787,0.002882,0.018254,0.000663,0.007584
1609059644341949224,362,1609059644341949224,0.001806,-0.010643,0.002167,0.999718,-6.3e-05,0.021968,0.008922,0.006426,0.004241,0.001965,0.018428,0.002193,0.007573
1609059644444971085,363,1609059644444971085,0.000501,-0.012337,0.001816,0.999719,-0.000178,0.021924,0.008975,0.003602,0.000807,0.00087,0.019812,0.003143,0.007811
1609059644547915697,364,1609059644547915697,0.000743,-0.012394,0.001761,0.99972,-0.000101,0.021921,0.00888,0.004492,0.001123,0.001789,0.020857,0.004557,0.005007
1609059644651111603,365,1609059644651111603,0.000441,-0.012858,0.000807,0.999717,-0.000161,0.022054,0.008838,0.003493,0.00142,-0.001754,0.024571,0.004234,0.004267
1609059644754060984,366,1609059644754060984,-0.000987,-0.012931,0.001271,0.999718,-0.000102,0.022103,0.008669,0.001147,0.001707,-0.000588,0.02248,0.002194,0.004676
1609059644857210159,367,1609059644857210159,0.000456,-0.011725,0.00144,0.999719,-7.3e-05,0.022027,0.00866,0.005469,0.004837,-0.000354,0.023153,0.006036,0.002898
