time,field.header.seq,field.header.stamp,field.pose.pose.position.x,field.pose.pose.position.y,field.pose.pose.position.z,field.pose.pose.orientation.x,field.pose.pose.orientation.y,field.pose.pose.orientation.z,field.pose.pose.orientation.w,field.twist.twist.linear.x,field.twist.twist.linear.y,field.twist.twist.linear.z,field.twist.twist.angular.x,field.twist.twist.angular.y,field.twist.twist.angular.z
1609059014168936729,2,1609059014168936729,0.010072,-0.003225,0.001989,0.998995,-0.000134,0.044802,-0.00018,-0.000701,-0.004216,-0.008485,0.01291,0.002013,0.004223
1609059014279815435,3,1609059014279815435,0.009211,-0.002319,0.00051,0.998998,-6.8e-05,0.044736,-0.000109,-0.005637,-0.000432,-0.00998,0.020431,0.002663,-0.000554
1609059014373925447,4,1609059014373925447,0.007792,-0.003533,0.000793,0.999,-0.000128,0.044694,-0.000338,-0.010331,-0.004767,-0.007468,0.016931,0.003567,0.002385
1609059014468769789,5,1609059014468769789,0.008781,-0.003176,0.004075,0.999002,-9.8e-05,0.044662,-0.000358,-0.007289,-0.004477,0.0013,0.009791,0.002248,0.006425
1609059014579801083,6,1609059014579801083,0.008741,-0.001779,0.007538,0.998996,-0.000109,0.044792,-0.000467,-0.007962,0.000127,0.00944,0.023878,0.003258,-0.000917
1609059014673629045,7,1609059014673629045,0.008498,-0.002681,0.007076,0.999,-7.6e-05,0.044703,-0.000282,-0.00846,-0.002617,0.00541,0.016862,0.002167,0.003897
1609059014768413305,8,1609059014768413305,0.008136,-0.000372,0.00765,0.998998,-0.00014,0.044742,4.1e-05,-0.00926,0.003042,0.005971,0.015615,0.002935,0.00407
1609059014879488468,9,1609059014879488468,0.008385,-0.001894,0.004648,0.998991,-8.6e-05,0.044889,-0.00028,-0.009551,-3.1e-05,-0.001757,0.020104,0.001449,0.000928
1609059014975207329,10,1609059014975207329,0.008062,-0.002154,0.003824,0.998996,-0.000106,0.044781,-0.000186,-0.010308,-0.001658,-0.003686,0.017927,0.003644,0.000647
1609059015068381786,11,1609059015068381786,0.00716,-0.001877,0.002513,0.998993,-0.000176,0.044862,-0.000266,-0.011909,-0.002286,-0.007218,0.011102,-0.000372,0.005317
1609059015179516792,12,1609059015179516792,0.006132,-0.003997,0.003632,0.998998,-0.000107,0.044733,-0.000307,-0.014116,-0.004641,-0.003155,0.021747,0.003525,-0.000133
1609059015273656130,13,1609059015273656130,0.007457,-0.003792,0.003748,0.998999,-0.000109,0.044711,-0.000121,-0.009373,-0.003904,-0.003608,0.015789,0.001829,0.002338
1609059015368643999,14,1609059015368643999,0.00848,-0.003081,0.00533,0.998997,-7.8e-05,0.044772,-0.000181,-0.007029,-0.001977,0.000193,0.011073,0.001406,0.004384
1609059015479629755,15,1609059015479629755,0.008341,-0.003279,0.004969,0.999001,-0.000129,0.044685,-0.000387,-0.007855,-0.001443,-0.000243,0.022104,0.002029,-0.000315
1609059015574507713,16,1609059015574507713,0.009252,-0.001689,0.006418,0.998993,-6.7e-05,0.044851,-0.000327,-0.005767,0.001633,0.003012,0.015209,0.003643,0.002545
1609059015668402433,17,1609059015668402433,0.008983,0.000754,0.004778,0.999005,-5.3e-05,0.04459,-0.000392,-0.006935,0.00559,-0.000885,0.011749,0.000569,0.005797
1609059015780409575,18,1609059015780409575,0.007257,0.002226,0.006236,0.999,2.6e-05,0.044692,-0.000369,-0.012699,0.009746,0.002461,0.02414,0.004817,-0.00075
1609059015873701334,19,1609059015873701334,0.007222,-0.00064,0.00533,0.998997,-8.2e-05,0.044771,-0.000369,-0.013233,0.001707,-0.000185,0.018723,0.002468,0.001901
1609059015968589783,20,1609059015968589783,0.007125,0.000311,0.006648,0.999008,-9.5e-05,0.044516,-0.000575,-0.012277,0.001909,0.002032,0.011396,-0.000181,0.005407
1609059016080282450,21,1609059016080282450,0.006505,-0.001114,0.006179,0.999006,-0.000115,0.044561,-0.000268,-0.012499,-0.000688,0.001323,0.019669,0.001433,0.000142
1609059016173344612,22,1609059016173344612,0.007193,0.00159,0.007112,0.999006,-7.1e-05,0.044554,-0.000266,-0.009468,0.004987,0.002571,0.016889,0.003773,0.001565
1609059016268229485,23,1609059016268229485,0.007281,-0.000142,0.005107,0.999001,3e-06,0.044671,-0.000329,-0.009571,-0.001602,-0.003357,0.010722,0.001428,0.005264
1609059016379209042,24,1609059016379209042,0.006542,0.000342,0.005561,0.999012,-8.4e-05,0.044428,-0.000429,-0.011033,-0.000126,-0.00088,0.018272,-0.001243,0.002363
1609059016472890615,25,1609059016472890615,0.00724,-0.000887,0.004246,0.999005,-0.000192,0.044585,-0.000297,-0.007786,-0.003587,-0.003395,0.013128,0.001527,0.005365
1609059016567803383,26,1609059016567803383,0.008533,-0.003214,0.003623,0.998997,-0.000161,0.044769,2.7e-05,-0.004974,-0.008393,-0.004273,0.013581,0.00131,0.004654
1609059016679177523,27,1609059016679177523,0.007654,-0.004582,0.002631,0.999005,-1.5e-05,0.044589,-0.00022,-0.008606,-0.008667,-0.006255,0.024262,0.001267,-0.001693
1609059016773328543,28,1609059016773328543,0.007787,-0.005855,0.002307,0.999,-8.7e-05,0.044704,-0.000295,-0.008841,-0.010759,-0.005126,0.018093,0.001724,0.001555
1609059016868166208,29,1609059016868166208,0.007916,-0.004719,0.004451,0.999006,-0.000145,0.044556,-0.000345,-0.008605,-0.007745,-0.000709,0.011992,0.002375,0.005009
1609059016979616642,30,1609059016979616642,0.007199,-0.003715,0.005088,0.998992,5.6e-05,0.044872,-0.000324,-0.012185,-0.003284,-0.000459,0.025347,0.004028,-0.001658
1609059017073848009,31,1609059017073848009,0.007945,-0.007057,0.005021,0.998995,-0.000108,0.044805,-0.000525,-0.008675,-0.01151,-0.001397,0.017611,0.00271,0.00259
1609059017168544292,32,1609059017168544292,0.007621,-0.005156,0.004357,0.999001,-9.6e-05,0.044675,-0.000392,-0.0087,-0.006389,-0.002748,0.009833,-0.00121,0.006191
1609059017279754400,33,1609059017279754400,0.00689,-0.007244,0.003538,0.999002,3.5e-05,0.044643,-0.000365,-0.011004,-0.008437,-0.00383,0.022867,0.003952,-0.001219
1609059017373468399,34,1609059017373468399,0.007237,-0.006377,0.003258,0.999,-9.5e-05,0.044702,-0.000384,-0.009606,-0.00629,-0.00413,0.015646,0.002103,0.002976
1609059017468150854,35,1609059017468150854,0.008702,-0.004837,0.003011,0.998993,-0.00012,0.044853,-0.000327,-0.006327,-0.002453,-0.003716,0.014575,-0.00064,0.00397
1609059017578573465,36,1609059017578573465,0.007486,-0.00267,0.00239,0.998995,-0.000161,0.044806,-3.3e-05,-0.009829,0.00413,-0.005012,0.019514,0.002254,-2.1e-05
1609059017674319267,37,1609059017674319267,0.008517,-0.003146,0.001818,0.998993,1.3e-05,0.044848,7.9e-05,-0.007173,0.00239,-0.005607,0.018346,-7.1e-05,0.001743
1609059017768546104,38,1609059017768546104,0.00888,-0.003191,0.000813,0.998993,-0.000104,0.044854,-6.8e-05,-0.006836,0.00022,-0.007593,0.01067,0.000466,0.005168
1609059017880162239,39,1609059017880162239,0.008822,-0.002567,0.001814,0.998992,-5e-05,0.044867,2.7e-05,-0.008176,0.003304,-0.002936,0.022321,0.002432,-0.00028
1609059017974379539,40,1609059017974379539,0.009929,-0.003535,0.003033,0.998992,-0.00013,0.044869,-0.000139,-0.005552,-0.001126,0.000366,0.017638,0.004596,0.00336
1609059018067486525,41,1609059018067486525,0.009832,-0.001722,0.003501,0.998996,-7.2e-05,0.044794,-0.000174,-0.006095,0.002426,0.000748,0.011383,0.000889,0.004331
1609059018178694963,42,1609059018178694963,0.008267,-0.002888,0.005324,0.999,-0.00017,0.0447,0.000199,-0.009806,0.002759,0.004313,0.021932,0.002681,-0.00072
1609059018272431135,43,1609059018272431135,0.009426,-0.004852,0.005567,0.998994,-0.000147,0.044825,-0.000183,-0.006978,-0.003702,0.002968,0.016839,0.003205,0.003851
1609059018367440701,44,1609059018367440701,0.009821,-0.004647,0.002961,0.998997,-4.8e-05,0.044766,-0.000507,-0.006581,-0.004244,-0.00353,0.010925,0.002015,0.005595
1609059018478589058,45,1609059018478589058,0.009735,-0.002384,0.003573,0.998992,-7.3e-05,0.044885,-0.000439,-0.008156,0.00314,-0.001601,0.020851,0.001892,-3.8e-05
1609059018572626829,46,1609059018572626829,0.010137,-0.005003,0.003266,0.998991,-2.5e-05,0.044908,-0.000404,-0.007546,-0.003291,-0.001803,0.017324,0.00224,0.002183
1609059018667671204,47,1609059018667671204,0.008487,-0.004615,0.003275,0.998993,-4.7e-05,0.044852,-0.000147,-0.012544,-0.0011,-0.002212,0.012873,0.000946,0.003545
1609059018778500557,48,1609059018778500557,0.006958,-0.003671,0.005533,0.999,5.2e-05,0.0447,-0.000251,-0.016622,0.001881,0.003526,0.021594,0.002653,-1.3e-05
1609059018872721195,49,1609059018872721195,0.007013,-0.00393,0.005774,0.999003,-0.000118,0.044627,9.2e-05,-0.013816,0.000742,0.004304,0.018174,0.004414,0.003119
1609059018967651606,50,1609059018967651606,0.00608,-0.005622,0.003413,0.999002,-5e-05,0.044657,4.6e-05,-0.015242,-0.002532,-0.001263,0.012998,0.001869,0.00405
1609059019078708410,51,1609059019078708410,0.006633,-0.003984,0.003706,0.998995,1.5e-05,0.044803,-0.000371,-0.012855,0.0021,0.00124,0.019664,0.001229,0.000476
1609059019172344685,52,1609059019172344685,0.006511,-0.003624,0.007247,0.998998,-0.00012,0.044749,-0.000109,-0.01168,0.002121,0.008574,0.017353,0.002545,0.002729
1609059019267207861,53,1609059019267207861,0.007755,-0.001931,0.005512,0.999006,-0.000151,0.044575,4e-05,-0.007346,0.004705,0.003882,0.009721,0.00244,0.006007
1609059019378281355,54,1609059019378281355,0.006386,-0.000903,0.004658,0.998999,-0.000178,0.044712,1.3e-05,-0.011454,0.006311,0.001537,0.020991,0.002531,0.000286
1609059019472374201,55,1609059019472374201,0.008536,-0.003713,0.005153,0.998995,-0.000118,0.044808,-0.000125,-0.005772,-0.001633,0.00228,0.015246,0.002747,0.002435
1609059019567658663,56,1609059019567658663,0.008585,-0.004918,0.004239,0.998998,-8.5e-05,0.044751,-0.000346,-0.006289,-0.004698,6.5e-05,0.008229,0.001944,0.005604
1609059019678522348,57,1609059019678522348,0.008273,-0.006879,0.005252,0.998998,-2.5e-05,0.044731,-0.000307,-0.00785,-0.007243,0.001561,0.020061,0.001489,0.000951
1609059019772648573,58,1609059019772648573,0.009493,-0.006263,0.002965,0.998994,-0.000134,0.044834,-0.000158,-0.004731,-0.004598,-0.003968,0.017755,0.002553,0.001942
1609059019867471457,59,1609059019867471457,0.010713,-0.005638,0.002685,0.998993,-7.9e-05,0.044858,-0.000308,-0.002232,-0.003491,-0.004554,0.008895,0.003597,0.006789
1609059019980206013,60,1609059019980206013,0.009864,-0.00462,0.002655,0.998993,-6.1e-05,0.044862,-0.000301,-0.005738,1.3e-05,-0.00402,0.02472,0.005037,-7.4e-05
1609059020080105782,61,1609059020080105782,0.008118,-0.00535,0.000577,0.998992,-6e-06,0.044872,-0.000192,-0.011313,-0.001717,-0.007897,0.02017,0.001412,-0.00025
1609059020183548212,62,1609059020183548212,0.007357,-0.00577,0.003377,0.998996,-3.5e-05,0.044787,-0.000145,-0.012863,-0.002766,0.000566,0.023432,0.002646,-0.001377
1609059020287601233,63,1609059020287601233,0.007018,-0.005326,0.001514,0.998997,-0.000159,0.044769,-0.00011,-0.012421,-0.001069,-0.003491,0.023824,0.004416,-0.002287
1609059020389884949,64,1609059020389884949,0.008211,-0.006367,0.002662,0.998993,-1.5e-05,0.044849,-0.000278,-0.008491,-0.002424,-0.000196,0.024542,0.004434,-0.004566
1609059020492949009,65,1609059020492949009,0.006929,-0.004086,0.00091,0.998994,-2.1e-05,0.044827,-5.5e-05,-0.011974,0.004096,-0.003797,0.02408,0.000862,-0.006829
1609059020595948458,66,1609059020595948458,0.007333,-0.004169,0.000917,0.998992,-4.7e-05,0.044878,-0.000411,-0.010971,0.002219,-0.003886,0.022972,0.002922,-0.003995
1609059020667799473,67,1609059020667799473,0.007878,-0.005366,0.00166,0.998996,-0.000107,0.044781,-0.000123,-0.008649,-0.00397,-0.001393,0.009197,0.003424,0.005384
1609059020768152475,68,1609059020768152475,0.006896,-0.005643,0.001266,0.998996,-0.00013,0.04478,-6.4e-05,-0.010875,-0.00283,-0.001863,0.011931,0.002142,0.005829
1609059020873144388,69,1609059020873144388,0.007409,-0.004879,0.001499,0.998994,-7.6e-05,0.044833,-0.000339,-0.00876,-0.001498,-0.001992,0.014414,0.000201,0.005705
1609059020974766493,70,1609059020974766493,0.008158,-0.004173,0.002253,0.998989,-0.000108,0.044934,-0.000268,-0.006562,0.00027,-0.00093,0.020149,0.003923,0.000955
1609059021077505827,71,1609059021077505827,0.007891,-0.001157,0.001758,0.998989,-0.000126,0.044938,-0.000295,-0.006069,0.006374,-0.002673,0.020816,0.005422,0.000837
1609059021180338383,72,1609059021180338383,0.008518,-0.001596,0.00422,0.998995,3.7e-05,0.044817,-0.000611,-0.005324,0.003145,0.003627,0.024629,0.001287,-0.000415
1609059021283048153,73,1609059021283048153,0.009647,-0.002847,0.006411,0.998987,-0.000135,0.044979,-0.000699,-0.003471,-0.000843,0.005705,0.024986,0.00283,-0.001893
1609059021386394978,74,1609059021386394978,0.008606,-0.002329,0.006289,0.998991,-6.9e-05,0.0449,-0.000667,-0.007689,0.001006,0.002888,0.024649,0.002514,-0.002647
1609059021489202261,75,1609059021489202261,0.008552,-0.001452,0.006227,0.998998,-2.5e-05,0.044736,-0.000254,-0.007434,0.004438,0.001303,0.023558,0.002776,-0.003656
1609059021592097282,76,1609059021592097282,0.007963,-0.001563,0.004454,0.998995,-5.7e-05,0.044802,-0.000273,-0.009479,0.003452,-0.003421,0.023787,0.003077,-0.004768
1609059021695342302,77,1609059021695342302,0.007778,-0.000832,0.002951,0.998998,-2.7e-05,0.044746,-0.000367,-0.009455,0.005414,-0.006813,0.024323,0.00266,-0.005526
1609059021766953230,78,1609059021766953230,0.008109,-0.001718,0.001916,0.998995,3.4e-05,0.044808,-0.000116,-0.008348,-0.000112,-0.008408,0.010572,0.001911,0.004661
1609059021867946148,79,1609059021867946148,0.007865,-0.001675,0.002409,0.999001,-5.8e-05,0.044681,-0.000163,-0.00861,2.3e-05,-0.00454,0.011919,0.001979,0.005219
1609059021970662117,80,1609059021970662117,0.007592,-0.001847,0.002149,0.998994,-0.000128,0.044837,-0.000152,-0.008748,-0.000129,-0.005961,0.014898,0.002771,0.003015
1609059022074503899,81,1609059022074503899,0.007144,-0.000558,0.000454,0.999001,-0.000109,0.044666,-0.000219,-0.010056,0.003786,-0.009113,0.017121,0.00233,0.001946
1609059022178193331,82,1609059022178193331,0.007435,-0.001315,0.000665,0.998995,-2.7e-05,0.044816,-0.000426,-0.009984,0.001734,-0.00653,0.019918,0.001234,0.001149
1609059022280582905,83,1609059022280582905,0.006538,-6.2e-05,0.000107,0.99899,-0.000108,0.044928,-0.000187,-0.011865,0.00414,-0.006322,0.02022,0.001243,-0.00066
1609059022383079052,84,1609059022383079052,0.008688,-0.002666,0.001161,0.998988,-1.2e-05,0.044967,-0.000428,-0.006931,-0.002304,-0.003003,0.025044,0.003026,-0.001739
1609059022486084938,85,1609059022486084938,0.007988,-0.003229,0.003015,0.998986,-9.1e-05,0.045015,-0.000533,-0.009219,-0.003069,0.000363,0.025326,0.001831,-0.002621
1609059022589176893,86,1609059022589176893,0.006726,-0.004088,0.003779,0.998994,-5.4e-05,0.04482,-0.000333,-0.011475,-0.002943,0.001206,0.025801,0.003126,-0.002916
1609059022692739010,87,1609059022692739010,0.00762,-0.003046,0.004043,0.998992,0.000108,0.044871,-0.000336,-0.008778,0.000731,0.000114,0.023076,0.002628,-0.004365
1609059022796793461,88,1609059022796793461,0.008403,-0.002595,0.005432,0.998997,-2.1e-05,0.044765,-0.000472,-0.006929,0.001597,0.001596,0.022337,0.006109,-0.005429
1609059022867232084,89,1609059022867232084,0.008753,-0.00256,0.00569,0.998996,-3.9e-05,0.04478,-0.000378,-0.005625,-0.001522,0.000966,0.012199,0.002558,0.004362
1609059022967660904,90,1609059022967660904,0.009036,-0.001548,0.005225,0.998994,-0.000157,0.044837,-0.000491,-0.005264,0.00022,-0.000783,0.011629,9.4e-05,0.004516
1609059023070525646,91,1609059023070525646,0.008801,-0.000284,0.000433,0.998988,-6.3e-05,0.044966,-0.000339,-0.008011,0.003616,-0.012371,0.01507,0.001455,0.003536
1609059023173918247,92,1609059023173918247,0.009279,-0.002783,-0.002876,0.998987,-0.000253,0.044987,-0.000328,-0.007752,-0.001355,-0.016355,0.01787,0.003974,0.001085
1609059023277442932,93,1609059023277442932,0.008203,-0.002254,-0.001733,0.998991,-0.000131,0.044903,-0.000428,-0.010881,-0.000624,-0.009997,0.020136,0.001494,0.000939
1609059023380221605,94,1609059023380221605,0.008639,-0.001419,-0.001931,0.998994,-8.4e-05,0.044835,-0.000419,-0.009188,0.001491,-0.007544,0.021257,0.001973,-0.000855
1609059023483368158,95,1609059023483368158,0.008371,-0.0043,-0.002431,0.998997,-3.7e-05,0.04477,-0.000569,-0.010272,-0.004604,-0.008196,0.023607,0.002891,-0.002816
1609059023586247444,96,1609059023586247444,0.008849,-0.003197,-0.003089,0.998995,-5.9e-05,0.044801,-0.000494,-0.009485,-0.000191,-0.007052,0.025929,0.001723,-0.00398
1609059023689791679,97,1609059023689791679,0.009373,-0.003172,-0.001572,0.998996,1.8e-05,0.044795,-0.000496,-0.007814,0.001056,-0.000247,0.022986,0.005088,-0.004106
1609059023792383432,98,1609059023792383432,0.008342,-0.004608,-8.6e-05,0.998986,7e-06,0.045002,-0.000212,-0.011736,-0.001441,0.004407,0.024275,0.004934,-0.002302
1609059023895503759,99,1609059023895503759,0.007634,-0.004501,-0.001606,0.998985,-7.2e-05,0.045027,-0.000409,-0.013311,-0.001348,-0.001052,0.021667,-0.000365,-0.005737
1609059023967433929,100,1609059023967433929,0.00869,-0.006018,-0.001499,0.998993,-0.000171,0.044855,-0.000402,-0.009042,-0.008027,0.000714,0.00981,0.002608,0.004919
1609059024067342758,101,1609059024067342758,0.007912,-0.006095,-0.000969,0.998998,-9.2e-05,0.044743,-0.000314,-0.010778,-0.006585,0.002631,0.011605,0.001801,0.00551
1609059024172347546,102,1609059024172347546,0.00672,-0.00686,-0.001951,0.998998,0.0,0.044745,-0.000297,-0.013827,-0.006745,-0.001076,0.015778,0.00277,0.003183
1609059024273520231,103,1609059024273520231,0.007622,-0.005453,0.000874,0.998998,-4.1e-05,0.044752,-0.000321,-0.010772,-0.001392,0.006672,0.017846,0.004741,0.00258
1609059024378080606,104,1609059024378080606,0.008515,-0.005377,0.001655,0.998988,-0.000129,0.044972,-0.000465,-0.008602,-0.000828,0.006313,0.01906,0.00096,-0.000697
1609059024479892015,105,1609059024479892015,0.008046,-0.005481,0.001353,0.998993,-5.4e-05,0.044861,-0.000253,-0.010135,-0.000635,0.004219,0.022347,0.00163,0.00094
1609059024582989216,106,1609059024582989216,0.006884,-0.005285,0.001058,0.998995,-0.000143,0.044809,-0.000467,-0.013958,0.000207,0.002005,0.023347,0.00232,-0.002785
1609059024686078072,107,1609059024686078072,0.007156,-0.006278,-0.000296,0.999004,-9.6e-05,0.044608,-0.000691,-0.01245,-0.002235,-0.00152,0.025711,0.00265,-0.001637
1609059024789220572,108,1609059024789220572,0.008669,-0.001855,-0.000519,0.998984,-4.9e-05,0.045058,-0.000564,-0.008314,0.007708,-0.001268,0.024236,0.004271,-0.003468
1609059024892245531,109,1609059024892245531,0.007477,9.2e-05,-0.000787,0.998991,-6.5e-05,0.044888,-0.000714,-0.011347,0.009448,-0.001887,0.022775,0.003712,-0.004503
1609059024995248556,110,1609059024995248556,0.00829,-0.000505,7.5e-05,0.998994,-6.6e-05,0.044841,-0.000356,-0.00856,0.006892,-0.000421,0.023721,0.00029,-0.005971
1609059025067295790,111,1609059025067295790,0.009222,-0.002725,-0.002962,0.998997,-7.9e-05,0.04477,-0.000434,-0.005799,-0.002418,-0.007801,0.008556,0.001045,0.006492
1609059025167143106,112,1609059025167143106,0.01153,-0.003356,-0.001413,0.99899,-0.000142,0.044918,-0.000538,-0.000351,-0.004214,-0.002352,0.008732,-3.9e-05,0.005233
1609059025271132469,113,1609059025271132469,0.010484,-0.002636,-0.000331,0.998983,4.3e-05,0.045073,-0.000392,-0.005681,-0.002287,-6.1e-05,0.013019,0.003626,0.004405
1609059025375380754,114,1609059025375380754,0.012337,-0.002697,-0.000492,0.998987,-0.000164,0.044986,-0.000355,-0.001274,-0.001755,-0.0008,0.015102,0.001567,0.003357
1609059025477054119,115,1609059025477054119,0.010493,-0.002648,0.002068,0.998988,-2.7e-05,0.04496,-0.000499,-0.009019,-0.001127,0.006252,0.021285,0.001571,-0.001061
1609059025581265688,116,1609059025581265688,0.008741,-0.003717,-0.000373,0.998995,-7.1e-05,0.044812,-0.000518,-0.014053,-0.002584,-0.000909,0.021748,0.001633,-0.001704
1609059025684482574,117,1609059025684482574,0.007077,-0.00327,-0.000129,0.998993,-3.3e-05,0.044848,-0.000467,-0.017511,-0.001002,-0.000412,0.025014,0.001633,-0.002743
1609059025786085606,118,1609059025786085606,0.006073,-0.000528,-0.001909,0.998995,-0.000168,0.044817,-0.000279,-0.018016,0.005319,-0.004117,0.023541,0.000335,-0.001503
1609059025889156342,119,1609059025889156342,0.006295,0.000142,-0.002939,0.998993,-0.00012,0.044858,-0.000399,-0.015323,0.005662,-0.005074,0.024998,0.001373,-0.003253
1609059025992651701,120,1609059025992651701,0.006816,-0.002561,-0.003,0.998997,-5e-06,0.044758,-0.000431,-0.012585,-0.000493,-0.004262,0.022271,0.000454,-0.005293
1609059026095217466,121,1609059026095217466,0.008426,-0.003673,-0.003571,0.998996,3e-06,0.044781,-0.000639,-0.007785,-0.003354,-0.004847,0.024927,0.003769,-0.004619
1609059026166726112,122,1609059026166726112,0.010342,-0.003303,-0.00319,0.998993,2.3e-05,0.044851,-0.00068,-0.002059,-0.006019,-0.002737,0.009173,-0.002525,0.006973
1609059026266840458,123,1609059026266840458,0.010784,-0.000789,-0.001392,0.99899,-0.000121,0.044928,-0.000436,-0.002353,0.00106,0.002171,0.011351,0.002022,0.004721
1609059026370183706,124,1609059026370183706,0.01045,-0.00047,0.000531,0.99899,-0.000173,0.044915,-0.000358,-0.004528,0.00189,0.005117,0.014414,0.002817,0.001762
1609059026473718405,125,1609059026473718405,0.009797,-0.001279,0.000311,0.998995,-0.000103,0.044818,-0.000305,-0.007385,0.000655,0.002949,0.019932,0.001799,0.002218
1609059026577076674,126,1609059026577076674,0.007656,-0.000441,0.000361,0.998996,-0.000112,0.044794,-0.000492,-0.013835,0.001752,0.000912,0.022567,0.000725,-4.1e-05
1609059026679737806,127,1609059026679737806,0.007898,-0.001632,0.001192,0.998995,-4.6e-05,0.044819,-0.000359,-0.012128,-0.001434,0.003861,0.022879,0.004294,-0.00091
1609059026783007383,128,1609059026783007383,0.007967,-0.001759,-0.00012,0.998992,4.6e-05,0.044882,-0.000336,-0.011572,-0.001216,-0.000733,0.02423,0.000128,-0.001505
1609059026886376381,129,1609059026886376381,0.008911,-0.000758,-0.000934,0.998986,-6.1e-05,0.045021,-0.000178,-0.008848,0.002718,-0.001768,0.02563,0.000425,-0.003956
1609059026989351034,130,1609059026989351034,0.00807,0.00012,-0.001328,0.998997,-4.5e-05,0.044764,-0.000355,-0.010657,0.00404,-0.002205,0.023566,0.002336,-0.0048
1609059027092364311,131,1609059027092364311,0.008532,0.000427,-0.001108,0.998999,-0.000126,0.044712,-0.000413,-0.008558,0.004547,-0.001651,0.025563,0.003301,-0.003526
1609059027196972132,132,1609059027196972132,0.007114,-0.002875,-0.001311,0.999001,-5.1e-05,0.044667,0.0,-0.012498,-0.001444,-0.002507,0.020405,0.000494,-0.004813
1609059027267192364,133,1609059027267192364,0.008062,-0.003197,0.002182,0.998992,-7e-05,0.044885,-0.000113,-0.008045,-0.005375,0.004173,0.010544,0.001358,0.004568
1609059027367329121,134,1609059027367329121,0.009335,-0.004563,-1e-06,0.998994,-4.2e-05,0.044839,-0.000356,-0.005114,-0.006899,-0.002268,0.012161,-0.00088,0.004772
1609059027470470428,135,1609059027470470428,0.009735,-0.005647,6.1e-05,0.998998,-0.000115,0.04474,-0.000405,-0.005096,-0.00753,-0.001414,0.015899,0.001066,0.001757
1609059027573250055,136,1609059027573250055,0.009656,-0.003274,0.002881,0.998998,-3e-06,0.04475,-0.000391,-0.006885,-0.000552,0.007329,0.01891,0.002139,0.002456
1609059027677865744,137,1609059027677865744,0.009188,0.000262,0.00284,0.998986,3.1e-05,0.045019,-0.000231,-0.009484,0.007825,0.005193,0.019745,0.002509,0.00096
1609059027779898405,138,1609059027779898405,0.009457,-0.0001,0.002746,0.998987,-9.5e-05,0.044976,-0.000357,-0.008124,0.005361,0.004332,0.022772,0.004694,-0.001697
1609059027883015871,139,1609059027883015871,0.008569,-0.000361,0.002437,0.998987,-3.5e-05,0.044989,-0.000418,-0.010824,0.004071,0.001666,0.024445,0.00123,-0.001219
1609059027986250162,140,1609059027986250162,0.009153,-0.002216,0.003246,0.998983,-5.9e-05,0.045067,-0.00039,-0.010376,-0.000399,0.00312,0.023443,0.002404,-0.003089
1609059028089236975,141,1609059028089236975,0.008366,-0.002873,0.002477,0.998995,5.1e-05,0.0448,-0.000389,-0.012246,-0.000492,2.3e-05,0.024713,0.002522,-0.004202
1609059028192186356,142,1609059028192186356,0.008049,-0.003858,0.00155,0.999,4.5e-05,0.044695,-0.000598,-0.012289,-0.002165,-0.003153,0.024473,0.004598,-0.004407
1609059028295219183,143,1609059028295219183,0.007813,-0.003368,0.000656,0.998993,9.3e-05,0.04485,-0.000551,-0.012606,0.000229,-0.005644,0.021827,0.00241,-0.005678
1609059028366970062,144,1609059028366970062,0.008039,-0.001647,-0.000185,0.998999,-1.7e-05,0.044712,-0.000528,-0.010543,0.000643,-0.007182,0.011524,-0.001873,0.004886
1609059028467363119,145,1609059028467363119,0.008756,-0.001786,0.001265,0.998998,8e-06,0.044733,-0.000531,-0.008743,-0.000752,-0.001256,0.01068,-0.001328,0.004442
1609059028570141792,146,1609059028570141792,0.009513,-0.001786,0.000847,0.998993,-0.000109,0.04485,-0.000467,-0.006654,-7e-06,-0.003194,0.015706,0.004227,0.002281
1609059028673265934,147,1609059028673265934,0.00957,-0.000149,0.001345,0.998987,-4e-05,0.044978,-0.000391,-0.008718,0.00346,-0.001345,0.016315,0.002299,0.001876
1609059028777006865,148,1609059028777006865,0.008718,-0.00243,0.000242,0.998986,-4.2e-05,0.045012,-0.00028,-0.011828,-0.001321,-0.002248,0.021813,0.004585,0.001426
1609059028880223989,149,1609059028880223989,0.007627,0.000817,-0.001358,0.998989,-0.000108,0.044951,-6.4e-05,-0.013126,0.006133,-0.006888,0.021378,0.002752,-0.000834
1609059028982651949,150,1609059028982651949,0.008256,-0.0009,-0.001756,0.99899,-0.000105,0.044915,-0.000188,-0.010718,0.001558,-0.005872,0.024798,0.003394,-0.000146
1609059029085549355,151,1609059029085549355,0.007529,-0.003859,-0.002083,0.998997,-8.1e-05,0.044766,-0.000223,-0.013362,-0.004002,-0.003211,0.026135,0.003671,-0.003069
1609059029188636065,152,1609059029188636065,0.00923,-0.004619,-0.001285,0.998992,-2.7e-05,0.044879,-0.000421,-0.007867,-0.004359,0.001041,0.025665,0.002871,-0.00356
1609059029291811466,153,1609059029291811466,0.008555,-0.004898,-0.001752,0.998995,-7.8e-05,0.044801,-0.000415,-0.009854,-0.003045,-0.00077,0.023738,0.002882,-0.004412
1609059029394959211,154,1609059029394959211,0.009169,-0.003733,-0.000675,0.99899,9.3e-05,0.044925,-0.000608,-0.00906,0.000402,0.001452,0.021609,0.004121,-0.005767
1609059029466882229,155,1609059029466882229,0.009663,-0.00565,0.000157,0.998989,-3.6e-05,0.044941,-0.000467,-0.007571,-0.006451,0.00303,0.012687,-0.000105,0.004699
1609059029568681717,156,1609059029568681717,0.009708,-0.007352,0.001019,0.998993,-9.8e-05,0.044864,-0.000347,-0.007924,-0.008295,0.005333,0.013124,0.001779,0.005066
1609059029671488047,157,1609059029671488047,0.009608,-0.006802,-0.000296,0.998988,-4.6e-05,0.04497,-0.00038,-0.009114,-0.005556,-3.6e-05,0.011028,-0.001169,0.003789
1609059029780179501,158,1609059029780179501,0.007744,-0.004653,-0.000819,0.998985,5.7e-05,0.04504,-5.8e-05,-0.014396,0.002381,-0.001736,0.022844,0.003916,-2.1e-05
1609059029883426905,159,1609059029883426905,0.009347,-0.004766,-0.00084,0.998989,-5.8e-05,0.044954,-0.000133,-0.008457,0.002836,-0.00098,0.023527,0.000491,-0.001056
1609059029986491203,160,1609059029986491203,0.009444,-0.003742,-0.001335,0.99899,7e-05,0.044921,-0.000184,-0.008688,0.004969,-0.000941,0.023512,0.00102,-0.002508
1609059030090518951,161,1609059030090518951,0.009371,-0.002513,-0.001366,0.998984,-2e-06,0.045044,-0.000267,-0.010361,0.007604,-0.000345,0.024075,0.004139,-0.004727
1609059030192771673,162,1609059030192771673,0.007002,-0.002212,-0.001353,0.998994,-6.1e-05,0.044835,-0.000468,-0.016502,0.006351,-0.000341,0.023329,0.002356,-0.004723
1609059030295773268,163,1609059030295773268,0.008496,-0.00179,-0.001453,0.998989,-1.4e-05,0.044932,-0.000311,-0.01095,0.007179,-2e-06,0.023564,0.002156,-0.005361
1609059030369461775,164,1609059030369461775,0.009096,-0.003629,0.001117,0.998995,-5.9e-05,0.044801,-0.000168,-0.007737,-0.000143,0.006686,0.014774,-0.00015,0.003378
1609059030472465515,165,1609059030472465515,0.01025,-0.004402,-0.000183,0.998984,-7.8e-05,0.045056,-8.6e-05,-0.006222,-0.001648,0.001921,0.017914,0.003715,0.002815
1609059030575567722,166,1609059030575567722,0.008532,-0.003307,-0.002272,0.998992,-3.3e-05,0.044878,-6e-06,-0.011939,0.001881,-0.003387,0.018523,0.000838,0.001494
1609059030679651260,167,1609059030679651260,0.010771,-0.005373,-0.002057,0.998991,-9.7e-05,0.044909,-0.000179,-0.005814,-0.003735,-0.001198,0.023009,0.004707,-0.00173
1609059030781719685,168,1609059030781719685,0.010284,-0.002151,-0.000226,0.99899,-7.5e-05,0.044915,-0.000294,-0.007904,0.004161,0.003418,0.023484,0.001203,-0.002095
1609059030884956121,169,1609059030884956121,0.009441,-0.002221,0.001013,0.998994,-7.7e-05,0.044834,-0.0003,-0.010531,0.003129,0.004871,0.024887,0.000795,-0.001229
1609059030988535404,170,1609059030988535404,0.008845,-0.003517,5e-05,0.998996,-4.1e-05,0.04478,-0.000519,-0.012327,-0.000179,0.001805,0.02572,0.000817,-0.003716
1609059031090541601,171,1609059031090541601,0.00684,-0.002004,0.000209,0.998992,9e-06,0.044884,-0.000549,-0.018073,0.003238,0.003361,0.026392,0.004128,-0.004389
1609059031193632126,172,1609059031193632126,0.007081,-0.001275,0.000393,0.998994,-5e-05,0.044828,-0.000427,-0.015069,0.005501,0.003087,0.023155,0.003664,-0.005199
1609059031297037363,173,1609059031297037363,0.007617,-0.001438,0.001546,0.998997,-1.8e-05,0.044761,-0.000423,-0.011681,0.005165,0.004935,0.022632,0.004207,-0.00461
1609059031367552519,174,1609059031367552519,0.008637,-0.00384,0.0027,0.998994,-6.6e-05,0.044824,-0.00022,-0.007332,-0.00353,0.006808,0.012786,0.0006,0.004572
1609059031468872786,175,1609059031468872786,0.010429,-0.003527,0.000992,0.998998,-9e-05,0.044735,-0.000404,-0.002789,-0.002909,0.000793,0.015121,0.00088,0.003025
1609059031573636293,176,1609059031573636293,0.01,-0.00486,0.00058,0.998997,-4.1e-05,0.044771,-0.000482,-0.006519,-0.005317,2.4e-05,0.016809,0.002697,0.002752
1609059031675127029,177,1609059031675127029,0.01084,-0.006723,0.003628,0.99898,-1.4e-05,0.045138,-0.000261,-0.005389,-0.007813,0.006949,0.019342,0.001756,0.00156
1609059031779003382,178,1609059031779003382,0.009175,-0.006345,0.001618,0.998984,0.0,0.045063,-0.000218,-0.010567,-0.004157,0.000512,0.023713,0.001996,0.000156
1609059031881477833,179,1609059031881477833,0.008903,-0.002762,0.001649,0.998991,-5.9e-05,0.044898,-0.000273,-0.010786,0.004467,-0.000257,0.025182,0.00177,-0.001316
1609059031984583378,180,1609059031984583378,0.008267,-0.001222,0.00232,0.998999,1e-05,0.044725,-0.000359,-0.012115,0.006036,0.001313,0.024517,-0.001069,-0.001151
1609059032089373827,181,1609059032089373827,0.008532,0.004288,0.001377,0.999003,-7.3e-05,0.044637,-0.0004,-0.011001,0.017286,-0.000187,0.026054,0.003498,-0.002424
1609059032190745115,182,1609059032190745115,0.006587,0.006111,0.000555,0.999004,-0.000155,0.044612,-0.000201,-0.014594,0.019004,-0.001731,0.025498,0.003305,-0.003092
1609059032295058012,183,1609059032295058012,0.006046,-6.6e-05,0.006454,0.999006,-0.000189,0.044564,0.00015,-0.011961,0.005794,0.008116,0.023855,0.001286,-0.003744
1609059032397250414,184,1609059032397250414,0.006426,-0.000319,0.00496,0.999006,-8.7e-05,0.044556,0.000231,-0.009449,0.006383,0.003179,0.023881,0.000518,-0.005789
1609059032467259407,185,1609059032467259407,0.007246,-0.003025,0.006809,0.999002,-0.000102,0.044644,0.000224,-0.007181,-0.004547,0.00673,-0.001092,0.002953,0.007708
1609059032568936825,186,1609059032568936825,0.008818,-0.003758,0.000338,0.998995,-5.6e-05,0.044803,-0.000306,-0.006222,-0.006997,-0.006805,0.015135,0.002857,0.004972
1609059032672092676,187,1609059032672092676,0.008413,-0.002769,0.000838,0.998994,-3.8e-05,0.044825,-0.000425,-0.007722,-0.002955,-0.003538,0.015587,0.001729,0.002244
1609059032775384665,188,1609059032775384665,0.008465,-0.00117,0.000669,0.998989,-2.4e-05,0.044948,-0.000373,-0.00798,0.00229,-0.003961,0.019365,0.001746,0.000908
1609059032879106998,189,1609059032879106998,0.009458,0.000238,-0.001131,0.998991,-0.000254,0.044887,-0.000299,-0.004734,0.005636,-0.008403,0.024422,0.000584,-0.001433
1609059032981785774,190,1609059032981785774,0.010758,-0.001249,-0.002072,0.998985,-2.9e-05,0.045034,-0.000349,-0.004137,0.001688,-0.007452,0.024519,0.004654,-0.002067
1609059033084571838,191,1609059033084571838,0.009043,-0.002388,-0.00319,0.99899,3.9e-05,0.044927,-0.000305,-0.010568,-0.00068,-0.009692,0.02538,0.003407,-0.002516
1609059033187373400,192,1609059033187373400,0.009302,-0.005999,-0.003259,0.998986,-4.8e-05,0.04502,-0.000166,-0.009817,-0.007954,-0.006773,0.026025,0.004242,-0.002374
1609059033290332317,193,1609059033290332317,0.007863,-0.007989,-0.003478,0.998989,-3.5e-05,0.044947,-5.5e-05,-0.012476,-0.009674,-0.005014,0.024727,0.002836,-0.00444
1609059033393647909,194,1609059033393647909,0.007682,-0.005619,-0.002596,0.998985,5e-06,0.045026,-3.7e-05,-0.012656,-0.001748,-0.002061,0.021923,6.9e-05,-0.004264
1609059033496685743,195,1609059033496685743,0.007714,-0.006226,-0.001976,0.998994,0.000131,0.044836,-0.00033,-0.012375,-0.001077,0.002223,0.023613,0.004979,-0.005408
1609059033566900969,196,1609059033566900969,0.008204,-0.006977,0.000344,0.998986,2e-05,0.045,-0.000133,-0.010716,-0.005226,0.007966,0.01194,0.002572,0.005443
1609059033668631315,197,1609059033668631315,0.00936,-0.006274,-0.000188,0.998987,-7.6e-05,0.044984,-0.000228,-0.006696,-0.002666,0.004475,0.013467,0.002037,0.004429
1609059033771908998,198,1609059033771908998,0.00966,-0.003915,-0.00157,0.998989,-0.000199,0.044933,-0.000171,-0.006011,0.003979,0.000644,0.019583,0.003376,0.001837
1609059033875321150,199,1609059033875321150,0.009154,-0.002162,-0.002964,0.998991,-0.000223,0.044909,-0.000152,-0.008043,0.007398,-0.002081,0.020667,2e-06,0.000519
1609059033978591442,200,1609059033978591442,0.009691,-0.002764,-0.00218,0.998994,-0.000114,0.044834,-0.000478,-0.007413,0.003509,0.001441,0.024416,0.003965,-0.000464
1609059034081394911,201,1609059034081394911,0.009473,-0.000603,-0.00267,0.998986,-0.000106,0.044997,-0.000424,-0.009079,0.006988,0.001012,0.024393,0.002569,-0.000309
1609059034184546232,202,1609059034184546232,0.009492,-0.001775,-0.002374,0.998984,-9.3e-05,0.04505,-9.2e-05,-0.009201,0.004463,0.00105,0.024405,0.003526,-0.00247
1609059034287946463,203,1609059034287946463,0.008966,-0.000863,-0.00295,0.998984,3.9e-05,0.045059,-0.000238,-0.010434,0.005837,0.000152,0.024795,0.00088,-0.003609
1609059034390798807,204,1609059034390798807,0.009822,0.00071,-0.001724,0.998991,-0.000106,0.044891,-0.000369,-0.007712,0.008522,0.004737,0.025686,0.002625,-0.006046
1609059034493906498,205,1609059034493906498,0.009695,0.000905,-0.00225,0.998993,-2.4e-05,0.044847,-0.000592,-0.0092,0.006985,0.003311,0.025273,0.002208,-0.004837
1609059034597388029,206,1609059034597388029,0.009165,0.000225,-0.002709,0.998992,8.7e-05,0.044871,-0.000406,-0.011223,0.004647,0.002028,0.022019,0.006643,-0.00408
1609059034668192387,207,1609059034668192387,0.008604,-0.002209,8e-05,0.998991,3.8e-05,0.044902,-8.7e-05,-0.010842,-0.003035,0.007876,0.015296,0.00257,0.004229
1609059034768651247,208,1609059034768651247,0.008813,-0.003914,-0.000491,0.998994,-0.000142,0.04484,-0.000145,-0.008241,-0.006937,0.003849,0.011188,-0.001487,0.004621
1609059034871648788,209,1609059034871648788,0.009006,-0.005796,-0.001042,0.998989,-6.8e-05,0.044936,-0.000381,-0.008029,-0.009797,0.001804,0.015543,-7e-06,0.003285
1609059034974968672,210,1609059034974968672,0.008291,-0.003132,0.001097,0.998995,-0.000149,0.044821,-0.00011,-0.010226,-0.001025,0.006735,0.018822,0.002986,0.001799
1609059035078006029,211,1609059035078006029,0.009097,-0.001237,0.000592,0.998991,-9.1e-05,0.044902,-0.000101,-0.008027,0.00481,0.006274,0.019546,0.003233,0.000821
1609059035181508541,212,1609059035181508541,0.010041,-0.004632,-0.000572,0.998985,-6.7e-05,0.045041,-0.000229,-0.005633,-0.003077,0.002364,0.023138,0.004619,0.00051
1609059035284885645,213,1609059035284885645,0.009851,-0.00424,-0.000765,0.99898,-1.2e-05,0.045139,-0.000223,-0.00673,0.00039,-0.000113,0.026011,0.000394,-0.003261
1609059035387870073,214,1609059035387870073,0.009081,-0.003474,-0.001586,0.998984,-3.3e-05,0.045065,-0.000229,-0.009947,0.003174,-0.001705,0.026641,0.002295,-0.004303
1609059035490463734,215,1609059035490463734,0.009167,-0.001843,-0.002588,0.998995,-6e-05,0.044811,-0.000234,-0.008891,0.006568,-0.00171,0.025591,0.00339,-0.003008
1609059035593838453,216,1609059035593838453,0.010429,-0.001678,-0.000256,0.998986,-5.7e-05,0.045003,-0.000313,-0.007254,0.005772,0.004067,0.023661,0.004757,-0.005273
1609059035697205782,217,1609059035697205782,0.010706,-0.002417,-0.000456,0.998979,2.7e-05,0.045153,-0.000493,-0.008501,0.003825,0.004651,0.021748,0.006773,-0.006062
1609059035767210960,218,1609059035767210960,0.00983,-0.001831,-0.002048,0.998981,-5.9e-05,0.045124,-0.000499,-0.010484,0.001543,0.000464,0.013493,0.001573,0.005173
1609059035869139671,219,1609059035869139671,0.009129,0.001278,-0.003269,0.99898,-0.000158,0.045148,-0.000257,-0.011387,0.007303,-0.003081,0.013849,-0.000944,0.003916
1609059035972873211,220,1609059035972873211,0.007625,-0.000447,-0.002269,0.998983,-0.0001,0.045086,-6.8e-05,-0.015494,0.001256,0.001022,0.017078,0.000194,0.001992
1609059036075500011,221,1609059036075500011,0.00739,-0.002021,-0.002395,0.998982,-0.00015,0.045103,-3.4e-05,-0.016443,-0.002951,0.0031,0.020044,0.004229,0.002573
1609059036178774118,222,1609059036178774118,0.008372,0.001012,-0.00223,0.998981,-6.3e-05,0.045132,-5e-05,-0.012683,0.005374,0.003573,0.022591,0.002624,0.000482
1609059036281961918,223,1609059036281961918,0.00919,-0.000923,-0.00049,0.998977,-6.6e-05,0.045217,-0.000291,-0.010782,0.000605,0.008822,0.022308,0.001591,-0.000868
1609059036384078264,224,1609059036384078264,0.008864,9.5e-05,-0.000946,0.998974,-8.3e-05,0.045268,-0.00027,-0.01173,0.003222,0.005016,0.02663,0.001713,-0.001756
1609059036488783598,225,1609059036488783598,0.008224,0.000302,0.000948,0.998982,-0.00016,0.045098,-0.000332,-0.013498,0.004429,0.008381,0.024057,0.003801,-0.003102
1609059036591870546,226,1609059036591870546,0.007807,-0.001615,-0.000129,0.998979,-0.000183,0.045154,-0.000204,-0.014364,0.000555,0.004519,0.024344,0.003703,-0.005193
1609059036694231033,227,1609059036694231033,0.00745,-0.002338,-0.000393,0.998979,-2.2e-05,0.045175,-0.000181,-0.014447,-0.000557,0.002118,0.022514,0.00405,-0.004703
1609059036796529055,228,1609059036796529055,0.009393,-0.001839,-0.000514,0.998977,-0.000156,0.045202,-8.3e-05,-0.00818,0.002513,0.000953,0.019794,0.00583,-0.005401
1609059036867114305,229,1609059036867114305,0.008302,-0.00431,-0.0023,0.998976,-7.3e-05,0.045229,-8e-06,-0.010659,-0.005366,-0.003777,0.013672,-7.7e-05,0.003866
1609059036968831539,230,1609059036968831539,0.00817,-0.002941,-0.003419,0.998985,-0.000126,0.045027,4e-05,-0.00991,-0.001103,-0.006433,0.012725,-0.000277,0.003907
1609059037072415829,231,1609059037072415829,0.00753,-0.002565,-0.003254,0.998992,-7.9e-05,0.044866,-0.000272,-0.011364,0.001328,-0.00316,0.015518,0.003579,0.005125
1609059037174883366,232,1609059037174883366,0.00801,-0.001843,-0.002191,0.999002,-0.000222,0.044649,-0.000109,-0.008087,0.002986,-0.000407,0.018248,0.003028,0.00176
1609059037278379917,233,1609059037278379917,0.007203,-0.001154,0.00329,0.999003,-0.000141,0.044637,0.000298,-0.006652,0.006297,0.011444,0.020829,0.002874,-0.000676
1609059037383863688,234,1609059037383863688,0.007999,-0.00237,0.005751,0.998999,-0.000164,0.044722,0.00058,-0.005342,0.006669,0.014798,0.023495,0.000429,-0.002891
1609059037484624147,235,1609059037484624147,0.006147,-0.003811,0.007626,0.99901,-9.3e-05,0.044484,0.00021,-0.009179,0.001548,0.014525,0.024259,0.001619,-0.002782
1609059037587566853,236,1609059037587566853,0.005933,-0.005705,0.010465,0.999005,-0.000167,0.044585,8.3e-05,-0.010334,-0.001962,0.016688,0.02511,0.002286,-0.002764
1609059037691877365,237,1609059037691877365,0.007608,-0.00627,0.010002,0.999001,-6.9e-05,0.044681,-5.4e-05,-0.006814,-0.000209,0.012031,0.023725,0.005633,-0.004743
1609059037793764114,238,1609059037793764114,0.006007,-0.002175,0.011403,0.998998,-0.000104,0.04474,8e-06,-0.010244,0.008271,0.009728,0.024757,0.002703,-0.004128
1609059037897848606,239,1609059037897848606,0.005437,0.000129,0.010377,0.999005,-0.000103,0.044586,-1e-06,-0.009685,0.012209,0.003471,0.021306,0.000957,-0.004961
1609059037967562914,240,1609059037967562914,0.005787,-0.002765,0.009115,0.998998,-6.3e-05,0.044748,7.6e-05,-0.008925,0.002326,0.000448,0.013362,0.000311,0.004285
1609059038069661379,241,1609059038069661379,0.006372,-0.000228,0.00616,0.999006,-0.000123,0.044557,1.3e-05,-0.007595,0.006777,-0.004146,0.011069,0.000617,0.004462
1609059038173689127,242,1609059038173689127,0.006545,-0.000331,0.006233,0.999,-0.000122,0.044707,-0.000312,-0.007729,0.003879,-0.004591,0.018714,0.004118,0.001879
1609059038275166035,243,1609059038275166035,0.00631,-0.001746,0.00482,0.998992,-0.00015,0.044874,-0.000349,-0.008289,0.000271,-0.007834,0.01914,0.006396,0.001915
1609059038378317356,244,1609059038378317356,0.007669,-0.002556,0.003502,0.999,-0.000138,0.044697,-0.000478,-0.003458,-0.001628,-0.009576,0.020479,0.00058,0.000556
1609059038482088566,245,1609059038482088566,0.008838,-0.005082,0.003645,0.998995,-7.8e-05,0.044818,-0.000304,-0.001867,-0.005338,-0.007063,0.023745,0.002763,-0.000814
1609059038584953547,246,1609059038584953547,0.009702,-0.001496,0.004117,0.998994,-6e-05,0.04484,-0.000447,-0.001635,0.00366,-0.006823,0.023032,0.004225,-0.004186
1609059038687957525,247,1609059038687957525,0.008447,-0.000651,0.004307,0.998992,-0.0001,0.044865,-0.000465,-0.005923,0.004623,-0.006536,0.024476,0.003418,-0.002496
1609059038790471792,248,1609059038790471792,0.007853,-0.000631,0.002432,0.99899,-0.000155,0.044927,-0.000347,-0.007271,0.003692,-0.009547,0.026584,0.003436,-0.003376
1609059038894347906,249,1609059038894347906,0.006926,-0.001275,0.003068,0.99899,-4e-05,0.044926,-0.000329,-0.009516,0.001856,-0.007956,0.023456,0.003004,-0.006548
1609059038996345282,250,1609059038996345282,0.007406,-0.000482,0.002867,0.99899,-1.2e-05,0.044928,-0.000519,-0.00819,0.002801,-0.008033,0.021875,0.001433,-0.00689
1609059039066996574,251,1609059039066996574,0.008711,0.000289,0.00265,0.998989,-9.8e-05,0.044945,-0.000417,-0.004434,-0.000252,-0.007071,0.013437,0.001375,0.005939
1609059039168853045,252,1609059039168853045,0.009777,-0.001021,0.003605,0.998988,-0.000167,0.044959,-9.8e-05,-0.001964,-0.002859,-0.00437,0.011787,0.001199,0.004846
1609059039272571325,253,1609059039272571325,0.009277,-0.001041,0.004888,0.998982,-0.00016,0.045108,-9.7e-05,-0.004628,-0.001628,-0.001895,0.017453,-0.000361,0.002954
1609059039376215935,254,1609059039376215935,0.008532,0.000486,0.00442,0.998992,-0.000166,0.044881,-0.000344,-0.007252,0.00134,-0.002204,0.018432,0.003493,0.001342
1609059039480799198,255,1609059039480799198,0.008142,-0.002355,0.002868,0.998984,-0.000122,0.045043,-5.4e-05,-0.008621,-0.00333,-0.00686,0.022534,0.000639,-0.001945
1609059039567144871,256,1609059039567144871,0.00868,-0.003353,-0.001122,0.998986,-0.000103,0.045009,-0.000377,-0.008122,-0.006371,-0.013681,0.013606,0.002894,0.005167
1609059039668750525,257,1609059039668750525,0.008172,-0.004996,-0.001333,0.998988,-0.000243,0.044971,-0.000141,-0.009056,-0.008317,-0.012308,0.012222,0.003205,0.005298
1609059039771687508,258,1609059039771687508,0.007831,-0.00444,0.000364,0.998996,-0.000116,0.044791,-0.00028,-0.008554,-0.005596,-0.006116,0.016357,0.002337,0.003262
1609059039875123739,259,1609059039875123739,0.00735,-0.003834,0.001103,0.998984,-9e-05,0.045048,5.2e-05,-0.008693,-0.001297,-0.004115,0.020257,0.001992,0.001395
1609059039978095055,260,1609059039978095055,0.005358,0.000783,0.000825,0.998999,-0.0001,0.044715,3.1e-05,-0.012393,0.008928,-0.004933,0.022494,-0.000176,-0.00124
1609059040085588217,261,1609059040085588217,0.006259,0.00209,0.002381,0.998995,-8.4e-05,0.044813,-0.000198,-0.009739,0.012167,0.000187,0.024018,0.002401,-0.003258
1609059040189886570,262,1609059040189886570,0.006437,0.004196,0.002953,0.998991,-5.2e-05,0.04491,-0.0002,-0.008376,0.013963,-0.000607,0.02475,0.004547,-0.004094
1609059040291685343,263,1609059040291685343,0.006089,0.003028,0.005968,0.99898,-1.7e-05,0.045136,-0.000201,-0.009499,0.009535,0.00492,0.023972,0.002961,-0.004912
1609059040394795895,264,1609059040394795895,0.006884,0.004492,0.007283,0.998986,-6.3e-05,0.045003,-0.000283,-0.005818,0.010609,0.00562,0.021418,0.002724,-0.004486
1609059040466839075,265,1609059040466839075,0.007844,0.001162,0.006567,0.99899,-0.000159,0.044916,5.4e-05,-0.002704,-0.000677,0.003263,0.01309,0.001644,0.003115
1609059040567986488,266,1609059040567986488,0.007917,0.000511,0.00465,0.998997,-0.000138,0.044767,5e-05,-0.004173,-0.002783,-0.001446,0.011794,0.000898,0.00543
1609059040671050549,267,1609059040671050549,0.008262,0.003384,0.002539,0.998992,-0.00016,0.044881,-2e-05,-0.004238,0.003638,-0.007234,0.013969,0.003664,0.003636
1609059040773321629,268,1609059040773321629,0.008387,0.002414,0.003698,0.998988,-0.00015,0.044971,7e-06,-0.004669,0.000562,-0.004294,0.017205,0.005016,0.002664
1609059040877532005,269,1609059040877532005,0.007579,-0.000184,0.00437,0.998985,-0.000147,0.045041,-8e-05,-0.006899,-0.004209,-0.002629,0.019923,-0.002261,-0.000645
1609059040980399132,270,1609059040980399132,0.007136,-0.002769,0.005434,0.998993,-6.5e-05,0.044857,-8.8e-05,-0.009064,-0.008184,0.001734,0.023697,0.001341,-0.002303
1609059041083065033,271,1609059041083065033,0.007339,-0.005574,0.006031,0.998987,-9.7e-05,0.044977,-0.000298,-0.009072,-0.011811,0.003071,0.022076,0.003391,-0.001381
1609059041186012506,272,1609059041186012506,0.005805,-0.000876,0.008803,0.999005,-1.2e-05,0.044592,-0.000676,-0.01246,0.000828,0.008574,0.023204,0.005204,-0.002601
1609059041289031029,273,1609059041289031029,0.005394,0.001072,0.006975,0.999002,-2.1e-05,0.044635,-0.000984,-0.011289,0.003645,0.000208,0.023478,0.001294,-0.003643
1609059041392050266,274,1609059041392050266,0.005966,0.000771,0.008396,0.999004,-7.2e-05,0.044614,-0.000722,-0.007612,0.00222,0.001734,0.024231,0.001011,-0.004361
1609059041495124340,275,1609059041495124340,0.005541,0.000248,0.009416,0.999002,-2.8e-05,0.044658,-0.000562,-0.008526,0.001711,0.003222,0.021691,0.002843,-0.005717
1609059041566852570,276,1609059041566852570,0.007875,-0.002422,0.008685,0.998996,-0.000133,0.044796,-0.000461,0.000395,-0.011015,-0.003135,0.012218,0.001817,0.005107
1609059041666974545,277,1609059041666974545,0.009807,-0.001302,0.006187,0.998996,-0.000125,0.044795,-0.00047,0.003117,-0.006006,-0.009342,0.011287,0.00273,0.006405
1609059041770575047,278,1609059041770575047,0.008344,-0.001914,0.005647,0.998989,-0.000133,0.044942,-0.000152,-0.003338,-0.00587,-0.009795,0.016518,0.004253,0.003839
1609059041873438597,279,1609059041873438597,0.008551,-0.00237,0.005267,0.998993,-0.000148,0.044849,-0.00029,-0.003064,-0.004807,-0.010359,0.017354,6.6e-05,0.001746
1609059041976293087,280,1609059041976293087,0.007383,-0.002002,0.004891,0.998993,-0.000141,0.044852,-0.00024,-0.006868,-0.002957,-0.01005,0.019176,0.001643,-6.9e-05
1609059042079243898,281,1609059042079243898,0.008418,-0.00086,0.005685,0.999005,-8.1e-05,0.044588,-0.000424,-0.004435,6.7e-05,-0.005672,0.022012,0.002954,-0.000755
1609059042182323933,282,1609059042182323933,0.008089,-0.000952,0.006326,0.999017,-0.000181,0.044306,-0.000379,-0.005316,0.000374,-0.003144,0.025813,0.004754,-0.001453
1609059042285309076,283,1609059042285309076,0.007078,-0.00335,0.009425,0.99901,-0.00024,0.044484,-0.000158,-0.006169,-0.004472,0.001192,0.022729,0.000104,-0.002559
1609059042389225721,284,1609059042389225721,0.006858,-0.000152,0.009004,0.99902,-0.000217,0.044252,-0.000218,-0.004915,0.002896,-0.000121,0.025698,0.002008,-0.004654
1609059042492012739,285,1609059042492012739,0.00568,0.000722,0.010289,0.999022,-6.3e-05,0.044214,-0.000221,-0.007519,0.004458,0.000848,0.023519,0.001937,-0.00327
1609059042594581366,286,1609059042594581366,0.003804,0.002411,0.009494,0.999021,-4.3e-05,0.044234,-6e-06,-0.011234,0.00752,-0.000656,0.022425,0.003154,-0.005041
1609059042666645527,287,1609059042666645527,0.005999,-0.001079,0.008709,0.999006,-0.00015,0.044569,0.00019,-0.005202,-0.002176,-0.003313,0.009688,0.002837,0.004778
1609059042768176794,288,1609059042768176794,0.006164,-0.005059,0.007311,0.998994,-0.000177,0.044837,0.000223,-0.00614,-0.009379,-0.005165,0.012124,0.002405,0.005493
1609059042870127916,289,1609059042870127916,0.006938,-0.006305,0.004767,0.998987,-0.000146,0.044998,-6.6e-05,-0.004558,-0.010207,-0.009244,0.015198,0.002395,0.004157
1609059042973109007,290,1609059042973109007,0.007028,-0.006906,0.004054,0.998984,-0.000102,0.045052,0.000111,-0.004447,-0.007724,-0.009715,0.019178,0.002218,0.002442
1609059043076388836,291,1609059043076388836,0.007964,-0.004872,0.00595,0.998993,-0.000103,0.044849,-0.000414,-0.002665,-0.002761,-0.004097,0.020951,0.001223,0.000448
1609059043181415081,292,1609059043181415081,0.007465,-0.002747,0.004972,0.998992,-6.8e-05,0.044876,-0.000343,-0.006163,0.002234,-0.004414,0.022526,0.004042,-0.002567
1609059043282460928,293,1609059043282460928,0.005905,-0.002168,0.004569,0.998993,-0.000107,0.04486,-9.5e-05,-0.009542,0.003743,-0.004671,0.022718,0.003833,-0.003046
1609059043385930061,294,1609059043385930061,0.006941,-4.4e-05,0.003975,0.998991,-0.000149,0.044891,-0.000247,-0.005913,0.007532,-0.005902,0.023646,0.002767,-0.003359
1609059043488548040,295,1609059043488548040,0.006846,-0.000686,0.004821,0.99899,-0.000121,0.044926,-0.000277,-0.006631,0.004234,-0.002983,0.02282,0.002915,-0.003434
1609059043591886044,296,1609059043591886044,0.007026,-0.000537,0.005298,0.998995,-6.5e-05,0.044805,-0.000293,-0.006295,0.003578,-0.001395,0.02338,0.002056,-0.005788
1609059043695200205,297,1609059043695200205,0.007765,0.000467,0.004989,0.998993,-2.3e-05,0.044843,-0.000484,-0.005141,0.004101,-0.003069,0.022039,0.004108,-0.003914
1609059043766734600,298,1609059043766734600,0.008317,-0.000892,0.003816,0.998991,-0.000128,0.044888,-0.00037,-0.003345,-0.002657,-0.006338,0.013402,0.00344,0.004933
1609059043867028475,299,1609059043867028475,0.008177,-0.000582,0.003617,0.998993,-9.1e-05,0.044851,-0.000144,-0.003707,-0.000937,-0.005507,0.010027,0.000161,0.004487
1609059043971364260,300,1609059043971364260,0.007781,-0.0006,0.005752,0.998991,-0.000126,0.044889,-5.1e-05,-0.004433,-0.001802,-6.7e-05,0.01469,0.000702,0.003861
1609059044073214054,301,1609059044073214054,0.007144,0.000895,0.006821,0.998999,-0.000153,0.044726,-0.000176,-0.007176,0.001508,0.002351,0.017557,0.001598,0.003229
1609059044176630497,302,1609059044176630497,0.007381,0.000104,0.007289,0.999008,-0.000135,0.044519,-0.000317,-0.006104,0.000661,0.00197,0.021346,0.002569,0.000894
1609059044281150818,303,1609059044281150818,0.008009,-0.001215,0.006693,0.998997,-0.000158,0.044765,3e-05,-0.00493,-0.00151,-7.4e-05,0.02226,0.001742,0.00023
1609059044383008003,304,1609059044383008003,0.008017,0.001902,0.004828,0.999006,-0.000187,0.044568,-0.000265,-0.00423,0.004492,-0.004602,0.024037,0.001072,-0.001868
1609059044485633135,305,1609059044485633135,0.007784,0.002184,0.004271,0.998998,-7.2e-05,0.044749,-0.000127,-0.005729,0.004584,-0.005763,0.023535,0.003653,-0.001847
1609059044588596106,306,1609059044588596106,0.006112,1.2e-05,0.003578,0.999002,-0.000173,0.044658,-0.000531,-0.010455,-0.001514,-0.00619,0.024395,0.002554,-0.003775
1609059044691612482,307,1609059044691612482,0.00628,0.001394,0.003897,0.998998,-0.0001,0.044733,-0.000367,-0.009707,0.001193,-0.004332,0.023238,0.004642,-0.005917
1609059044794835329,308,1609059044794835329,0.006172,-0.000531,0.00598,0.998997,-4.2e-05,0.044758,-0.00066,-0.008998,-0.00322,-0.001093,0.024657,0.002309,-0.005216
1609059044866739273,309,1609059044866739273,0.007231,-0.001829,0.006148,0.998999,-0.000102,0.04472,-0.000303,-0.004146,-0.00812,-0.000274,0.010336,-0.000698,0.004776
1609059044966937304,310,1609059044966937304,0.00589,-0.002795,0.006407,0.999008,-0.000135,0.044516,-0.000436,-0.007331,-0.010097,0.000465,0.007969,-0.002073,0.005093
1609059045070520163,311,1609059045070520163,0.007107,-0.002445,0.006448,0.999008,-0.000102,0.04451,-0.000352,-0.003788,-0.007519,-0.001193,0.014628,0.001691,0.002061
1609059045173593521,312,1609059045173593521,0.007645,-0.003363,0.00483,0.999007,-0.000192,0.044541,-0.000185,-0.002723,-0.008054,-0.004225,0.017281,0.002912,0.003907
1609059045276827335,313,1609059045276827335,0.007145,-0.003502,0.005642,0.999008,-0.000168,0.044519,-0.000387,-0.00386,-0.007018,-0.002573,0.020109,0.004849,0.001751
1609059045379862547,314,1609059045379862547,0.00591,-0.002561,0.004907,0.999005,-6.7e-05,0.044591,-0.000556,-0.007078,-0.003858,-0.00478,0.022449,0.00195,-0.001459
1609059045482702971,315,1609059045482702971,0.006794,0.00025,0.005093,0.999009,-4.9e-05,0.0445,-0.000563,-0.004206,0.002386,-0.004015,0.024487,0.002239,-0.000553
1609059045585567951,316,1609059045585567951,0.007699,0.000504,0.007057,0.999001,-5.8e-05,0.044679,-0.000678,-0.002833,0.001945,0.001054,0.024736,0.003922,-0.003533
1609059045688874722,317,1609059045688874722,0.007658,-0.000812,0.007086,0.998995,-8e-05,0.044809,-0.000626,-0.004563,-0.002025,0.000434,0.02515,0.00476,-0.002885
1609059045792053938,318,1609059045792053938,0.007905,-0.00012,0.009022,0.998989,-1.3e-05,0.044947,-0.000367,-0.005349,0.000779,0.004335,0.021656,0.001171,-0.004674
1609059045896445513,319,1609059045896445513,0.006567,0.001892,0.007518,0.998998,-0.000163,0.044748,-0.000401,-0.0091,0.005995,-0.000748,0.021765,0.004325,-0.005063
1609059045968484879,320,1609059045968484879,0.007074,0.001185,0.008369,0.999006,-0.000188,0.044569,-0.000291,-0.006327,0.000145,-0.00073,0.006786,0.00076,0.004997
1609059046069432974,321,1609059046069432974,0.007418,0.003297,0.005375,0.999,-0.000201,0.044705,-0.000387,-0.00671,0.003779,-0.007419,0.016424,-0.00139,0.003957
1609059046171445370,322,1609059046171445370,0.007311,0.000416,0.006051,0.999008,-0.000135,0.044528,-0.000387,-0.005873,-0.002737,-0.006055,0.016965,0.003118,0.002884
1609059046274494171,323,1609059046274494171,0.00579,0.0014,0.006158,0.999009,-0.000146,0.044504,-0.0005,-0.00945,-0.001776,-0.004882,0.016488,0.000729,0.002909
1609059046375938654,324,1609059046375938654,0.005569,0.000309,0.007198,0.999012,-0.000136,0.044436,-0.000493,-0.008427,-0.004388,-0.001268,0.018083,0.00132,0.002556
1609059046480397224,325,1609059046480397224,0.00548,0.000689,0.006583,0.999007,-5e-05,0.044536,-0.000513,-0.008764,-0.001608,-0.001187,0.02255,0.002515,-0.001391
1609059046584461451,326,1609059046584461451,0.006711,7.3e-05,0.007624,0.999,-5.6e-05,0.0447,-0.000538,-0.005075,-0.003333,0.000759,0.02592,0.005705,-0.001714
1609059046686884880,327,1609059046686884880,0.006059,0.000417,0.005947,0.998989,-0.000191,0.044948,-0.000306,-0.006891,-0.001226,-0.004312,0.025205,0.005443,-0.00433
1609059046790023804,328,1609059046790023804,0.005348,0.000545,0.005423,0.998996,-9.1e-05,0.04478,-0.000529,-0.009191,-0.00026,-0.00552,0.024717,0.003392,-0.004921
1609059046892498493,329,1609059046892498493,0.00586,0.001369,0.006598,0.998999,-0.000113,0.04472,-0.000435,-0.00642,0.001341,-0.002859,0.023382,0.000472,-0.005002
1609059046995127916,330,1609059046995127916,0.004123,3.6e-05,0.005788,0.999007,1e-06,0.044534,-0.000608,-0.012007,-0.001554,-0.004059,0.021717,0.00239,-0.005505
1609059047067004681,331,1609059047067004681,0.005316,0.000287,0.005435,0.999004,-2.1e-05,0.044597,-0.000475,-0.0081,-0.004294,-0.003889,0.015521,0.003007,0.004487
1609059047167858839,332,1609059047167858839,0.005145,-0.001788,0.007194,0.999009,-0.000233,0.044491,0.000181,-0.006344,-0.006203,0.001417,0.013491,0.002307,0.006379
1609059047271019220,333,1609059047271019220,0.00716,-0.00197,0.007082,0.998996,-0.000191,0.044793,-0.000383,-0.001184,-0.006835,0.00134,0.018288,0.0023,0.002279
1609059047374055386,334,1609059047374055386,0.008238,-0.001482,0.007438,0.998994,-0.000226,0.044837,-0.000273,0.000905,-0.005587,0.000314,0.014761,-0.00099,0.00297
1609059047477234364,335,1609059047477234364,0.006378,-0.001879,0.006325,0.999004,-0.000178,0.0446,-0.000279,-0.006294,-0.006959,-0.001803,0.021097,0.000449,0.00034
1609059047580589533,336,1609059047580589533,0.006248,-0.001475,0.004706,0.999009,-0.000114,0.04449,-0.000204,-0.007025,-0.002742,-0.00372,0.022058,0.002632,-0.000364
1609059047683607340,337,1609059047683607340,0.005239,-0.004325,0.003325,0.999002,-0.000112,0.044661,-0.000208,-0.009205,-0.008551,-0.006927,0.022543,0.001585,-0.001542
1609059047786373615,338,1609059047786373615,0.006269,-0.00268,0.003771,0.999001,-0.000164,0.044665,-0.000277,-0.005175,-0.003547,-0.005395,0.024609,-0.000725,-0.002238
1609059047889617682,339,1609059047889617682,0.006051,-0.003107,0.005184,0.999004,-2.2e-05,0.044601,-0.000527,-0.006142,-0.003263,-0.001122,0.026078,0.001697,-0.004868
1609059047992578030,340,1609059047992578030,0.006139,-0.00175,0.005833,0.999002,5e-06,0.044647,-0.000551,-0.006607,-0.000643,0.00044,0.022553,0.003354,-0.005168
1609059048096188307,341,1609059048096188307,0.005786,-0.002487,0.00634,0.998996,4.7e-05,0.044778,-0.000499,-0.008148,-0.001747,0.001945,0.02012,0.005679,-0.005017
1609059048167322397,342,1609059048167322397,0.006028,-0.003358,0.005461,0.998991,-0.000196,0.044901,-0.000238,-0.006692,-0.006884,-0.000852,0.009759,0.000361,0.004566
1609059048267796755,343,1609059048267796755,0.006668,-0.00242,0.006699,0.998994,-0.00016,0.044828,-0.0003,-0.003569,-0.004776,0.001547,0.010177,0.001468,0.005599
1609059048370614290,344,1609059048370614290,0.006195,-0.003756,0.006329,0.999007,-0.000112,0.04453,-0.000308,-0.004973,-0.007105,0.000392,0.015538,0.00098,0.00235
1609059048473930597,345,1609059048473930597,0.006401,-0.005781,0.00695,0.999001,-0.000136,0.044672,-0.000156,-0.005576,-0.008783,0.002161,0.018815,0.004681,0.000996
1609059048577192068,346,1609059048577192068,0.005738,-0.007143,0.005933,0.998999,-0.000156,0.044714,-0.000142,-0.007827,-0.009491,-0.000246,0.020761,0.004302,0.001675
1609059048680349827,347,1609059048680349827,0.006424,-0.005154,0.005838,0.998989,-7.3e-05,0.044936,-1.4e-05,-0.005634,-0.002734,-0.001242,0.020942,0.002052,-4.5e-05
1609059048783399820,348,1609059048783399820,0.006473,-0.000977,0.006114,0.998999,-0.000161,0.044726,-0.000263,-0.004989,0.006258,-0.000831,0.023525,0.001975,-0.002895
1609059048886304617,349,1609059048886304617,0.006739,-0.001224,0.00547,0.998999,-8.1e-05,0.044708,-0.000483,-0.004718,0.003776,-0.00384,0.023055,6.5e-05,-0.002119
1609059048989261866,350,1609059048989261866,0.005067,0.001362,0.003942,0.998995,-7.3e-05,0.044806,-0.000537,-0.01044,0.007519,-0.006497,0.025684,0.003615,-0.00343
1609059049092590094,351,1609059049092590094,0.00466,0.00158,0.004657,0.999008,-0.000103,0.044519,-0.000512,-0.009518,0.005983,-0.003978,0.021721,0.003302,-0.004387
1609059049196131706,352,1609059049196131706,0.005842,0.000536,0.00444,0.999003,-0.000123,0.044634,-0.000571,-0.005375,0.001431,-0.004714,0.022437,0.003712,-0.005854
1609059049267572165,353,1609059049267572165,0.007214,-0.002468,0.00478,0.998999,-0.000179,0.044711,-0.000408,-0.001193,-0.008706,-0.004712,0.009885,0.000572,0.004356
1609059049367838383,354,1609059049367838383,0.008519,-0.003448,0.004297,0.999004,-9.6e-05,0.0446,-0.0005,0.001232,-0.009375,-0.003205,0.012207,0.000637,0.003723
1609059049470913410,355,1609059049470913410,0.008858,-0.000688,0.004147,0.999004,-0.000145,0.044612,-0.000643,0.000454,-0.00186,-0.003918,0.01764,0.002049,0.00205
1609059049574147940,356,1609059049574147940,0.00913,-0.001773,0.004925,0.999006,-0.000202,0.04456,-0.0007,-0.000991,-0.00445,-0.001889,0.019172,0.002804,0.00219
1609059049677437067,357,1609059049677437067,0.0071,0.000336,0.004203,0.999001,-0.000214,0.044675,-0.00053,-0.006808,6.9e-05,-0.004977,0.017103,0.002693,0.001801
1609059049780191422,358,1609059049780191422,0.006844,-0.000884,0.004172,0.999,-2e-05,0.044684,-0.000551,-0.00784,-0.002238,-0.004851,0.021831,0.00103,-0.000296
1609059049883928061,359,1609059049883928061,0.005631,5.7e-05,0.002763,0.998995,-0.000129,0.0448,-0.000238,-0.011361,0.000929,-0.0078,0.023652,0.000858,-0.002371
1609059049986975431,360,1609059049986975431,0.005436,0.00108,0.003126,0.999004,-7.7e-05,0.044605,-0.000511,-0.010571,0.000677,-0.005511,0.023171,0.004632,-0.002657
1609059050090421915,361,1609059050090421915,0.00471,0.00046,0.002713,0.999002,1.9e-05,0.044653,-0.000362,-0.011573,-0.000957,-0.005299,0.024514,0.004378,-0.004439
1609059050193180799,362,1609059050193180799,0.00676,0.000168,0.006054,0.998996,-0.000133,0.044788,-0.000392,-0.00435,-0.001885,0.002142,0.022976,0.001911,-0.004901
