time,field.header.seq,field.header.stamp,field.pose.pose.position.x,field.pose.pose.position.y,field.pose.pose.position.z,field.pose.pose.orientation.x,field.pose.pose.orientation.y,field.pose.pose.orientation.z,field.pose.pose.orientation.w,field.twist.twist.linear.x,field.twist.twist.linear.y,field.twist.twist.linear.z,field.twist.twist.angular.x,field.twist.twist.angular.y,field.twist.twist.angular.z
1609045332144848108,2,1609045332144848108,-0.003432,-0.00457,0.003079,0.999691,-0.000171,0.024125,-0.00595,0.011447,-0.0207,0.007079,0.012057,0.004672,-0.00043
1609045332247721672,3,1609045332247721672,-0.001242,-0.004893,0.001271,0.999691,-0.000173,0.02409,-0.005974,0.013877,-0.01342,0.000575,0.019969,0.00578,-0.005704
1609045332350683451,4,1609045332350683451,-0.00251,-0.003498,0.001302,0.999691,-0.000129,0.024077,-0.006019,0.007873,-0.006087,0.00174,0.0187,0.004332,-0.004549
1609045332457468271,5,1609045332457468271,-0.001427,-0.003873,0.001039,0.999691,-1.3e-05,0.02407,-0.006074,0.006822,-0.00496,0.001899,0.024794,0.008503,-0.010939
1609045332558644295,6,1609045332558644295,-0.002768,-0.005548,0.00146,0.999694,-0.00017,0.024,-0.00595,0.00312,-0.008276,0.001392,0.020538,0.001912,-0.00464
1609045332660090208,7,1609045332660090208,-0.00306,-0.004197,0.001574,0.999692,-9.5e-05,0.024075,-0.0059,8.8e-05,-0.000494,0.004198,0.026788,0.006291,-0.010887
1609045332763096094,8,1609045332763096094,-0.005295,-0.006653,0.000932,0.999692,-0.000236,0.024045,-0.005981,-0.004977,-0.004219,0.000729,0.026366,0.008574,-0.013393
1609045332833462477,9,1609045332833462477,-0.007219,-0.002968,0.00078,0.999693,-0.000168,0.024017,-0.005941,-0.009086,-0.002996,-0.00153,0.00165,-0.001232,0.00823
1609045332936508417,10,1609045332936508417,-0.00324,-0.001314,0.001784,0.999693,-4e-05,0.024055,-0.005884,-0.000126,0.003824,0.001393,0.00775,0.003066,0.002081
1609045333038441658,11,1609045333038441658,-0.003117,2.1e-05,0.001579,0.999694,-0.000253,0.024003,-0.00589,0.000963,0.006301,0.000437,0.007185,0.002417,0.003373
1609045333143081188,12,1609045333143081188,-0.00729,-0.00187,0.00036,0.99969,-0.000182,0.024092,-0.006205,-0.007258,0.001754,-0.001949,0.01453,0.003804,-0.001224
1609045333244689703,13,1609045333244689703,-0.00635,-0.00324,0.001662,0.999694,-0.000133,0.023988,-0.006012,-0.00466,-0.001552,0.001831,0.013952,0.004441,-0.00178
1609045333348801851,14,1609045333348801851,-0.005783,-0.003391,0.000372,0.999693,-0.000114,0.024038,-0.005977,-0.00303,0.00035,-0.001041,0.017455,0.004066,-0.003243
1609045333451408148,15,1609045333451408148,-0.00814,-0.003504,0.001415,0.999694,-0.000116,0.023978,-0.006051,-0.007376,-0.000718,0.002299,0.021199,0.007308,-0.00763
1609045333554259539,16,1609045333554259539,-0.006646,-0.002174,-0.000491,0.999693,-1e-06,0.024019,-0.005968,-0.001128,0.004697,-0.001376,0.024554,0.008205,-0.009483
1609045333657127142,17,1609045333657127142,-0.006185,-0.003064,-0.00037,0.999694,-0.000286,0.023977,-0.006034,0.001479,0.001451,0.000608,0.025996,0.006855,-0.008841
1609045333760306835,18,1609045333760306835,-0.004552,-0.002795,0.000526,0.999691,-9.6e-05,0.024041,-0.0062,0.003716,0.00024,0.002689,0.026954,0.006729,-0.012785
1609045333863747835,19,1609045333863747835,-0.007762,-0.001461,0.000597,0.999692,-0.000219,0.024003,-0.006224,0.000859,0.005927,0.003077,0.028291,0.006994,-0.01323
1609045333934010267,20,1609045333934010267,-0.007983,-0.005796,0.000539,0.999691,-0.00018,0.024087,-0.006008,-0.002357,-0.008727,0.00152,0.00421,0.00056,0.006469
1609045334035312653,21,1609045334035312653,-0.004613,-0.003252,0.002033,0.999691,-0.000256,0.024126,-0.005967,0.006222,0.000346,0.00413,0.002964,0.000954,0.006262
1609045334138331890,22,1609045334138331890,-0.004546,-0.00213,0.001014,0.999694,-0.000233,0.023999,-0.00588,0.005973,0.00404,0.00191,0.00947,0.004722,0.002604
1609045334241468668,23,1609045334241468668,-0.004519,-0.003729,0.001515,0.999693,-0.00031,0.024023,-0.005979,0.005032,0.000447,0.001825,0.010792,0.004728,0.001276
1609045334344986439,24,1609045334344986439,-0.004072,-0.002495,0.001026,0.999689,-0.000437,0.024195,-0.006023,0.008833,0.002625,-9.7e-05,0.015244,0.003604,-0.001937
1609045334448817015,25,1609045334448817015,-0.004114,-0.0048,0.001378,0.999691,-0.000365,0.024148,-0.005718,0.006425,0.000779,0.00265,0.019812,0.004545,-0.005231
1609045334550580740,26,1609045334550580740,-0.002987,-0.001978,-0.000792,0.999692,-2e-05,0.024065,-0.005987,0.004115,0.004205,-0.002955,0.019438,0.006415,-0.00687
1609045334654011011,27,1609045334654011011,-0.001556,0.0005,0.001192,0.99969,-7.4e-05,0.024106,-0.006074,0.00579,0.009294,0.002415,0.023473,0.007298,-0.008975
1609045334756903887,28,1609045334756903887,-0.00771,-0.001673,0.002009,0.99969,-0.000149,0.024134,-0.006001,-0.007501,0.003598,0.003867,0.022249,0.006809,-0.009268
1609045334860278845,29,1609045334860278845,-0.004593,-0.001617,0.000759,0.99969,-0.000292,0.024106,-0.00617,0.00026,0.002957,0.000574,0.027757,0.00707,-0.012366
1609045334962992191,30,1609045334962992191,-0.007005,-0.003288,0.001781,0.999694,0.0,0.023988,-0.006017,-0.002697,-0.000287,0.004922,0.02607,0.006103,-0.012701
1609045335036881924,31,1609045335036881924,-0.0088,0.00147,0.000325,0.99969,-0.000141,0.024106,-0.006166,-0.007408,0.002931,-0.0011,0.004101,-0.000951,0.006431
1609045335140093565,32,1609045335140093565,-0.007063,-0.000295,0.000868,0.999693,-0.000133,0.024022,-0.006047,-0.001785,-0.001133,0.000921,0.007793,0.002576,0.002806
1609045335243832111,33,1609045335243832111,-0.004603,-0.002171,0.002381,0.999694,-0.000148,0.023983,-0.006008,0.003695,-0.004679,0.006404,0.014558,0.004324,0.000269
1609045335346648693,34,1609045335346648693,0.001517,-0.004806,0.004148,0.999693,-0.000216,0.024095,-0.005766,0.014946,-0.008798,0.007506,0.01841,0.003997,-0.004197
1609045335450445652,35,1609045335450445652,-0.004312,-0.003963,0.001002,0.999696,-0.000196,0.023914,-0.005859,0.001378,-0.004841,3.1e-05,0.022119,0.006459,-0.00579
1609045335553537130,36,1609045335553537130,-0.00783,-0.004636,0.000443,0.999695,-0.000224,0.023942,-0.006025,-0.013072,-0.002059,-0.00088,0.023241,0.008949,-0.008455
1609045335657122612,37,1609045335657122612,-0.005206,-0.003416,0.000978,0.999693,-3.8e-05,0.024002,-0.006058,-0.006102,0.002337,0.000909,0.026356,0.007879,-0.011226
1609045335758650541,38,1609045335758650541,-0.009689,-0.001774,0.000471,0.999693,-9.9e-05,0.023931,-0.006261,-0.01301,0.007084,-0.000118,0.025215,0.00463,-0.012963
1609045335861435890,39,1609045335861435890,-0.005252,0.001673,0.001489,0.999689,3.8e-05,0.024106,-0.006379,-0.001659,0.015953,0.003944,0.027026,0.006671,-0.012548
1609045335933333397,40,1609045335933333397,-0.008555,-0.002511,0.000229,0.999692,-0.000217,0.024072,-0.006027,-0.008587,0.002071,-0.000894,0.003368,0.000916,0.007357
1609045336033698797,41,1609045336033698797,-0.010002,-0.001621,0.000845,0.999695,-0.000248,0.02394,-0.005971,-0.00639,0.00523,0.000437,0.001016,0.000627,0.006844
1609045336137942791,42,1609045336137942791,-0.007501,0.000223,0.000562,0.999693,-6e-05,0.023982,-0.006153,-0.000108,0.007944,0.000894,0.007876,0.000776,0.002771
1609045336240868330,43,1609045336240868330,-0.005114,0.001489,0.000622,0.999694,-0.000173,0.023962,-0.00612,0.005252,0.007304,0.00184,0.011711,0.003817,0.000732
1609045336342889309,44,1609045336342889309,-0.006882,-0.00242,0.000492,0.99969,-0.000173,0.024076,-0.006226,-0.000232,-0.002398,0.002437,0.017493,0.003879,-0.002874
1609045336445773840,45,1609045336445773840,0.000599,-0.004189,0.001187,0.999691,-0.000156,0.024084,-0.006,0.012059,-0.003835,0.002227,0.01703,0.005352,-0.003437
1609045336550275326,46,1609045336550275326,-0.000157,-0.003946,0.002512,0.999691,2e-05,0.024097,-0.006093,0.007501,-0.001534,0.005649,0.019642,0.006575,-0.006482
1609045336652543783,47,1609045336652543783,-0.00092,-0.001481,0.002252,0.999691,-7.2e-05,0.024074,-0.006053,0.003657,0.00587,0.003908,0.023429,0.007218,-0.008669
1609045336755619526,48,1609045336755619526,-0.002785,-0.003562,0.001694,0.999691,-1.7e-05,0.024117,-0.005922,-1.7e-05,0.002091,0.003041,0.026493,0.007114,-0.011991
1609045336858505249,49,1609045336858505249,-0.004929,-0.005511,0.000708,0.999693,-8.6e-05,0.024034,-0.005998,-0.003695,-0.002742,0.000277,0.027251,0.008829,-0.012136
1609045336961292505,50,1609045336961292505,-0.008498,-0.00641,0.000548,0.999695,-9.7e-05,0.023974,-0.005891,-0.010401,-0.007749,-0.001294,0.025843,0.00592,-0.012077
1609045337034416199,51,1609045337034416199,-0.00923,-0.006571,0.000249,0.999694,-0.00019,0.024079,-0.005659,-0.01193,-0.009899,-0.002369,0.004746,-0.000302,0.005685
1609045337133888721,52,1609045337133888721,-0.005993,-0.004162,0.001398,0.999695,-0.00025,0.023969,-0.005908,-0.005039,-0.004098,0.000929,0.004745,0.00189,0.007548
1609045337237661123,53,1609045337237661123,-0.004631,-0.002227,0.001657,0.999692,-0.000252,0.024096,-0.005847,-0.001804,0.000841,0.000612,0.002666,0.000653,0.005853
1609045337339965105,54,1609045337339965105,-0.003845,-0.00571,0.001277,0.999691,-9.8e-05,0.024157,-0.005733,-0.000744,-0.005237,-0.000122,0.011172,0.005181,0.001305
1609045337442790270,55,1609045337442790270,-0.004463,-0.005298,0.000323,0.999691,-0.00013,0.024149,-0.005747,-0.001958,-0.000559,-0.001536,0.013374,0.004528,-0.000967
1609045337550874710,56,1609045337550874710,-0.007439,-0.007094,0.001373,0.999695,-7.9e-05,0.023978,-0.005828,-0.006353,0.001237,0.003348,0.022389,0.006799,-0.007055
1609045337653517008,57,1609045337653517008,-0.005901,-0.008446,0.000754,0.999691,-0.000114,0.024104,-0.005907,-0.001513,0.000357,0.002123,0.022934,0.006505,-0.009296
1609045337758701324,58,1609045337758701324,-0.005219,-0.003757,0.002482,0.999691,3.4e-05,0.024086,-0.006081,-0.001148,0.008773,0.00602,0.02634,0.003662,-0.012196
1609045337861159325,59,1609045337861159325,-0.007199,-0.001024,0.002379,0.999689,-5.5e-05,0.024069,-0.006386,-0.002408,0.010886,0.003936,0.027297,0.005764,-0.012547
1609045337964150190,60,1609045337964150190,-0.007845,0.001247,0.000314,0.999693,-1e-05,0.024017,-0.006079,-0.002371,0.016102,-0.000393,0.027713,0.007618,-0.01319
1609045338033470154,61,1609045338033470154,-0.004532,-0.001686,0.001303,0.999692,-0.000293,0.024039,-0.006,0.005677,0.003818,0.000366,0.004809,0.001427,0.006685
1609045338135342360,62,1609045338135342360,-0.005277,-0.002742,0.000403,0.999694,-0.000218,0.023991,-0.005979,0.002873,5.1e-05,-0.00191,0.003579,3.7e-05,0.007271
1609045338240126610,63,1609045338240126610,-0.002515,-0.002935,0.000869,0.99969,-0.000261,0.024161,-0.005945,0.007013,0.001769,-5.5e-05,0.012234,0.006479,-1e-06
1609045338341446161,64,1609045338341446161,-0.003379,-0.001511,0.001666,0.99969,-0.00023,0.024081,-0.006213,0.004726,0.002566,0.002577,0.012186,0.006305,0.001107
1609045338446226358,65,1609045338446226358,-0.005269,-0.001962,0.002328,0.999691,-0.000141,0.024089,-0.006058,0.00018,0.001625,0.005458,0.021175,0.006762,-0.005534
1609045338552102089,66,1609045338552102089,-0.002932,-0.001677,0.000534,0.999689,-1e-05,0.024136,-0.006191,0.002747,0.000369,0.0007,0.02155,0.006141,-0.007181
1609045338655307293,67,1609045338655307293,-0.00378,-0.002431,0.001278,0.999694,-0.000141,0.023984,-0.005982,0.003046,0.000173,0.002509,0.024751,0.00808,-0.007872
1609045338758886337,68,1609045338758886337,-0.004477,-0.001784,0.001993,0.999691,-7.9e-05,0.024067,-0.006118,0.000894,-0.000251,0.00473,0.024703,0.006447,-0.011293
1609045338861420393,69,1609045338861420393,-0.006357,-0.000393,0.001619,0.999691,-1.6e-05,0.023986,-0.006512,-0.004267,0.003171,0.002348,0.027606,0.007495,-0.012072
1609045338933745861,70,1609045338933745861,-0.005821,-0.002466,0.001731,0.999695,-0.000167,0.023905,-0.006168,-0.003664,-0.007627,0.001702,0.005036,0.002066,0.005936
1609045339033212900,71,1609045339033212900,-0.006991,-0.00155,0.001448,0.99969,-0.000208,0.024173,-0.005905,-0.006783,-0.007207,-0.000659,0.002022,0.001723,0.007611
1609045339136552095,72,1609045339136552095,-0.0082,-0.00193,0.000984,0.999694,-0.000189,0.024004,-0.005891,-0.005975,-0.002087,-0.001619,0.00852,0.001494,0.00397
1609045339239628792,73,1609045339239628792,-0.004906,-0.002239,0.001084,0.999695,-0.000302,0.023963,-0.005814,0.002863,-0.00086,-0.000371,0.006836,0.000689,0.004837
1609045339343123674,74,1609045339343123674,-0.009414,-0.003113,-0.000617,0.999693,-0.000299,0.024007,-0.006012,-0.00556,-0.003319,-0.002695,0.015897,0.004212,-0.00096
1609045339445812225,75,1609045339445812225,-0.007264,-0.003629,-0.000325,0.999695,-5e-05,0.023975,-0.005798,-1.6e-05,-0.000186,-0.000146,0.016778,0.004374,-0.003877
1609045339548739910,76,1609045339548739910,-0.004064,-0.001481,0.000698,0.999693,-3.2e-05,0.024016,-0.005975,0.007721,0.00565,0.002878,0.021687,0.00589,-0.006749
1609045339651870966,77,1609045339651870966,-0.00487,0.000942,0.000677,0.999692,-6.6e-05,0.023969,-0.006278,0.005788,0.010801,0.002875,0.022035,0.007521,-0.008929
1609045339758233547,78,1609045339758233547,0.00265,-0.001316,0.003527,0.999689,-9.4e-05,0.024153,-0.006157,0.017088,0.00429,0.009309,0.026233,0.006429,-0.012352
1609045339858290434,79,1609045339858290434,-0.003281,-0.00175,0.001259,0.999686,-2.3e-05,0.024219,-0.00629,0.001738,-0.000349,0.003607,0.027102,0.008558,-0.010899
1609045339961101532,80,1609045339961101532,-0.00335,-0.002297,0.002152,0.999694,6.7e-05,0.023991,-0.006003,0.000155,0.000593,0.004855,0.026007,0.006036,-0.012018
1609045340032992601,81,1609045340032992601,-0.003688,-0.003332,0.001665,0.999694,-6.8e-05,0.024041,-0.005793,0.000294,-0.006544,0.000179,0.002253,0.001046,0.007687
1609045340133539200,82,1609045340133539200,-0.005591,-0.005665,2.7e-05,0.999696,-0.00011,0.023986,-0.005699,-0.003641,-0.01069,-0.003008,0.002949,0.000909,0.006945
1609045340237145424,83,1609045340237145424,-0.006934,-0.004363,0.000381,0.999692,-0.000235,0.024033,-0.006023,-0.003407,-0.006984,-0.000905,0.004382,0.003827,0.005218
1609045340339724779,84,1609045340339724779,-0.007101,-0.003781,0.000414,0.999694,-0.0003,0.023923,-0.006196,-0.002953,-0.005558,-0.000897,0.008755,0.000464,0.002565
1609045340442773342,85,1609045340442773342,-0.005395,-0.004611,-7.1e-05,0.999693,6.4e-05,0.024055,-0.005864,-0.001193,-0.004708,-0.001349,0.013412,0.004444,-0.001222
1609045340546105385,86,1609045340546105385,-0.007514,-0.003141,0.000688,0.999692,-0.00016,0.024036,-0.006148,-0.004035,0.000614,0.002754,0.019169,0.005365,-0.003444
1609045340649161816,87,1609045340649161816,-0.004905,-0.004248,0.001578,0.999691,-4.5e-05,0.02405,-0.006166,0.000434,-0.001918,0.004144,0.021182,0.008458,-0.005822
1609045340754080534,88,1609045340754080534,-0.002307,-0.002345,0.002676,0.99969,-0.00027,0.024074,-0.006248,0.005944,0.001574,0.007579,0.024659,0.006947,-0.007926
1609045340855360270,89,1609045340855360270,-0.00703,7.8e-05,0.003205,0.999694,-7.3e-05,0.023949,-0.006054,-0.003611,0.006976,0.008984,0.024061,0.00598,-0.009676
1609045340958522320,90,1609045340958522320,-0.007219,-0.002744,0.002575,0.999691,-0.000112,0.024072,-0.006042,-0.001992,-0.000283,0.005679,0.028043,0.006996,-0.011921
1609045341062419653,91,1609045341062419653,-0.007095,-0.000786,0.002233,0.999691,4.7e-05,0.024017,-0.006299,0.000111,0.002736,0.003619,0.026255,0.005904,-0.014089
1609045341133512735,92,1609045341133512735,-0.00644,-0.000654,0.002393,0.999692,-0.0001,0.024067,-0.005937,0.001037,-0.002848,0.001131,0.002767,0.001793,0.00695
1609045341233565092,93,1609045341233565092,-0.004723,5.6e-05,0.00259,0.999692,-0.000126,0.024066,-0.005969,0.003166,-3e-05,0.002768,0.002092,0.001477,0.007022
1609045341337487936,94,1609045341337487936,-0.002618,0.000362,0.002839,0.999693,-0.000296,0.024028,-0.005934,0.007786,0.001412,0.002407,0.006589,0.001748,0.004696
1609045341439461708,95,1609045341439461708,-0.003623,-0.00353,0.002687,0.999691,-0.000314,0.02413,-0.005959,0.002072,-0.010095,0.001461,0.008903,0.004075,0.002027
1609045341543758631,96,1609045341543758631,-0.002338,-0.003347,0.001493,0.999693,-9.5e-05,0.024019,-0.006056,0.002892,-0.008936,-0.001272,0.01652,0.004503,-0.002983
1609045341645858526,97,1609045341645858526,-0.004948,-0.003844,0.001126,0.99969,-0.000199,0.024075,-0.006194,-0.003099,-0.005913,-0.000536,0.01422,0.004483,-0.002135
1609045341748830557,98,1609045341748830557,-0.005724,-0.002558,0.001236,0.999692,-0.000169,0.024047,-0.00605,-0.004718,-0.001393,0.001386,0.021451,0.008653,-0.005335
1609045341852291107,99,1609045341852291107,-0.005997,-0.000173,0.002544,0.999689,-0.000118,0.024161,-0.00617,-0.005369,0.00335,0.004282,0.020457,0.006077,-0.00814
1609045341954957247,100,1609045341954957247,-0.005924,-0.003539,0.003333,0.999691,-0.000227,0.024056,-0.006121,-0.003747,-0.00111,0.004965,0.025121,0.007148,-0.006938
1609045342058225393,101,1609045342058225393,-0.005812,-0.003813,0.00198,0.99969,-5.4e-05,0.024078,-0.00632,-0.003203,-0.002941,0.001105,0.025415,0.007781,-0.010803
1609045342161844015,102,1609045342161844015,-0.005498,-0.00343,0.003072,0.999692,-0.00015,0.02403,-0.006134,-0.002509,-0.002029,0.004267,0.02808,0.005294,-0.012752
1609045342232941628,103,1609045342232941628,-0.006872,-0.004241,0.001021,0.999693,-0.000172,0.024039,-0.005901,-0.002869,-0.008894,-0.00247,0.0033,0.001115,0.00671
1609045342333453655,104,1609045342333453655,-0.009124,6.4e-05,0.001536,0.999693,-0.000139,0.023952,-0.006181,-0.006957,-0.00028,0.000747,0.002188,0.000472,0.007927
1609045342436954975,105,1609045342436954975,-0.007947,-0.001062,-0.000304,0.999692,-0.00021,0.023995,-0.006222,-0.004235,-0.001492,-0.003449,0.009088,0.000249,0.004559
1609045342540521145,106,1609045342540521145,-0.006422,-0.001197,-0.000447,0.999689,-0.000298,0.024144,-0.006119,-0.00093,-0.002134,-0.00371,0.007784,0.002676,0.004046
1609045342642505169,107,1609045342642505169,-0.005886,-0.005796,0.000169,0.999696,-0.000239,0.023961,-0.005802,0.001806,-0.011321,-0.000672,0.011365,0.004222,0.000599
1609045342745962620,108,1609045342745962620,-0.003436,-0.001694,0.000714,0.999691,-7.2e-05,0.024083,-0.006136,0.003526,-0.000854,0.002831,0.016876,0.004065,-0.003967
1609045342849233866,109,1609045342849233866,-0.006726,-0.003694,7.5e-05,0.999691,-0.00017,0.024088,-0.005983,-0.002892,-0.002753,0.002547,0.021911,0.008605,-0.008251
1609045342954205513,110,1609045342954205513,-0.005659,-0.004199,0.002026,0.999691,-0.000173,0.024092,-0.005966,-0.003173,-0.005107,0.006346,0.018672,0.005637,-0.004642
1609045343033104181,111,1609045343033104181,-0.002726,-0.002269,0.002728,0.99969,-0.000214,0.024172,-0.005823,0.001952,-0.004293,0.005576,0.000978,-0.000609,0.008351
1609045343133380413,112,1609045343133380413,-0.001711,-0.002534,0.002027,0.999691,-8.2e-05,0.024168,-0.005771,0.004163,-0.007786,0.001822,-0.003039,0.000434,0.011932
1609045343236848354,113,1609045343236848354,-0.003104,-0.005613,0.002855,0.999694,-2.5e-05,0.023999,-0.005854,0.00058,-0.010961,0.005482,0.008025,0.001055,0.004729
1609045343339487314,114,1609045343339487314,-0.001698,-0.006421,0.00222,0.999694,-0.000403,0.024022,-0.005733,0.00238,-0.010595,0.001877,0.009509,0.003341,0.001258
1609045343443235874,115,1609045343443235874,-0.0028,-0.002535,0.001995,0.999696,-0.000235,0.02391,-0.006001,0.00121,-0.001717,0.001625,0.01442,0.003866,-0.001145
1609045343545778036,116,1609045343545778036,-0.003538,-0.003659,0.001015,0.999693,-0.000268,0.024,-0.006058,-0.001583,-0.004201,-0.000213,0.016702,0.004538,-0.003025
1609045343648859739,117,1609045343648859739,-0.006421,-0.002574,0.001376,0.999692,-0.00015,0.024027,-0.006067,-0.007363,-0.001553,0.001229,0.020357,0.006065,-0.006068
1609045343753595114,118,1609045343753595114,-0.007892,-0.00495,0.001636,0.999689,-7.5e-05,0.024152,-0.006173,-0.010091,-0.005149,0.003163,0.024732,0.007376,-0.008313
1609045343854918242,119,1609045343854918242,-0.00179,-0.000177,0.003034,0.999691,-0.000341,0.024066,-0.006185,0.005221,0.003904,0.004313,0.022915,0.005471,-0.009167
1609045343962770462,120,1609045343962770462,-0.003804,-0.004469,0.003123,0.999697,0.0,0.023792,-0.006162,-0.000253,-0.003574,0.004776,0.025882,0.006901,-0.012812
1609045344032965899,121,1609045344032965899,-0.000332,-0.002295,0.000795,0.99969,-3.3e-05,0.024136,-0.006098,0.007362,-0.00104,-0.003722,0.000981,8.6e-05,0.009166
1609045344135595798,122,1609045344135595798,-0.002671,-0.000763,0.000768,0.999692,-7.9e-05,0.02408,-0.005989,0.000897,0.003638,-0.002399,0.006281,0.003329,0.005718
1609045344237783432,123,1609045344237783432,-0.006142,-0.0024,0.002101,0.999692,-0.000139,0.024079,-0.00593,-0.003687,-0.000353,0.002229,0.00836,0.002768,0.002569
1609045344340911865,124,1609045344340911865,-0.006951,-0.003355,-0.000184,0.999694,0.000114,0.024031,-0.005778,-0.009683,-0.00399,-0.003705,0.008552,0.002558,0.002132
1609045344444251537,125,1609045344444251537,-0.004797,-0.001427,0.001271,0.999691,-0.000321,0.024135,-0.005875,-0.004019,0.002783,-0.000144,0.01484,0.004191,-0.001392
1609045344547606468,126,1609045344547606468,-0.004454,-0.002948,0.000987,0.999695,-2.7e-05,0.023917,-0.006063,-0.001989,-0.001562,0.00022,0.01914,0.006698,-0.00516
1609045344650313616,127,1609045344650313616,-0.005464,-0.002322,0.001112,0.999695,-0.000199,0.023892,-0.00614,-0.001967,0.00082,0.001798,0.023015,0.00719,-0.007716
1609045344753411770,128,1609045344753411770,-0.006895,-0.001653,0.000879,0.999693,-0.000146,0.023986,-0.006124,-0.002349,0.002447,0.002166,0.022628,0.007018,-0.009297
1609045344856489182,129,1609045344856489182,-0.005696,-0.002952,0.001496,0.999691,-0.000349,0.024065,-0.006069,0.001423,-0.000257,0.003857,0.026563,0.007699,-0.011365
1609045344959580660,130,1609045344959580660,-0.003559,-0.001147,0.000327,0.999691,-6.1e-05,0.024042,-0.006177,0.006895,0.005307,0.000356,0.025225,0.007054,-0.011773
1609045345064862967,131,1609045345064862967,-1.2e-05,-0.003657,0.000516,0.999694,-3e-05,0.023896,-0.006311,0.016491,-0.001367,0.001503,0.02354,0.006451,-0.012466
1609045345133845091,132,1609045345133845091,-0.00291,-0.005155,0.000496,0.999692,-0.000242,0.024042,-0.005987,0.008778,-0.008833,-0.000113,0.002945,0.000447,0.007335
1609045345235022068,133,1609045345235022068,-0.007031,-0.002556,0.000795,0.999695,-0.000174,0.023988,-0.005817,0.000438,-0.003167,0.001776,0.001476,0.000439,0.007712
1609045345337998629,134,1609045345337998629,-0.007305,-0.003842,-9.8e-05,0.999693,-0.000266,0.024044,-0.005831,-0.0001,-0.001888,-0.000932,0.004555,0.001295,0.004343
1609045345441191435,135,1609045345441191435,-0.003827,-0.000971,0.002076,0.999693,-3.5e-05,0.024055,-0.005826,0.00661,0.010174,0.004939,0.00925,0.003748,0.00107
1609045345544755220,136,1609045345544755220,-0.006331,0.00141,0.001581,0.999691,-0.000177,0.024024,-0.006238,0.000158,0.00955,0.002808,0.013783,0.00486,-0.001578
1609045345647147894,137,1609045345647147894,-0.007344,-0.002696,0.001263,0.999691,-0.000138,0.024118,-0.005933,-0.002337,-0.001619,0.003295,0.019533,0.006776,-0.004846
1609045345750727177,138,1609045345750727177,-0.002742,-0.001129,0.001819,0.999695,-0.000104,0.023908,-0.006184,0.008145,0.002304,0.004215,0.021958,0.008858,-0.006134
1609045345853605032,139,1609045345853605032,-0.002295,-0.000537,0.000996,0.999695,-0.000159,0.023912,-0.00617,0.009006,-0.000724,0.001881,0.0247,0.008689,-0.009474
1609045345956710339,140,1609045345956710339,-0.002021,-0.003892,0.002,0.999693,-0.000244,0.024033,-0.006012,0.00564,-0.006632,0.004295,0.022783,0.007857,-0.010009
1609045346059508562,141,1609045346059508562,-0.007729,-0.002854,0.000603,0.999694,0.0,0.023889,-0.006289,-0.004863,-0.005805,0.000501,0.025648,0.008019,-0.010778
1609045346162642956,142,1609045346162642956,-0.00513,-0.002577,0.000949,0.999694,-0.000154,0.023905,-0.006296,0.002271,-0.004946,0.000876,0.025704,0.00587,-0.013986
1609045346234099865,143,1609045346234099865,-0.00627,-1.8e-05,0.001387,0.999694,0.0,0.024008,-0.00593,-8.2e-05,-0.001166,0.001108,0.0004,0.000961,0.00758
1609045346336392879,144,1609045346336392879,-0.008511,-0.002156,0.000135,0.999693,-0.000238,0.024059,-0.005867,-0.003438,-0.005428,-0.001712,0.008221,0.00133,0.003586
1609045346439334869,145,1609045346439334869,-0.008293,-0.000549,0.000216,0.999693,-0.000325,0.024042,-0.005896,-0.001085,-0.001427,-0.000202,0.007631,0.002566,0.004632
1609045346542101145,146,1609045346542101145,-0.008108,-0.00234,0.000637,0.999694,-0.000418,0.023985,-0.006008,-0.001102,-0.007081,0.000358,0.011141,0.002385,0.000767
1609045346644128084,147,1609045346644128084,-0.00551,-0.001483,0.000797,0.999689,-0.000231,0.024126,-0.006196,0.003393,-0.003739,-0.000795,0.016208,0.003711,-0.003481
1609045346747210026,148,1609045346747210026,-0.003122,-0.001943,-0.000728,0.999688,-0.000271,0.024216,-0.00608,0.007063,-0.003747,-0.004507,0.021059,0.007211,-0.005333
1609045346850270033,149,1609045346850270033,-0.005125,-0.002629,-0.0002,0.99969,-0.000116,0.024078,-0.006294,0.001204,-0.004962,-0.002187,0.020948,0.007507,-0.00746
1609045346956470013,150,1609045346956470013,-0.005192,-0.004667,0.001102,0.999689,6.4e-05,0.02409,-0.006301,0.000235,-0.008178,0.003225,0.027596,0.007379,-0.010785
1609045347061722517,151,1609045347061722517,-0.001236,-0.003459,-0.000153,0.999695,-0.000168,0.023875,-0.006265,0.010271,-0.003193,-0.000578,0.027682,0.007298,-0.013016
1609045347133174658,152,1609045347133174658,-0.003711,-0.000594,0.000857,0.999693,-9e-06,0.024027,-0.005882,0.003996,-0.001864,0.00134,0.002622,0.000761,0.006812
1609045347233131170,153,1609045347233131170,-0.005999,-0.001544,0.000839,0.999693,-0.00022,0.024013,-0.005979,-0.001944,-0.003486,0.00126,0.000712,0.000866,0.008346
1609045347336453676,154,1609045347336453676,-0.009328,-0.001917,0.000477,0.999695,-5e-05,0.023964,-0.005834,-0.005898,-0.002705,0.001294,0.006176,0.002654,0.003528
1609045347443693876,155,1609045347443693876,-0.003197,-0.003766,0.000797,0.999694,-0.000181,0.024045,-0.005779,0.006641,-0.005178,0.001271,0.015256,0.004041,0.000163
1609045347545498610,156,1609045347545498610,-0.00266,-0.004371,0.002226,0.999696,-0.00022,0.023933,-0.005778,0.006782,-0.002094,0.005177,0.015797,0.003828,-0.002791
1609045347648868322,157,1609045347648868322,-0.003387,-0.006189,0.000846,0.999692,-0.000261,0.024056,-0.005967,0.001015,-0.005012,0.003709,0.021,0.005928,-0.006406
1609045347752139330,158,1609045347752139330,-0.004601,-0.002008,-0.000355,0.999687,-8e-06,0.02421,-0.006201,-0.00255,0.009478,-0.00018,0.023538,0.006725,-0.0083
1609045347856669664,159,1609045347856669664,-0.000721,-0.003874,0.000589,0.999692,-0.000332,0.024067,-0.005982,0.008183,0.004405,0.003204,0.023812,0.006883,-0.01026
1609045347957723379,160,1609045347957723379,-0.002942,-0.003822,7e-06,0.999696,-0.000278,0.023912,-0.005859,0.003693,0.004476,0.002091,0.025557,0.00714,-0.011324
1609045348061068296,161,1609045348061068296,-0.003885,-0.001234,0.000252,0.999692,-0.000408,0.024057,-0.005977,0.002456,0.008594,0.002945,0.028844,0.006923,-0.011726
1609045348133418560,162,1609045348133418560,-0.005256,-0.001778,0.000765,0.999694,-0.000154,0.024046,-0.005792,-0.00363,0.00041,0.00247,0.00444,0.001811,0.006657
1609045348232813835,163,1609045348232813835,-0.000756,-0.003299,0.002448,0.999695,-0.000171,0.024057,-0.005504,0.006378,-0.001832,0.00539,0.001303,0.000503,0.007919
1609045348336083889,164,1609045348336083889,-0.006661,-0.001772,0.001825,0.999695,-0.000145,0.024017,-0.005731,-0.005372,0.000337,0.003111,0.00805,0.001992,0.00506
1609045348439252377,165,1609045348439252377,-0.002921,-0.000398,0.001319,0.999694,-0.000271,0.023989,-0.005945,0.004549,0.0032,0.002021,0.009579,0.003304,0.000594
1609045348542086363,166,1609045348542086363,-0.006232,-0.001189,0.001022,0.999692,-0.000472,0.024082,-0.005965,-0.002201,0.00521,0.002412,0.013059,0.003707,-0.000439
1609045348645901680,167,1609045348645901680,-0.004518,-0.002992,-0.000583,0.999692,-0.000147,0.024028,-0.006114,0.000489,0.002163,-0.000926,0.017567,0.004317,-0.002862
1609045348748370647,168,1609045348748370647,-0.004716,-0.001759,0.001474,0.999691,-0.000221,0.024047,-0.00624,-0.000514,0.004605,0.005232,0.022961,0.006964,-0.00663
1609045348851533890,169,1609045348851533890,-0.00467,-0.003464,0.000907,0.999689,-7e-05,0.024145,-0.006217,0.000504,0.001686,0.004003,0.023086,0.007843,-0.009328
1609045348954504967,170,1609045348954504967,-0.005723,-0.00422,0.000835,0.999691,-5e-05,0.024115,-0.006026,-0.001915,0.003373,0.002639,0.023212,0.00719,-0.008459
1609045349057685137,171,1609045349057685137,-0.003724,-0.002346,0.001363,0.999687,-3.4e-05,0.024216,-0.006257,-0.00101,0.005429,0.004578,0.026816,0.00763,-0.011277
1609045349160915375,172,1609045349160915375,-0.004211,0.00135,0.001578,0.999691,-0.000186,0.024049,-0.006206,0.000752,0.010939,0.003823,0.027974,0.008283,-0.013919
1609045349233337164,173,1609045349233337164,-0.002147,-7.8e-05,0.001494,0.999691,1.7e-05,0.024097,-0.006034,0.005485,0.001652,0.001526,0.005017,0.001285,0.006288
1609045349332709789,174,1609045349332709789,-0.003259,-0.003132,0.000685,0.999691,-0.000316,0.024123,-0.0059,0.003714,-0.006241,-0.000809,0.002248,0.001259,0.006694
1609045349435904264,175,1609045349435904264,-0.003195,-0.001752,0.00105,0.999693,-0.000178,0.024051,-0.005906,0.003538,-9.5e-05,0.000462,0.00788,0.003764,0.003
1609045349538886309,176,1609045349538886309,-0.001965,-0.003479,0.001619,0.999693,-8.1e-05,0.024048,-0.00583,0.004235,-0.003968,0.002711,0.013066,0.006137,0.000133
1609045349646875381,177,1609045349646875381,-0.002598,-0.003363,0.000194,0.999691,-6.9e-05,0.024085,-0.006027,0.002537,-0.002596,0.000714,0.018007,0.005629,-0.004051
1609045349749678612,178,1609045349749678612,-0.00659,-0.003232,0.000623,0.999691,-4.3e-05,0.024099,-0.006052,-0.005035,-0.001592,0.004515,0.021362,0.006655,-0.007083
1609045349859791279,179,1609045349859791279,-0.004691,-0.001495,0.001309,0.999695,2e-06,0.023842,-0.006283,0.002913,0.003958,0.005841,0.028589,0.006346,-0.012027
1609045349934590340,180,1609045349934590340,-0.004723,-0.002848,0.000887,0.999693,-0.000154,0.024007,-0.006042,0.001904,-0.002391,0.002771,0.006071,0.00254,0.005655
1609045350035774231,181,1609045350035774231,-0.004625,-0.002043,0.000837,0.99969,-0.000189,0.024137,-0.005979,0.000188,0.000334,0.002357,0.006555,0.000635,0.005105
1609045350139122725,182,1609045350139122725,-0.003236,0.001814,0.002284,0.999693,-0.000105,0.024006,-0.006005,0.001502,0.008272,0.005112,0.008892,0.003645,0.002482
1609045350242171288,183,1609045350242171288,-0.004082,0.000148,0.001542,0.999693,-0.000192,0.02406,-0.005898,-0.001378,0.001043,0.003071,0.012562,0.002468,0.001026
1609045350346286535,184,1609045350346286535,-0.005847,-0.004358,0.001033,0.999691,-0.0001,0.024147,-0.005781,-0.004835,-0.006047,0.000773,0.016633,0.004985,-0.00317
1609045350448590040,185,1609045350448590040,-0.0031,-0.003451,0.002746,0.999694,-7.9e-05,0.023956,-0.006008,0.002121,-0.005973,0.004388,0.020528,0.008022,-0.00542
1609045350550964355,186,1609045350550964355,-0.00721,-0.002357,0.000506,0.999695,-0.000245,0.023932,-0.006002,-0.008419,-0.004507,0.000717,0.021783,0.006579,-0.00722
1609045350654372215,187,1609045350654372215,-0.005727,-0.00258,0.000591,0.999693,-0.000306,0.024,-0.006088,-0.003721,-0.003292,0.000808,0.022918,0.007965,-0.008576
1609045350757294893,188,1609045350757294893,-0.007943,-0.002803,-8.1e-05,0.999693,-0.000142,0.024026,-0.0059,-0.006341,-0.000965,0.00048,0.027041,0.006072,-0.01135
1609045350832198620,189,1609045350832198620,-0.004432,-0.002847,0.000979,0.999694,-0.000107,0.024027,-0.005827,0.001412,-0.002902,0.001215,-0.000398,9.3e-05,0.00713
1609045350935307264,190,1609045350935307264,-0.007124,-0.003133,5.3e-05,0.999693,-0.000245,0.02404,-0.00584,-0.003099,-0.000259,-0.000604,0.00752,0.001944,0.004541
1609045351038373709,191,1609045351038373709,-0.006814,-0.004438,0.000747,0.999694,-0.000129,0.024057,-0.005584,-0.002181,-0.001958,0.00125,0.006369,0.001484,0.00274
1609045351142492056,192,1609045351142492056,-0.004706,-0.000922,0.000813,0.99969,-9.5e-05,0.024167,-0.005933,-0.001348,0.006099,0.001421,0.012502,0.003314,0.000384
1609045351246604443,193,1609045351246604443,-0.004051,-0.001395,0.001366,0.999693,-8.1e-05,0.024073,-0.005839,-0.000812,0.007097,0.003593,0.0197,0.008151,-0.006689
1609045351352691650,194,1609045351352691650,-0.003683,-0.001104,1e-05,0.999689,-0.00034,0.024194,-0.005943,0.002575,0.003174,-0.000125,0.024117,0.008039,-0.009184
1609045351455860376,195,1609045351455860376,-0.001837,-0.003836,0.000405,0.999689,-0.000117,0.024154,-0.006053,0.005303,-0.004177,0.000661,0.026741,0.006283,-0.010826
1609045351558960199,196,1609045351558960199,7e-06,-0.002947,0.000182,0.999692,-7.5e-05,0.024021,-0.006226,0.007493,-0.003253,0.00022,0.026859,0.003632,-0.011974
1609045351662139416,197,1609045351662139416,-0.003017,-0.003295,0.000905,0.999689,-0.000159,0.024189,-0.005989,-0.000628,6.1e-05,0.00344,0.02764,0.007394,-0.01314
1609045351733428001,198,1609045351733428001,-0.002363,-0.001742,0.001439,0.99969,-0.000241,0.024141,-0.005979,0.001463,-0.00114,0.002822,0.001227,0.001272,0.007372
1609045351833963394,199,1609045351833963394,-0.00077,-0.000981,0.002991,0.999694,-0.000202,0.024029,-0.005843,0.004841,0.000612,0.005803,0.004157,0.001007,0.006442
1609045351937256813,200,1609045351937256813,-0.002646,-0.002731,0.001599,0.999693,-0.000116,0.024043,-0.005964,0.000145,-0.004569,0.001064,0.00745,0.003337,0.003367
1609045352041355848,201,1609045352041355848,-0.004296,-0.003828,0.00146,0.999692,-0.000249,0.024082,-0.005858,-0.003795,-0.003561,0.001802,0.012607,0.004016,-0.002972
1609045352143471479,202,1609045352143471479,-0.005859,-0.001542,0.00065,0.999692,-0.000325,0.024118,-0.0058,-0.004516,0.003119,-0.00106,0.010217,0.003449,-0.000878
1609045352247821569,203,1609045352247821569,-0.005764,-0.001623,0.001059,0.999689,-0.000109,0.024175,-0.005981,-0.003913,0.001748,0.001927,0.021629,0.006606,-0.00623
1609045352351258755,204,1609045352351258755,-0.00468,-0.001807,0.001998,0.999691,-0.00015,0.024081,-0.006012,-0.000411,-0.001229,0.00498,0.022335,0.008534,-0.008241
1609045352453060389,205,1609045352453060389,-0.006458,-0.001618,0.001604,0.999689,-0.000337,0.024181,-0.006015,-0.001268,-0.002762,0.003236,0.023274,0.007794,-0.007437
1609045352555871964,206,1609045352555871964,-0.001895,-0.001295,0.000739,0.999689,-0.0002,0.024103,-0.006268,0.008802,-0.001966,-0.000629,0.025285,0.005387,-0.011246
1609045352658162355,207,1609045352658162355,-0.00428,-0.003634,0.000404,0.999691,-0.000346,0.024095,-0.006003,0.003288,-0.00346,-0.000751,0.02833,0.005775,-0.011435
1609045352761680603,208,1609045352761680603,-0.000738,-0.00327,0.002437,0.999691,-5e-06,0.024099,-0.006091,0.00737,-0.001059,0.003663,0.026334,0.006865,-0.01226
1609045352831988335,209,1609045352831988335,-0.001747,-0.003699,0.0017,0.99969,-0.000181,0.024167,-0.00594,0.004481,-0.004942,6.9e-05,0.00407,0.002516,0.006156
1609045352934341669,210,1609045352934341669,-0.003221,-0.002693,0.001575,0.999692,-0.000259,0.024069,-0.005896,0.000892,-0.00035,0.000249,0.007038,0.000625,0.005294
1609045353037779808,211,1609045353037779808,-0.003968,-0.001974,0.00059,0.999692,-0.000201,0.024067,-0.005961,-0.000376,0.003361,-0.000821,0.009131,0.002876,0.002837
1609045353140322447,212,1609045353140322447,-0.002203,-0.00238,0.0016,0.999691,-0.000295,0.024103,-0.005946,0.001781,0.001903,0.002132,0.012027,0.003249,0.000274
1609045353243667364,213,1609045353243667364,-0.002552,-0.001795,0.001875,0.999691,-0.000132,0.024107,-0.005984,0.000841,0.003239,0.002345,0.016553,0.004977,-0.004311
1609045353346687794,214,1609045353346687794,-0.005265,0.000868,-0.000528,0.999694,-7.9e-05,0.023989,-0.006019,-0.003423,0.00942,-0.00168,0.018791,0.005962,-0.0055
1609045353449728012,215,1609045353449728012,-0.004026,0.001344,0.001048,0.999692,-0.000206,0.024058,-0.005999,-0.00156,0.008609,0.0026,0.023732,0.006836,-0.007615
1609045353553205967,216,1609045353553205967,-0.009312,-0.000419,0.001047,0.999692,-1.7e-05,0.024005,-0.006199,-0.010513,0.003097,0.00361,0.023688,0.007292,-0.009366
1609045353655855894,217,1609045353655855894,-0.004789,-0.001687,0.001154,0.999693,-0.000114,0.024007,-0.00609,4.9e-05,0.005134,0.00243,0.026004,0.009204,-0.010084
1609045353758787870,218,1609045353758787870,-0.002817,-0.003587,0.000609,0.99969,-0.000102,0.024137,-0.006034,0.002973,0.003708,0.000888,0.025425,0.005579,-0.011913
1609045353862223864,219,1609045353862223864,-0.001202,-0.002221,0.001163,0.999692,-0.000124,0.024065,-0.006052,0.006819,0.006669,0.002053,0.024933,0.007317,-0.011797
1609045353932296038,220,1609045353932296038,-0.001184,-0.001071,0.001322,0.999696,-0.000276,0.023936,-0.005875,0.004914,0.001409,0.000583,0.001935,0.002273,0.008466
1609045354034006596,221,1609045354034006596,-0.002685,-0.003473,0.001835,0.999693,-0.000173,0.024044,-0.005912,0.001689,-0.003318,0.001904,0.002304,-0.001459,0.007355
1609045354137630463,222,1609045354137630463,-0.00629,-0.001854,0.000689,0.999692,-0.000258,0.02401,-0.006119,-0.007661,-0.00036,-0.000214,0.010507,0.003037,0.003895
1609045354240041018,223,1609045354240041018,-0.008158,-0.000277,0.001452,0.999693,-0.000257,0.023983,-0.006074,-0.009311,0.005026,0.00268,0.011615,0.004231,0.001414
1609045354345477819,224,1609045354345477819,-0.010736,-0.003172,0.001419,0.999696,-0.00024,0.023857,-0.006217,-0.0132,-0.002178,0.001643,0.015504,0.004895,-0.003006
1609045354446232080,225,1609045354446232080,-0.007801,-0.006482,0.001668,0.999696,-0.000123,0.023935,-0.005841,-0.007623,-0.00645,0.002317,0.020048,0.004789,-0.005162
1609045354549063683,226,1609045354549063683,-0.00574,-0.003617,0.001553,0.999696,-0.000168,0.023998,-0.005616,-0.003844,0.001597,0.000344,0.020406,0.006712,-0.006164
1609045354652084589,227,1609045354652084589,-0.004297,-0.002626,-0.000149,0.999693,9e-06,0.023972,-0.006166,0.001222,0.004283,-0.0035,0.024325,0.008443,-0.009281
1609045354755288363,228,1609045354755288363,-0.005983,-0.002488,0.001196,0.999692,-9e-06,0.024022,-0.006132,-0.002106,0.003525,0.001211,0.02574,0.007885,-0.011863
1609045354862078667,229,1609045354862078667,-0.004057,-0.002195,-0.002675,0.999692,-9.8e-05,0.024018,-0.006113,0.005658,0.005983,-0.009478,0.026957,0.005451,-0.01286
1609045354961490870,230,1609045354961490870,-0.005499,-0.006654,-0.000844,0.999693,-0.00013,0.024002,-0.006064,0.001653,-0.002891,-0.001649,0.026912,0.00925,-0.012547
1609045355032277584,231,1609045355032277584,-0.004893,-0.002335,0.000394,0.999694,-8.8e-05,0.024032,-0.005774,-0.000261,0.000283,0.000395,-0.000677,4.7e-05,0.008713
1609045355133394718,232,1609045355133394718,-0.003241,-0.000388,0.001274,0.999695,-0.000392,0.023967,-0.005921,0.005018,0.005208,0.001869,0.00462,0.001025,0.006728
1609045355237012386,233,1609045355237012386,-0.002706,-0.003694,0.002138,0.999691,-0.000136,0.024153,-0.005782,0.003454,-0.004832,0.002427,0.004966,-5.9e-05,0.006873
1609045355339962721,234,1609045355339962721,-0.005366,-0.00379,0.003122,0.999694,-2.3e-05,0.024032,-0.005816,-0.002441,-0.002511,0.005837,0.012051,0.005088,5.9e-05
1609045355442709446,235,1609045355442709446,-0.008026,-4.2e-05,0.001576,0.999691,-8.2e-05,0.024091,-0.006014,-0.007286,0.004567,0.002456,0.011987,0.003268,-0.001203
1609045355545970201,236,1609045355545970201,-0.004703,-0.000948,0.00149,0.999693,-5.1e-05,0.024045,-0.005859,-8.2e-05,0.003497,0.003723,0.017381,0.002172,-0.004173
1609045355649053097,237,1609045355649053097,-0.005856,-0.001107,0.001733,0.999693,-0.000109,0.024041,-0.005899,-0.002452,0.002168,0.003632,0.021382,0.006541,-0.007377
1609045355752284527,238,1609045355752284527,-0.004676,-0.003332,0.002622,0.999694,-0.00012,0.024017,-0.005801,0.00113,-0.001293,0.005102,0.023982,0.008479,-0.009241
1609045355855209589,239,1609045355855209589,-0.002163,-0.006144,0.00091,0.99969,-0.0003,0.024124,-0.006008,0.007174,-0.005464,-0.00082,0.025002,0.00876,-0.010595
1609045355958298922,240,1609045355958298922,-0.002224,-0.004159,0.001467,0.999689,-0.000178,0.02418,-0.006091,0.004813,-0.000642,0.000915,0.026807,0.006634,-0.011281
1609045356061547995,241,1609045356061547995,-0.001397,-0.000962,0.00239,0.999688,-1.4e-05,0.024224,-0.006012,0.006171,0.00742,0.002897,0.026873,0.007736,-0.012375
1609045356131896019,242,1609045356131896019,-0.005622,-0.00069,0.001181,0.999693,-0.00014,0.024006,-0.006071,-0.002551,0.000388,-0.001956,0.001255,0.001235,0.009546
1609045356233950853,243,1609045356233950853,-0.004904,-0.005421,0.001132,0.999694,-4.9e-05,0.02406,-0.005683,-0.001606,-0.009804,-0.002821,0.002192,-0.000724,0.0074
1609045356337673187,244,1609045356337673187,-0.005376,-0.002609,0.001565,0.999692,-8.4e-05,0.024088,-0.00582,-0.00251,-0.005383,-0.00147,0.011207,0.003862,0.001744
1609045356439819813,245,1609045356439819813,-0.003275,-0.005436,0.000215,0.999691,-0.000314,0.024123,-0.005911,0.002177,-0.007062,-0.003136,0.013318,0.002932,-0.00122
1609045356542840481,246,1609045356542840481,-0.003575,-0.003082,0.001616,0.999695,-0.000192,0.02402,-0.005615,0.003601,0.001262,0.001541,0.014463,0.006626,-0.001761
1609045356646822929,247,1609045356646822929,-0.001757,-0.004188,0.002284,0.999695,-2.7e-05,0.024042,-0.005522,0.002764,-0.002049,0.004417,0.0186,0.005354,-0.004948
1609045356755345106,248,1609045356755345106,-0.002203,-0.004912,0.002201,0.999693,-7.7e-05,0.024074,-0.00582,-0.000885,-0.000603,0.003634,0.024028,0.007704,-0.010498
1609045356858777046,249,1609045356858777046,-0.005203,-0.002333,0.00186,0.999689,-5.6e-05,0.024206,-0.005977,-0.004596,0.005325,0.001979,0.026792,0.007792,-0.012272
1609045356962072849,250,1609045356962072849,-0.007084,-0.001383,0.002542,0.999687,-6.9e-05,0.024202,-0.006255,-0.008226,0.00753,0.003644,0.025777,0.007684,-0.012898
1609045357031393528,251,1609045357031393528,-0.005689,-0.004552,0.001342,0.999692,-0.000185,0.02411,-0.005706,-0.004667,-0.005355,-0.001852,0.000413,0.000598,0.008582
1609045357135710001,252,1609045357135710001,-0.005784,-0.003596,0.00063,0.999694,-0.000203,0.023976,-0.005946,-0.003952,-0.002954,-0.002492,0.006403,0.001743,0.004949
1609045357238911152,253,1609045357238911152,-0.002649,-0.004884,0.00114,0.999695,-0.000216,0.023997,-0.005775,0.0017,-0.001784,-0.000299,0.011166,0.004947,0.001271
1609045357340174675,254,1609045357340174675,-0.004679,-0.005839,0.001303,0.999694,-0.000153,0.024059,-0.005718,-0.00405,-0.00142,0.001412,0.011435,0.005151,-0.000203
1609045357443092585,255,1609045357443092585,-0.007159,-0.00715,0.000676,0.999693,-0.000161,0.024062,-0.005802,-0.009104,-0.004463,0.000314,0.013537,0.004239,-0.001261
1609045357546181679,256,1609045357546181679,-0.005537,-0.002673,0.000361,0.999691,-0.000328,0.024128,-0.005888,-0.005069,0.005747,8.6e-05,0.015117,0.005405,-0.002308
1609045357649516582,257,1609045357649516582,-0.003754,-0.002876,0.001449,0.999697,7.1e-05,0.023881,-0.005798,-0.00044,0.00448,0.002072,0.021135,0.007053,-0.0059
1609045357752487183,258,1609045357752487183,-0.004476,-0.002527,0.000112,0.999694,-0.00029,0.024005,-0.005897,-0.000866,0.003392,-0.000547,0.0232,0.007735,-0.009946
1609045357855449200,259,1609045357855449200,-0.005159,-0.003414,0.000967,0.999692,-0.000101,0.024049,-0.006012,-0.00271,-0.000512,0.002226,0.025591,0.00578,-0.008036
1609045357958674669,260,1609045357958674669,-0.002976,-0.005002,0.001086,0.999689,-5.6e-05,0.024186,-0.005913,0.002512,-0.001317,0.00191,0.027322,0.005397,-0.011164
1609045358061515808,261,1609045358061515808,-0.008475,-0.004134,0.001622,0.999695,-0.000258,0.023985,-0.005822,-0.008785,0.001853,0.004409,0.028106,0.006524,-0.013142
1609045358131766319,262,1609045358131766319,-0.00764,-0.003146,0.001435,0.999692,-0.000182,0.024063,-0.00597,-0.006153,-0.003968,0.001639,0.002412,0.000562,0.007999
1609045358233575821,263,1609045358233575821,-0.009782,-0.003352,0.001542,0.999695,-0.000303,0.023948,-0.005937,-0.008201,-0.004029,5.2e-05,0.002522,0.00339,0.006455
1609045358336685419,264,1609045358336685419,-0.0048,-0.005501,0.000391,0.999693,-0.000244,0.024055,-0.005845,0.001386,-0.005383,-0.002665,0.010565,0.003328,0.003321
1609045358440450907,265,1609045358440450907,-0.00562,-0.00356,5e-06,0.999693,3e-06,0.024105,-0.005619,-0.000941,0.001158,-0.002332,0.010941,0.005585,-7e-05
1609045358542962074,266,1609045358542962074,-0.001733,-0.003386,0.001575,0.999693,-0.000212,0.024044,-0.005847,0.005234,0.001964,0.003657,0.015782,0.002856,-0.001036
1609045358646141052,267,1609045358646141052,-0.002256,-0.005007,0.00237,0.999691,-0.00012,0.024131,-0.005857,0.004785,0.00106,0.006875,0.019714,0.006107,-0.005865
1609045358749271631,268,1609045358749271631,-0.004433,-0.004793,0.001689,0.99969,-0.000239,0.024153,-0.005982,0.002052,0.001338,0.005573,0.023273,0.00801,-0.008324
1609045358852361679,269,1609045358852361679,-0.002929,-0.002661,0.000453,0.999692,-0.000154,0.024068,-0.00601,0.004018,0.005045,0.002246,0.022428,0.007999,-0.009926
1609045358955761433,270,1609045358955761433,-0.002435,-0.001538,0.001253,0.99969,-0.000122,0.024116,-0.006158,0.002999,0.003835,0.00437,0.025737,0.007511,-0.01071
1609045359058362484,271,1609045359058362484,-0.00282,-0.003892,0.000648,0.999691,-7e-06,0.024052,-0.006133,0.000579,-0.003449,0.003484,0.025564,0.005796,-0.012185
1609045359160843372,272,1609045359160843372,-0.00281,-0.005128,0.001764,0.999693,-9.7e-05,0.024043,-0.005933,-0.000177,-0.005588,0.00551,0.026006,0.005599,-0.012828
1609045359231533289,273,1609045359231533289,-0.003641,-0.002815,0.001366,0.999692,-0.000269,0.024077,-0.00591,-0.001391,-0.004345,0.002116,0.002017,7.8e-05,0.00795
1609045359333363295,274,1609045359333363295,-0.005244,-0.001447,0.002055,0.999692,-0.000192,0.0241,-0.005846,-0.004842,-0.00083,0.003353,0.004213,-0.0002,0.005716
1609045359436570168,275,1609045359436570168,-0.007521,0.000385,0.001441,0.999692,-0.000162,0.024096,-0.005935,-0.009942,0.002071,0.001902,0.008534,-0.001033,0.002679
1609045359539654970,276,1609045359539654970,-0.008307,-0.001148,0.001766,0.999693,-8.8e-05,0.024039,-0.00585,-0.007881,-0.001137,0.001968,0.013258,0.007452,0.001933
1609045359642843962,277,1609045359642843962,-0.003502,-0.001964,0.001351,0.999692,-0.000212,0.024106,-0.005815,0.00085,-0.002026,0.001587,0.012217,0.002392,-0.001564
1609045359745853186,278,1609045359745853186,-0.007036,-0.001252,0.000665,0.999694,-0.000146,0.02398,-0.006028,-0.003642,-0.001869,-0.000291,0.021498,0.00812,-0.005744
1609045359849003315,279,1609045359849003315,-0.000976,-0.002322,-0.000632,0.999693,-0.000184,0.023968,-0.006203,0.006912,-0.005712,-0.003612,0.020479,0.00747,-0.0069
1609045359952252150,280,1609045359952252150,0.001039,-0.00199,0.000122,0.999688,-4.2e-05,0.024205,-0.006036,0.00838,-0.002691,8.4e-05,0.024967,0.006197,-0.007783
1609045360055291891,281,1609045360055291891,-0.002694,-0.001919,0.001661,0.999689,-0.000216,0.02413,-0.006165,-7.1e-05,-0.003965,0.006261,0.022571,0.006213,-0.008686
1609045360158235788,282,1609045360158235788,-0.003578,-0.005885,0.001203,0.999695,-0.000202,0.024033,-0.005661,-0.001886,-0.007062,0.004621,0.025436,0.007747,-0.012982
1609045360261337519,283,1609045360261337519,-0.004301,-0.002601,0.000801,0.999691,4.8e-05,0.024052,-0.006126,-0.002704,-0.002046,0.004126,0.026572,0.004427,-0.011262
1609045360331643343,284,1609045360331643343,-0.002573,-0.003114,0.001568,0.999692,-8.3e-05,0.024083,-0.005914,-0.000407,-0.007112,0.004225,0.00046,0.001811,0.006813
1609045360433461189,285,1609045360433461189,-0.003613,-0.003327,0.000989,0.999694,-0.000136,0.024039,-0.005794,-0.003468,-0.006228,0.002461,0.00517,0.002444,0.006728
1609045360536498308,286,1609045360536498308,-0.001765,-0.000774,0.001936,0.999692,-0.000127,0.02411,-0.005834,0.000682,0.002367,0.003696,0.007444,0.002214,0.003533
1609045360639825583,287,1609045360639825583,-0.001764,-0.001836,0.002947,0.999692,-0.000126,0.02407,-0.005942,0.000205,0.000772,0.006684,0.015093,0.00555,-0.000869
1609045360742610455,288,1609045360742610455,-0.003804,-0.003056,0.002229,0.999694,-0.000238,0.023967,-0.00599,-0.002872,-0.000187,0.004432,0.015898,0.005371,-0.004546
1609045360845783234,289,1609045360845783234,-0.00583,-0.006342,0.002035,0.999695,-4.2e-05,0.023988,-0.005755,-0.0074,-0.004318,0.003397,0.017639,0.005582,-0.003933
1609045360948768616,290,1609045360948768616,4.8e-05,-0.001475,0.001851,0.999693,-0.000188,0.024036,-0.005907,0.004307,0.007008,0.001249,0.0209,0.007121,-0.006588
1609045361051918030,291,1609045361051918030,-0.00599,-0.001718,0.000397,0.999692,-0.000234,0.024008,-0.006142,-0.007106,0.008177,0.000834,0.022445,0.008089,-0.00927
1609045361154649496,292,1609045361154649496,-0.006341,-0.005134,0.000655,0.999693,-0.000112,0.024004,-0.006092,-0.00757,-0.001178,0.001786,0.027513,0.008026,-0.011366
1609045361257855892,293,1609045361257855892,-0.005321,-0.004872,0.000207,0.999692,-0.000235,0.024023,-0.006194,-0.001854,-0.000843,0.000168,0.027857,0.007369,-0.01212
1609045361360918045,294,1609045361360918045,-0.00518,-0.008421,0.000479,0.999693,-7.1e-05,0.023967,-0.006142,-0.003499,-0.008834,0.001854,0.026532,0.005357,-0.012824
1609045361431264877,295,1609045361431264877,-0.002057,-0.001779,0.001257,0.999693,-0.000228,0.024021,-0.005927,0.0043,0.002435,0.002187,0.002083,0.001349,0.006458
1609045361533029079,296,1609045361533029079,-0.006298,-0.00054,-2e-05,0.99969,-9e-05,0.02412,-0.006016,-0.005165,0.003404,-0.000397,0.003173,0.002983,0.006462
1609045361636012554,297,1609045361636012554,-0.009224,-0.003988,-0.000214,0.999694,-0.000404,0.024027,-0.005859,-0.011235,-0.005111,0.000644,0.010682,0.004827,0.001938
1609045361739068985,298,1609045361739068985,-0.005652,-0.001848,0.000879,0.999694,-0.000284,0.024034,-0.00573,-0.003651,0.001942,0.001837,0.009864,0.002244,-0.000288
1609045361842687130,299,1609045361842687130,-0.007292,-0.00424,-0.000793,0.999693,-0.000152,0.024,-0.006038,-0.00535,-0.001737,-0.001994,0.014759,0.002911,-0.001589
1609045361945674658,300,1609045361945674658,-0.005215,-0.002435,-0.000285,0.999694,-0.000171,0.024053,-0.005765,-0.002354,0.005819,0.000284,0.020286,0.007275,-0.004977
1609045362048807859,301,1609045362048807859,-0.003019,-0.00194,-0.000102,0.999688,-0.000132,0.024242,-0.005997,0.001507,0.00288,0.000335,0.023203,0.006935,-0.007483
1609045362151858568,302,1609045362151858568,-0.001716,-0.001658,-0.00048,0.999689,-0.000189,0.024143,-0.006205,0.002782,0.002317,0.000296,0.023537,0.007075,-0.009183
1609045362255241632,303,1609045362255241632,-0.000241,-0.004493,0.000264,0.999691,-0.000231,0.024126,-0.005895,0.005867,-0.001305,0.002727,0.026295,0.009435,-0.011962
1609045362358287096,304,1609045362358287096,-0.004616,-0.004164,-0.001207,0.999694,-0.000202,0.023978,-0.006011,-0.003319,-0.001449,0.000685,0.027493,0.008856,-0.01241
1609045362461383820,305,1609045362461383820,-0.000568,-0.001869,0.001434,0.99969,-0.000346,0.024106,-0.006188,0.006551,0.006965,0.005859,0.02649,0.005092,-0.013469
1609045362531601667,306,1609045362531601667,-0.003801,-0.00259,0.000489,0.999689,-0.000208,0.024185,-0.005985,-0.002277,-0.001266,0.001249,0.001213,0.001116,0.006974
1609045362633414268,307,1609045362633414268,-0.005403,-0.001937,0.000546,0.999693,-0.000231,0.024003,-0.006098,-0.004395,0.000572,0.001808,0.004685,0.001797,0.006688
1609045362736429691,308,1609045362736429691,-0.003871,-0.002735,0.00115,0.999695,-0.000202,0.023948,-0.005972,-0.000443,0.001764,0.003562,0.006726,0.002888,0.004118
1609045362839648485,309,1609045362839648485,-0.004562,-0.002794,0.00123,0.999692,-0.000189,0.024072,-0.005867,-0.002845,0.001294,0.003969,0.012535,0.005344,0.001294
1609045362942562819,310,1609045362942562819,-0.007301,9.8e-05,0.000167,0.999694,-0.000187,0.023985,-0.005988,-0.006235,0.00568,0.002223,0.012902,0.004555,-0.001271
1609045363045731306,311,1609045363045731306,-0.004882,-0.003074,0.001174,0.999691,-0.000155,0.024091,-0.005966,-0.002522,-0.001044,0.003484,0.018246,0.006079,-0.003212
1609045363148877621,312,1609045363148877621,-0.001276,-0.002557,0.001758,0.999692,-0.000289,0.024051,-0.006,0.005447,0.000233,0.004919,0.021201,0.006947,-0.007994
1609045363252388000,313,1609045363252388000,-0.002839,-0.00078,2.4e-05,0.999691,-0.000213,0.024101,-0.006052,0.003312,0.00544,0.000751,0.027533,0.007386,-0.009551
1609045363355829716,314,1609045363355829716,1.9e-05,-0.002035,0.001226,0.999692,-0.000261,0.024023,-0.006116,0.00613,0.002002,0.004247,0.024238,0.006517,-0.010293
1609045363457896709,315,1609045363457896709,-0.001931,-0.004016,0.00092,0.999691,-0.000103,0.024069,-0.006079,0.002723,-0.000641,0.003708,0.02682,0.006656,-0.012
1609045363561176062,316,1609045363561176062,-0.004134,-0.002501,-3e-05,0.999693,-0.000186,0.024019,-0.006027,-0.002692,0.000866,0.001113,0.027496,0.005956,-0.011617
1609045363631531000,317,1609045363631531000,-0.003926,-0.001517,0.000361,0.999693,-0.000213,0.024041,-0.005893,-0.002597,-0.002624,0.001251,0.0012,0.001284,0.008348
1609045363733346224,318,1609045363733346224,-0.004216,-0.00226,-0.000155,0.999693,-0.000256,0.024041,-0.005834,-0.003364,-0.00289,-0.000258,0.003673,0.001554,0.005646
1609045363836479187,319,1609045363836479187,-0.003601,-0.002029,0.00062,0.999692,-0.000116,0.024081,-0.005961,-0.004196,-0.000479,0.003043,0.008398,0.002411,0.002232
1609045363939492702,320,1609045363939492702,-0.002431,-0.000116,0.002463,0.999692,-0.000322,0.024098,-0.005877,-0.001176,0.004255,0.006149,0.010164,0.002734,0.002419
1609045364042618275,321,1609045364042618275,-0.004478,-0.003296,0.001612,0.999691,-0.000261,0.024147,-0.005826,-0.006461,-0.003985,0.004115,0.015831,0.003582,-0.003228
1609045364145671606,322,1609045364145671606,-0.005351,-0.003238,0.001856,0.99969,-0.000274,0.024169,-0.005904,-0.00645,-0.004386,0.004303,0.015547,0.005716,-0.002662
1609045364248308420,323,1609045364248308420,-0.005661,-0.005549,0.000511,0.999692,-0.000153,0.024051,-0.006112,-0.005231,-0.009913,-0.000116,0.020939,0.008136,-0.008068
1609045364352055788,324,1609045364352055788,-0.004386,-0.007555,-0.001106,0.999689,-0.000285,0.024222,-0.005879,-0.002301,-0.01073,-0.005516,0.01994,0.007051,-0.007423
1609045364455469131,325,1609045364455469131,-0.000141,-0.00564,-0.000109,0.999691,-0.000294,0.024152,-0.00577,0.005258,-0.004404,-0.001622,0.026778,0.007192,-0.010859
1609045364558759212,326,1609045364558759212,-0.005755,-0.003616,-0.000873,0.99969,-0.000387,0.024099,-0.006222,-0.006751,-0.001548,-0.001418,0.026942,0.006945,-0.01146
1609045364661556721,327,1609045364661556721,-0.004756,-0.005704,-0.000878,0.999692,-0.000216,0.024039,-0.006104,-0.002979,-0.004988,-0.001795,0.025912,0.007443,-0.013495
1609045364731485605,328,1609045364731485605,-0.001807,0.000376,0.002392,0.999693,-0.000226,0.024052,-0.005848,0.003003,0.004887,0.004765,0.003127,0.001183,0.006955
1609045364833323240,329,1609045364833323240,-0.005457,-0.000361,0.001773,0.999693,-0.000301,0.024031,-0.005893,-0.004401,0.003152,0.005329,0.002016,-0.000468,0.006994
1609045364936540127,330,1609045364936540127,-0.006915,0.000727,0.001567,0.999691,-0.000191,0.024089,-0.005974,-0.006249,0.003253,0.004079,0.009842,0.00397,0.003889
1609045365038934946,331,1609045365038934946,-0.005676,-0.000321,0.001194,0.999693,-0.000306,0.024018,-0.005941,-0.002954,-0.000617,0.001865,0.010012,0.00311,0.002898
1609045365141975403,332,1609045365141975403,-0.006243,-0.003782,0.001194,0.999692,-6.7e-05,0.024094,-0.005927,-0.002571,-0.007854,0.002156,0.014028,0.003362,-0.002038
1609045365245730400,333,1609045365245730400,-0.001304,-0.001471,0.001382,0.999691,-7e-05,0.024122,-0.005864,0.007188,-0.000619,0.002239,0.018521,0.005743,-0.004552
1609045365348766327,334,1609045365348766327,-0.003772,-0.002991,0.000338,0.999695,3.3e-05,0.023956,-0.005972,0.003181,-0.000808,0.000395,0.023212,0.008343,-0.008294
1609045365452180862,335,1609045365452180862,-0.004805,-0.007106,0.000319,0.999689,-0.000155,0.024163,-0.006015,-0.001661,-0.008361,0.000773,0.024461,0.00724,-0.00868
1609045365555227280,336,1609045365555227280,-0.004786,-0.003447,0.000924,0.99969,-8.8e-05,0.024153,-0.006017,-0.00238,0.00125,0.002656,0.025467,0.008145,-0.011851
1609045365658289433,337,1609045365658289433,-0.003827,-0.003632,0.000351,0.999689,-0.000281,0.024149,-0.006145,0.002199,0.002564,0.001894,0.027121,0.00883,-0.011328
1609045365761258364,338,1609045365761258364,-0.003295,-0.00074,0.000492,0.999693,7.2e-05,0.024004,-0.006032,0.000987,0.009235,0.002173,0.025626,0.004483,-0.012257
1609045365831453323,339,1609045365831453323,-0.002456,0.000286,2.2e-05,0.999692,-0.000206,0.024049,-0.006025,0.001427,0.002785,-0.000381,0.001287,-0.000243,0.007155
1609045365933325768,340,1609045365933325768,-0.001508,-0.001856,0.000186,0.999693,-0.00014,0.024064,-0.005786,0.00198,-0.001806,0.000272,0.005291,0.001768,0.005854
1609045366036532164,341,1609045366036532164,-0.004137,-0.002806,-0.000594,0.999693,-0.000283,0.024119,-0.005662,-0.00368,0.000766,-0.000983,0.00773,0.002782,0.00439
1609045366140005350,342,1609045366140005350,-0.007959,-0.005188,-0.001489,0.999695,-0.000149,0.023976,-0.005873,-0.00917,-0.005278,-0.001753,0.012697,0.005295,0.000331
1609045366242765188,343,1609045366242765188,-0.00161,-0.001642,0.000714,0.999694,-2.7e-05,0.024056,-0.005747,0.004068,0.004351,0.003173,0.012768,0.004165,-0.001275
1609045366345786810,344,1609045366345786810,-0.003035,-0.002076,-0.000244,0.999692,-8.1e-05,0.024095,-0.005911,0.002251,0.002087,0.000669,0.017416,0.005014,-0.003188
1609045366448918104,345,1609045366448918104,0.00406,-0.004296,0.00069,0.999691,-2.5e-05,0.024166,-0.005822,0.014107,-0.002265,0.002324,0.020161,0.006296,-0.006506
1609045366551988602,346,1609045366551988602,0.002153,-0.00277,0.000654,0.999688,-0.000313,0.024204,-0.006012,0.008615,-0.001657,0.003423,0.026076,0.007134,-0.007945
1609045366655180216,347,1609045366655180216,-0.001768,-0.001625,7.7e-05,0.999691,-0.000104,0.02409,-0.006077,-0.000677,0.00128,0.000786,0.025282,0.006644,-0.011789
1609045366758187532,348,1609045366758187532,-0.004746,-0.004383,0.001104,0.999689,-1.5e-05,0.024167,-0.006015,-0.008587,-0.00346,0.003466,0.028434,0.007845,-0.010341
1609045366861323833,349,1609045366861323833,-0.001089,-0.002927,0.002093,0.999691,-0.000173,0.024072,-0.006046,0.001726,0.003436,0.006424,0.025372,0.006373,-0.012693
1609045366931638479,350,1609045366931638479,-0.003409,-0.004689,0.001461,0.999692,-0.000194,0.02406,-0.005924,-0.003271,-0.007851,0.004306,0.003516,0.001452,0.005753
1609045367033211946,351,1609045367033211946,-0.003905,-0.003266,0.001475,0.999693,-0.000124,0.023994,-0.006088,-0.003244,-0.003498,0.002716,0.000939,-0.001419,0.007578
1609045367136453152,352,1609045367136453152,-0.00447,-0.005779,0.000934,0.999694,-0.00019,0.024053,-0.005661,-0.005117,-0.006208,0.001102,0.009527,0.0029,0.0017
1609045367239051580,353,1609045367239051580,-0.003982,-0.005195,0.000972,0.999694,-0.000215,0.024037,-0.00581,-0.001702,-0.002549,0.002018,0.012208,0.004673,0.000231
1609045367342326403,354,1609045367342326403,-0.004563,-3.1e-05,0.000242,0.999693,-5.4e-05,0.024044,-0.005968,-0.003399,0.008723,0.000645,0.015417,0.004853,-0.00142
1609045367445249319,355,1609045367445249319,-0.004913,-0.001034,-0.000332,0.999692,-8.5e-05,0.024096,-0.005925,-0.002511,0.007069,0.000373,0.019083,0.006379,-0.003752
1609045367548366070,356,1609045367548366070,-0.002807,-0.001854,0.000116,0.999692,-0.000271,0.024072,-0.005992,-7e-05,0.00154,0.000838,0.021552,0.006462,-0.007118
1609045367651268005,357,1609045367651268005,-0.00449,-0.003805,-0.001225,0.999691,-0.000159,0.024158,-0.005817,-0.004004,-0.003217,-0.001528,0.023694,0.006434,-0.008774
1609045367754429579,358,1609045367754429579,-0.002728,-0.004872,0.000897,0.999688,-0.000266,0.024211,-0.006011,-0.000985,-0.005392,0.003686,0.026298,0.007771,-0.010806
1609045367857505083,359,1609045367857505083,-0.0069,-0.003693,0.001057,0.999692,-0.000116,0.024089,-0.005928,-0.007413,-0.001724,0.004237,0.026165,0.008197,-0.011965
1609045367960665464,360,1609045367960665464,-0.003584,-0.003712,0.001336,0.999692,-0.000226,0.024012,-0.00623,-0.00093,-0.000832,0.003878,0.027892,0.006363,-0.012518
1609045368030850410,361,1609045368030850410,-0.00271,-0.003396,4.3e-05,0.999692,-0.00019,0.024085,-0.005976,0.000361,-0.006219,-0.000495,0.001732,0.001179,0.008489
