time,field.header.seq,field.header.stamp,field.pose.pose.position.x,field.pose.pose.position.y,field.pose.pose.position.z,field.pose.pose.orientation.x,field.pose.pose.orientation.y,field.pose.pose.orientation.z,field.pose.pose.orientation.w,field.twist.twist.linear.x,field.twist.twist.linear.y,field.twist.twist.linear.z,field.twist.twist.angular.x,field.twist.twist.angular.y,field.twist.twist.angular.z
1609043644358455181,2,1609043644358455181,-0.000666,0.002271,-0.005483,0.999897,4e-05,0.013962,-0.003082,-0.00918,-0.009614,0.002562,0.002537,0.002591,0.001581
1609043644469338417,3,1609043644469338417,-0.001229,0.002133,-0.006474,0.9999,2e-06,0.013748,-0.003123,-0.007239,-0.005461,0.00099,0.017331,0.005748,-0.007685
1609043644563093901,4,1609043644563093901,-0.000606,-0.003931,-0.005745,0.999902,0.000231,0.013659,-0.002899,-0.00529,-0.01732,0.000643,0.007013,0.002575,0.000148
1609043644658436060,5,1609043644658436060,0.000309,0.000573,-0.005198,0.999898,5e-05,0.013899,-0.003078,-0.003035,-0.008621,0.001077,0.0032,0.004638,0.00255
1609043644769431829,6,1609043644769431829,-0.00055,0.004482,-0.006584,0.9999,0.000125,0.013669,-0.003344,-0.003507,0.00317,-0.000277,0.020411,0.004555,-0.00813
1609043644862985611,7,1609043644862985611,-0.000494,0.001778,-0.004958,0.999902,0.000127,0.013579,-0.003314,-0.002827,-0.001881,0.003243,0.011162,0.004353,-0.001493
1609043644958410501,8,1609043644958410501,0.003056,0.004953,-0.007408,0.999897,7e-06,0.013963,-0.003167,0.005598,0.001181,-0.000881,0.003432,0.004968,0.001903
1609043645069318771,9,1609043645069318771,0.001537,0.00281,-0.004888,0.999896,0.000186,0.013943,-0.003439,0.00105,-0.000486,0.005518,0.019696,0.007151,-0.006832
1609043645163171768,10,1609043645163171768,0.00198,0.003645,-0.007009,0.999897,0.000106,0.013893,-0.003417,0.001324,-0.003401,-0.000328,0.011314,0.004863,-0.00238
1609043645258130550,11,1609043645258130550,-0.000336,0.003726,-0.005801,0.999899,2.6e-05,0.013819,-0.003241,-0.005077,-0.004218,0.000267,0.001733,0.004453,0.003129
1609043645369126797,12,1609043645369126797,0.00066,-0.000956,-0.005423,0.999897,0.000146,0.013961,-0.003114,-0.004764,-0.007959,0.003779,0.019859,0.003271,-0.006966
1609043645462871075,13,1609043645462871075,-0.000919,0.002854,-0.005069,0.9999,8.2e-05,0.013743,-0.003134,-0.004776,-0.000678,0.002758,0.010287,0.002668,-0.002675
1609043645558333874,14,1609043645558333874,0.000573,0.000844,-0.006723,0.999897,-4.9e-05,0.013983,-0.003055,-0.000163,-0.005774,-0.001321,-3.4e-05,0.000917,0.004134
1609043645669221401,15,1609043645669221401,0.001483,0.004047,-0.006788,0.999898,2e-05,0.013944,-0.00307,6.4e-05,0.00272,0.000353,0.018116,0.004265,-0.007126
1609043645762687922,16,1609043645762687922,0.003386,0.00236,-0.005792,0.999898,0.000102,0.013934,-0.003038,0.005547,-0.001805,0.001589,0.009904,0.005726,-0.002187
1609043645857906580,17,1609043645857906580,0.000439,0.004808,-0.00662,0.999895,6.7e-05,0.014068,-0.003198,-0.002906,-8.3e-05,-0.002195,-0.000252,0.002777,0.004126
1609043645968871355,18,1609043645968871355,-0.001627,0.00326,-0.006023,0.999897,0.0002,0.013889,-0.003433,-0.006221,0.000976,-0.000396,0.021532,0.00509,-0.007827
1609043646062448025,19,1609043646062448025,-0.000627,0.005862,-0.006151,0.999898,8e-06,0.013884,-0.003227,-0.001499,0.002642,-0.000532,0.00716,0.003465,-0.00017
1609043646157720804,20,1609043646157720804,-0.000493,0.002719,-0.006461,0.999897,0.000109,0.013956,-0.003191,-0.000436,-0.004641,-0.000845,0.002476,0.004487,0.002249
1609043646268861771,21,1609043646268861771,-0.001104,0.002789,-0.006618,0.999899,1.2e-05,0.013794,-0.003207,-0.001651,-0.002116,0.001994,0.020981,0.005851,-0.008912
1609043646362523079,22,1609043646362523079,-0.00094,0.003431,-0.007066,0.999897,-4.6e-05,0.013936,-0.003284,-0.001319,-0.001673,3.5e-05,0.010678,0.005988,-0.001392
1609043646457710505,23,1609043646457710505,0.000314,-0.000883,-0.004977,0.999899,0.000148,0.013809,-0.003202,0.001499,-0.010196,0.005831,0.005199,0.004202,0.00135
1609043646568797588,24,1609043646568797588,0.000817,0.000781,-0.00619,0.999899,8.6e-05,0.013778,-0.003257,0.002841,-0.003752,0.000962,0.019252,0.004426,-0.005583
1609043646662518740,25,1609043646662518740,5.4e-05,-7.3e-05,-0.00512,0.9999,0.000168,0.013734,-0.003266,0.000896,-0.004687,0.002369,0.014777,0.00478,-0.003403
1609043646757744074,26,1609043646757744074,0.003817,0.003689,-0.004065,0.999896,8e-06,0.014009,-0.003179,0.008689,0.000138,0.004062,1.1e-05,0.002033,0.003109
1609043646868740320,27,1609043646868740320,0.00219,0.003858,-0.007073,0.999896,9.3e-05,0.013969,-0.003305,0.004025,0.001526,-0.000733,0.018682,0.004299,-0.007474
1609043646962521076,28,1609043646962521076,-0.000147,0.001832,-0.003915,0.999899,0.000112,0.013834,-0.003093,-0.00251,-0.002282,0.005334,0.008526,0.003987,-0.000975
1609043647057955742,29,1609043647057955742,0.000371,0.003013,-0.005972,0.999901,4.5e-05,0.013628,-0.003252,-0.000601,-0.000838,0.000898,0.005603,0.0059,0.001003
1609043647168937922,30,1609043647168937922,-0.001903,0.003062,-0.0057,0.999901,5e-06,0.013643,-0.00333,-0.005206,-0.000585,0.002109,0.018894,0.002871,-0.007754
1609043647262681484,31,1609043647262681484,-0.001732,0.006129,-0.006046,0.9999,-2.7e-05,0.013699,-0.003356,-0.005426,0.004065,0.000271,0.008713,0.003826,-0.000932
1609043647358197689,32,1609043647358197689,0.000451,0.000556,-0.004792,0.9999,0.000145,0.013759,-0.00324,0.001729,-0.005788,0.002456,0.002708,0.003575,0.001893
1609043647468885422,33,1609043647468885422,0.001178,0.002985,-0.006002,0.999897,0.00013,0.013898,-0.003433,0.003415,0.002209,5.6e-05,0.021842,0.006274,-0.008615
1609043647562643766,34,1609043647562643766,-0.000815,0.004308,-0.007229,0.999897,-2.3e-05,0.013892,-0.0035,-0.000539,0.002589,-0.003763,0.012307,0.004516,-0.003069
1609043647657835484,35,1609043647657835484,0.00102,0.003891,-0.005444,0.9999,3.5e-05,0.013737,-0.003316,0.003019,0.0008,0.00014,0.002702,0.003599,0.002732
1609043647769203424,36,1609043647769203424,0.000412,0.004013,-0.005835,0.999896,4.4e-05,0.013936,-0.003684,-0.001584,0.002804,0.001356,0.025651,0.007249,-0.010134
1609043647862541199,37,1609043647862541199,-0.000833,0.001867,-0.004244,0.999899,4.6e-05,0.013721,-0.003568,-0.001955,-0.003512,0.004077,0.010143,0.0035,-0.000976
1609043647957784891,38,1609043647957784891,0.00109,0.001527,-0.007232,0.999899,9.6e-05,0.013824,-0.003182,0.003951,-0.005795,-0.002246,0.003089,0.004325,0.002489
1609043648068687439,39,1609043648068687439,0.000822,0.001355,-0.008045,0.999897,6.5e-05,0.013914,-0.00323,0.003497,-0.002044,-0.005474,0.017372,0.005293,-0.006806
1609043648162494183,40,1609043648162494183,-0.001,0.003882,-0.006742,0.9999,-6.8e-05,0.013742,-0.003189,-0.001157,0.000648,-0.001497,0.008675,0.003742,-0.000608
1609043648257946968,41,1609043648257946968,0.002713,0.001633,-0.006453,0.999894,0.000129,0.014103,-0.0034,0.00658,-0.005994,-0.001615,0.003137,0.003373,0.003007
1609043648369037151,42,1609043648369037151,-0.000102,0.002958,-0.007093,0.9999,0.000241,0.013686,-0.003481,0.001469,-0.000287,-0.0004,0.020714,0.004203,-0.009684
1609043648462505102,43,1609043648462505102,0.002064,0.003745,-0.00583,0.999897,0.000134,0.013938,-0.003232,0.003281,-0.001509,0.002423,0.011449,0.005353,-0.001871
1609043648557770014,44,1609043648557770014,0.000587,0.00313,-0.005425,0.999897,-2e-05,0.013886,-0.003346,-0.001106,-0.00429,0.004367,0.005055,0.00388,0.001199
1609043648668736219,45,1609043648668736219,0.000226,0.004747,-0.005317,0.999902,0.000131,0.013567,-0.003367,-0.001162,0.001782,0.004548,0.019179,0.007448,-0.007635
1609043648762487411,46,1609043648762487411,0.002101,0.002981,-0.007071,0.999898,0.000149,0.013857,-0.003265,0.004019,-0.00139,-0.000909,0.013835,0.006296,-0.004133
1609043648857475996,47,1609043648857475996,0.001184,0.000496,-0.00439,0.999897,-1.7e-05,0.013976,-0.003123,0.000963,-0.008345,0.003483,0.001077,0.004733,0.005254
1609043648968594790,48,1609043648968594790,0.000551,0.003238,-0.009742,0.999901,0.000223,0.013646,-0.003176,0.001794,-0.001048,-0.006404,0.019216,0.004977,-0.005883
1609043649062355757,49,1609043649062355757,-0.000623,0.002309,-0.00574,0.999899,-1.3e-05,0.013792,-0.003224,-0.002294,-0.003347,0.004259,0.012959,0.00454,-0.003691
1609043649157798290,50,1609043649157798290,-0.001993,0.004369,-0.0043,0.999901,0.000107,0.013569,-0.003529,-0.004365,-0.002472,0.004602,-0.001162,0.00234,0.004017
1609043649268594980,51,1609043649268594980,-0.000315,0.00388,-0.004136,0.999897,2.2e-05,0.013965,-0.003266,-0.001361,-0.000223,0.005155,0.017489,0.004152,-0.006599
1609043649362310410,52,1609043649362310410,0.000715,0.004648,-0.005837,0.999898,-6.3e-05,0.013897,-0.003025,0.000694,0.001508,0.00017,0.008918,0.005233,-3.1e-05
1609043649457795382,53,1609043649457795382,0.002898,0.003146,-0.006227,0.999897,6.5e-05,0.013973,-0.003137,0.005016,-0.004827,-0.00063,0.003119,0.004809,0.002719
1609043649568291664,54,1609043649568291664,0.001425,0.004184,-0.006796,0.999897,0.000109,0.013933,-0.003219,0.001787,-0.000136,-0.003092,0.01744,0.004086,-0.006793
1609043649662141562,55,1609043649662141562,-0.000326,0.004615,-0.005993,0.9999,1.5e-05,0.01372,-0.003261,-0.003382,-0.000402,3e-06,0.007331,0.004815,-0.000209
1609043649757415295,56,1609043649757415295,0.003378,0.002579,-0.006091,0.999896,0.000118,0.01405,-0.003144,0.005763,-0.005579,-0.002014,0.002405,0.004222,0.003471
1609043649868411541,57,1609043649868411541,0.001787,0.00373,-0.007026,0.999897,7.1e-05,0.013967,-0.003231,0.002001,-0.000902,-0.003004,0.021063,0.004981,-0.007989
1609043649962271690,58,1609043649962271690,-0.000523,0.002724,-0.005741,0.9999,2.2e-05,0.013708,-0.003333,-0.005125,-0.005847,0.000837,0.012948,0.005497,-0.002823
1609043650057523012,59,1609043650057523012,-0.001891,0.003025,-0.008728,0.9999,3.1e-05,0.01377,-0.002956,-0.006868,-0.004786,-0.005372,0.002292,0.003517,0.00333
1609043650168541908,60,1609043650168541908,-0.001266,-0.00028,-0.007329,0.999898,5.8e-05,0.013911,-0.003175,-0.005266,-0.005389,-0.000371,0.020625,0.003154,-0.008792
1609043650262203693,61,1609043650262203693,-0.002913,0.002895,-0.00683,0.999901,-2.7e-05,0.013665,-0.003164,-0.007961,-0.00131,0.001376,0.011032,0.004334,-0.000994
1609043650357485294,62,1609043650357485294,-0.001618,0.000497,-0.007532,0.999901,7.8e-05,0.013668,-0.003135,-0.004743,-0.005543,-0.000228,0.00204,0.00328,0.002709
1609043650468751192,63,1609043650468751192,0.001294,0.00278,-0.007118,0.999899,0.000235,0.013812,-0.003164,0.002207,0.002917,0.002335,0.015542,0.005453,-0.004468
1609043650562211752,64,1609043650562211752,0.00055,0.002611,-0.00547,0.999899,0.000164,0.013775,-0.003357,0.000503,-0.000773,0.004881,0.013371,0.005776,-0.00429
1609043650657418489,65,1609043650657418489,0.001421,0.004751,-0.005415,0.999897,6e-06,0.013897,-0.003426,0.000136,-0.000115,0.00476,0.00287,0.003534,0.002365
1609043650768271446,66,1609043650768271446,5.5e-05,0.006339,-0.004548,0.9999,-4.8e-05,0.013666,-0.003579,-0.002957,0.003117,0.006898,0.018169,0.003827,-0.006594
1609043650862178802,67,1609043650862178802,-0.000432,0.002598,-0.005051,0.999895,3.3e-05,0.014003,-0.003633,-0.004282,-0.006659,0.005579,0.009007,0.005272,0.000282
1609043650957247257,68,1609043650957247257,-0.001459,0.004029,-0.006937,0.999899,-1.5e-05,0.013733,-0.003483,-0.004728,-0.003854,0.000543,0.000964,0.003521,0.00392
1609043651068470478,69,1609043651068470478,-0.000297,0.002914,-0.005451,0.999898,0.000256,0.013807,-0.003388,-0.003623,-0.001469,0.005102,0.020903,0.004822,-0.00852
1609043651162469625,70,1609043651162469625,-0.000446,0.000282,-0.005054,0.999901,0.000146,0.01362,-0.003405,-0.002536,-0.009623,0.004349,0.010802,0.005097,-0.001617
1609043651257454872,71,1609043651257454872,-0.002062,0.002522,-0.003846,0.9999,0.000127,0.013687,-0.003488,-0.006558,-0.006491,0.005673,0.005388,0.003995,0.001624
1609043651368612766,72,1609043651368612766,0.001105,0.003507,-0.006165,0.999896,0.000112,0.013956,-0.003395,-0.001562,-0.001994,0.000302,0.019625,0.004234,-0.00772
1609043651462187290,73,1609043651462187290,-0.000589,0.002833,-0.004861,0.999899,9.6e-05,0.0138,-0.003249,-0.00613,-0.003515,0.005589,0.013985,0.005045,-0.003759
1609043651557303905,74,1609043651557303905,-0.00063,0.003115,-0.00619,0.999899,0.000232,0.013737,-0.003393,-0.003758,-0.004112,0.002649,0.003257,0.003546,0.003479
1609043651668114901,75,1609043651668114901,-0.002324,0.002587,-0.004187,0.999899,0.000178,0.013792,-0.00321,-0.00721,0.000222,0.007326,0.014961,0.004781,-0.005844
1609043651762060642,76,1609043651762060642,-0.000904,0.002658,-0.007211,0.999899,7.1e-05,0.013834,-0.003181,-0.003664,0.001037,-0.001155,0.013991,0.005521,-0.004279
1609043651857352972,77,1609043651857352972,-0.000793,0.000799,-0.002008,0.999897,0.000108,0.01392,-0.003314,-0.000137,-0.005046,0.008045,0.000648,0.003914,0.00442
1609043651968310595,78,1609043651968310595,0.001329,0.002094,-0.005075,0.999896,0.000181,0.014066,-0.003097,0.004912,0.002791,0.002555,0.017053,0.002139,-0.005228
1609043652062166929,79,1609043652062166929,0.000269,0.001126,-0.004922,0.999899,9.6e-05,0.01377,-0.003406,0.000636,-0.000789,0.000368,0.012095,0.005847,-0.004766
1609043652157705307,80,1609043652157705307,0.001926,0.001887,-0.006188,0.999898,2e-06,0.013904,-0.003156,0.003158,-0.002963,-0.003636,0.001957,0.003154,0.003826
1609043652269840002,81,1609043652269840002,0.001039,0.001977,-0.007013,0.999897,0.000264,0.013902,-0.003343,0.000276,0.000689,-0.003959,0.025557,0.005264,-0.0095
1609043652363836050,82,1609043652363836050,-0.000609,0.000765,-0.006806,0.999899,0.000113,0.013799,-0.00323,-0.002284,-0.001136,-0.002127,0.014826,0.004951,-0.00459
1609043652457461596,83,1609043652457461596,0.000457,0.001317,-0.006713,0.999899,0.000118,0.013832,-0.003227,0.000753,-0.002123,-0.002491,0.002886,0.00322,0.002688
1609043652569962263,84,1609043652569962263,-0.000627,0.004311,-0.004614,0.999894,4.4e-05,0.014054,-0.003545,-0.003908,0.005314,0.004224,0.022096,0.004883,-0.008506
1609043652663848162,85,1609043652663848162,-0.001097,0.003665,-0.006027,0.999897,5.2e-05,0.013949,-0.003237,-0.003962,0.004221,0.000161,0.014298,0.004165,-0.00511
1609043652757586002,86,1609043652757586002,0.000969,0.000822,-0.004743,0.999897,0.000194,0.013931,-0.003399,-0.001643,-0.005868,0.003997,-0.000275,0.000164,0.00478
1609043652871131420,87,1609043652871131420,0.000128,0.004251,-0.005034,0.999898,0.000178,0.013856,-0.003242,-0.001125,0.006644,0.004922,0.026275,0.006269,-0.009622
1609043652963475227,88,1609043652963475227,-0.000349,0.002816,-0.00652,0.9999,-4e-05,0.013693,-0.003305,-0.000808,0.002707,0.000113,0.011588,0.006343,-0.005048
1609043653058115005,89,1609043653058115005,-0.000264,0.00587,-0.005533,0.9999,-0.000113,0.013701,-0.00345,-0.001834,0.005494,0.000531,-0.001217,0.0023,0.004479
1609043653169545650,90,1609043653169545650,-0.000843,0.003304,-0.004586,0.999901,-0.000108,0.013623,-0.003474,-0.000875,0.001269,0.004563,0.018113,0.004543,-0.007488
1609043653263297319,91,1609043653263297319,-0.000989,0.004348,-0.005743,0.9999,3.5e-05,0.01372,-0.003284,-0.000907,0.000263,0.001648,0.012426,0.005963,-0.003994
1609043653357565403,92,1609043653357565403,-0.000309,0.004772,-0.006277,0.999897,1.8e-05,0.013904,-0.003285,0.000987,-0.001149,0.000855,0.005257,0.003617,0.000801
1609043653470639229,93,1609043653470639229,0.00079,0.003191,-0.00829,0.9999,8.2e-05,0.013751,-0.003128,0.00623,7.9e-05,-0.002528,0.01874,0.004401,-0.007285
1609043653563307524,94,1609043653563307524,0.000108,0.000257,-0.006877,0.999902,-6.2e-05,0.013642,-0.003043,0.003647,-0.007648,0.00021,0.0126,0.005753,-0.003916
1609043653657113314,95,1609043653657113314,0.003784,0.003743,-0.005311,0.999896,-2.6e-05,0.013972,-0.003375,0.011075,-0.006427,0.002366,9.4e-05,0.00248,0.003135
1609043653757525444,96,1609043653757525444,-0.001528,0.003167,-0.004092,0.999897,-7.2e-05,0.013953,-0.003299,-0.006091,-0.005213,0.006273,0.000845,0.004796,0.003189
1609043653866878510,97,1609043653866878510,-3.3e-05,0.003697,-0.002642,0.999897,4e-05,0.013868,-0.003438,0.000908,-0.000389,0.009041,0.020297,0.003044,-0.008455
1609043653960734367,98,1609043653960734367,0.000111,0.002662,-0.004306,0.999895,-5.2e-05,0.014064,-0.003416,0.001769,-0.00353,0.001779,0.004856,0.003526,0.001623
1609043654057466269,99,1609043654057466269,-0.003775,0.004232,-0.004981,0.9999,-8.5e-05,0.013727,-0.003366,-0.011319,-0.001361,0.000513,0.002838,0.003118,0.002929
1609043654167167664,100,1609043654167167664,-0.000165,0.003932,-0.005833,0.999899,8.8e-05,0.013757,-0.003512,-0.001764,-0.002363,-0.000486,0.019234,0.004109,-0.006923
1609043654261045218,101,1609043654261045218,-0.000239,0.007903,-0.007166,0.999896,-3.8e-05,0.014004,-0.003263,-0.000158,0.00447,-0.003484,0.00957,0.004968,-0.001502
1609043654357563496,102,1609043654357563496,0.001883,0.004842,-0.005266,0.999895,5.6e-05,0.014092,-0.003354,0.001166,-0.002969,0.001111,0.004325,0.00478,0.001561
1609043654466949940,103,1609043654466949940,0.001033,0.00531,-0.004644,0.999897,5.4e-05,0.013858,-0.003481,-5.6e-05,-0.001322,0.003783,0.016475,0.003796,-0.007078
1609043654563715935,104,1609043654563715935,0.00117,0.002686,-0.006819,0.999899,0.000131,0.01378,-0.003321,0.001923,-0.005746,-0.001638,0.013787,0.005242,-0.004071
1609043654657459497,105,1609043654657459497,0.001002,0.002619,-0.004565,0.999896,-5.8e-05,0.013958,-0.003454,-0.001873,-0.006692,0.001819,0.000508,0.001295,0.001633
1609043654768309116,106,1609043654768309116,0.001594,0.001736,-0.005034,0.999898,-3.1e-05,0.013883,-0.003311,-0.0006,-0.003761,0.002448,0.016435,0.003724,-0.006728
1609043654861835241,107,1609043654861835241,-0.000277,0.003235,-0.00537,0.999897,-1.3e-05,0.013943,-0.003297,-0.006491,-0.002039,0.000457,0.011782,0.005737,-0.003629
1609043654958330154,108,1609043654958330154,-0.00093,0.001351,-0.004447,0.999898,6.2e-05,0.013893,-0.00326,-0.006001,-0.00668,0.003752,0.004273,0.003422,0.001416
1609043655068126678,109,1609043655068126678,-0.001235,0.00177,-0.004828,0.999897,-7e-06,0.01394,-0.003234,-0.003771,-0.001901,0.002418,0.020629,0.004032,-0.007924
1609043655162305593,110,1609043655162305593,0.001359,0.001125,-0.003399,0.999901,0.000191,0.013661,-0.003193,0.004624,-0.001708,0.00575,0.010892,0.007079,-0.004116
1609043655257472992,111,1609043655257472992,0.001729,-0.000168,-0.005528,0.9999,0.000155,0.013782,-0.002964,0.002598,-0.004387,-0.000155,0.0008,0.003579,0.002952
1609043655367793322,112,1609043655367793322,0.000441,0.001816,-0.003827,0.999899,0.000206,0.013756,-0.003509,0.000434,-0.001401,0.00041,0.019667,0.00387,-0.007489
1609043655463260889,113,1609043655463260889,0.000112,0.002481,-0.001271,0.999897,6e-05,0.013928,-0.003292,-0.000887,0.002346,0.006017,0.013585,0.006162,-0.003643
1609043655558698893,114,1609043655558698893,-0.000983,0.005928,-0.003109,0.999897,-0.000104,0.013888,-0.003433,-0.00562,0.004874,0.000335,0.002984,0.002829,0.002595
1609043655669824839,115,1609043655669824839,-0.000442,0.004749,-0.003391,0.999902,0.000142,0.013546,-0.003317,-0.003028,0.004364,0.000308,0.02306,0.00589,-0.009176
1609043655763274670,116,1609043655763274670,0.000517,0.005529,-0.004717,0.999903,0.000116,0.013546,-0.003233,-0.000236,0.003094,-0.000525,0.011712,0.006615,-0.001519
1609043655857172251,117,1609043655857172251,-0.000497,0.003374,-0.004967,0.999899,7.9e-05,0.013852,-0.003075,-0.001253,0.001029,-0.002621,0.006131,0.004267,-4.4e-05
1609043655972023726,118,1609043655972023726,0.001901,0.005555,-0.007176,0.999896,6.6e-05,0.013974,-0.003298,0.004424,0.009205,-0.006978,0.025254,0.007593,-0.010032
1609043656063204765,119,1609043656063204765,-0.000519,0.001715,-0.005307,0.999897,4.9e-05,0.013944,-0.003119,-0.00177,-0.001813,-0.001505,0.009503,0.003355,-0.001293
1609043656161874056,120,1609043656161874056,-0.002313,-0.000957,-0.004568,0.999898,-2.5e-05,0.013898,-0.003239,-0.008198,-0.009307,0.000812,0.008358,0.005453,-0.001034
1609043656257388115,121,1609043656257388115,0.001414,0.002849,-0.006673,0.9999,3.2e-05,0.01377,-0.003006,0.003066,-0.000458,-0.003414,0.003586,0.002943,0.002273
1609043656368046522,122,1609043656368046522,-0.001874,0.003934,-0.005311,0.999898,9e-06,0.013921,-0.002978,-0.003546,0.005198,-0.000926,0.015479,0.004306,-0.005277
1609043656457219839,123,1609043656457219839,-0.000521,-0.000317,-0.005555,0.999896,-3.7e-05,0.014038,-0.003035,-0.001431,-0.005672,-0.001069,0.000462,0.002598,0.004776
1609043656561094999,124,1609043656561094999,-0.001169,-0.002219,-0.00456,0.999898,-6e-06,0.013906,-0.002963,-0.00318,-0.007254,0.003637,0.009002,0.003583,-0.000745
1609043656663914919,125,1609043656663914919,0.001131,0.002093,-0.0077,0.9999,9.2e-05,0.013756,-0.003016,0.004539,0.002438,-0.0038,0.014796,0.006483,-0.003541
1609043656766721487,126,1609043656766721487,0.001211,0.003396,-0.006475,0.999893,-4.8e-05,0.014241,-0.003189,0.001554,0.00167,-1e-05,0.017005,0.003567,-0.004942
1609043656870594025,127,1609043656870594025,0.000666,0.001886,-0.007058,0.999899,6.2e-05,0.0138,-0.003131,0.001398,-0.000973,-0.000421,0.019528,0.004507,-0.007141
1609043656972902775,128,1609043656972902775,-0.001395,0.002488,-0.006652,0.999898,9.1e-05,0.013904,-0.003146,-0.004981,0.000427,0.00016,0.026117,0.007418,-0.00999
1609043657075711727,129,1609043657075711727,0.000104,0.002006,-0.006079,0.999898,0.000146,0.013816,-0.003363,-0.001175,-0.000381,0.000397,0.029638,0.00582,-0.012157
1609043657178982496,130,1609043657178982496,-0.001592,0.001728,-0.003399,0.999896,0.000156,0.013977,-0.003497,-0.003353,-0.000704,0.005046,0.031959,0.005703,-0.014273
1609043657283605814,131,1609043657283605814,-1.4e-05,-0.000687,-0.004137,0.999896,0.000285,0.013927,-0.003682,0.001332,-0.005211,0.003602,0.031536,0.006933,-0.014413
1609043657387769461,132,1609043657387769461,-0.002585,0.002924,-0.004603,0.999899,0.000419,0.01376,-0.00345,-0.002311,0.00565,-0.000406,0.033488,0.005631,-0.013304
1609043657456836462,133,1609043657456836462,-0.003203,0.001205,-0.002979,0.9999,6.4e-05,0.013753,-0.003095,-0.004702,-0.002444,0.002877,0.002716,0.003101,0.002637
1609043657557137251,134,1609043657557137251,-0.001828,-0.000681,-0.001849,0.999901,2.3e-05,0.013632,-0.003278,0.001218,-0.007668,0.005047,0.001133,0.001931,0.003404
1609043657660401106,135,1609043657660401106,-0.0021,0.001256,-0.001934,0.9999,-0.000187,0.01381,-0.003,-0.000504,-0.003465,0.003989,0.004534,0.00426,0.001624
1609043657769903421,136,1609043657769903421,0.002391,-0.000666,-0.004686,0.999899,0.000211,0.013776,-0.003283,0.010638,-0.002816,-0.002057,0.026296,0.008532,-0.010387
1609043657871285915,137,1609043657871285915,-0.002304,0.000743,-0.004503,0.999897,8.3e-05,0.013922,-0.003243,-0.002458,-0.002644,-0.000333,0.027599,0.0061,-0.011012
1609043657975111485,138,1609043657975111485,-0.002266,-0.00136,-0.003724,0.999898,0.000221,0.013834,-0.003262,-0.003227,-0.005865,0.003255,0.029616,0.0068,-0.013436
1609043658077710629,139,1609043658077710629,-0.003358,-0.003512,-0.003338,0.999897,0.000247,0.013862,-0.003472,-0.004131,-0.004424,0.003238,0.030257,0.007621,-0.012577
1609043658181786537,140,1609043658181786537,-0.003739,-0.002793,-0.006119,0.9999,0.000444,0.013754,-0.003209,-0.004783,0.000866,-0.00348,0.03408,0.00626,-0.015467
1609043658283475161,141,1609043658283475161,-0.003322,-0.002756,-0.00216,0.999897,0.00025,0.013872,-0.003597,-0.005445,-0.002314,0.004903,0.033278,0.003876,-0.014584
1609043658386534214,142,1609043658386534214,-0.002436,0.000833,-0.003079,0.999896,0.000325,0.013969,-0.003354,-0.000995,0.004202,0.003195,0.033499,0.00666,-0.013865
1609043658456804276,143,1609043658456804276,-0.001448,0.001822,-0.004946,0.9999,-7.3e-05,0.013784,-0.003013,0.000296,0.000466,-0.002447,0.000478,0.002064,0.003198
1609043658561256886,144,1609043658561256886,-0.000709,-0.000105,-0.003053,0.999901,3e-06,0.013625,-0.003252,0.002172,-0.007733,0.003666,0.009885,0.005225,-0.00071
1609043658668093443,145,1609043658668093443,-0.003678,0.00221,-0.002714,0.999902,3.4e-05,0.013587,-0.003324,-0.004316,-0.00064,0.004947,0.019293,0.005519,-0.007714
1609043658770936012,146,1609043658770936012,0.000311,-0.000569,-0.004461,0.999897,0.000235,0.013917,-0.003312,0.005062,-0.005752,-0.000766,0.022483,0.006024,-0.009482
1609043658874103308,147,1609043658874103308,-0.002409,0.001211,-0.003542,0.999899,0.000221,0.013782,-0.003343,-0.00412,-0.000596,0.001073,0.029082,0.006528,-0.012317
1609043658976997137,148,1609043658976997137,-0.000396,-0.000385,-0.005976,0.999899,5.9e-05,0.013765,-0.003373,-0.000448,-0.002813,-0.000348,0.030567,0.00746,-0.013106
1609043659081444979,149,1609043659081444979,-0.001202,-0.00332,-0.004323,0.999899,0.000273,0.013788,-0.003169,-0.000782,-0.005905,0.002435,0.033306,0.00657,-0.014627
1609043659183437586,150,1609043659183437586,-0.002531,-0.000857,-0.00507,0.999897,0.000208,0.013901,-0.003287,-0.002246,-0.001376,0.000718,0.033026,0.004069,-0.01567
1609043659286269188,151,1609043659286269188,-0.001763,0.001616,-0.001381,0.999898,0.000312,0.013801,-0.003514,0.001786,0.003352,0.005928,0.03395,0.006221,-0.014028
1609043659356725693,152,1609043659356725693,-0.001863,-0.004973,-0.001226,0.999899,0.000197,0.013788,-0.003178,0.001959,-0.012352,0.006292,0.003351,0.004016,0.001781
1609043659458543301,153,1609043659458543301,-0.002563,-0.0035,-0.000452,0.999899,-4e-05,0.013811,-0.0032,-0.00083,-0.009219,0.005023,0.00152,0.002466,0.001482
1609043659563061237,154,1609043659563061237,-0.001022,-0.004195,-0.00143,0.999899,7.5e-05,0.01385,-0.002993,0.000498,-0.005639,0.001928,0.01157,0.006212,-0.002513
1609043659664602518,155,1609043659664602518,-0.00123,-0.000146,-0.002684,0.999899,-3.5e-05,0.013868,-0.002918,0.001961,0.001839,-0.000644,0.01294,0.003922,-0.004732
1609043659767889023,156,1609043659767889023,-0.002817,0.004458,-0.004557,0.9999,-3.8e-05,0.013783,-0.003061,-0.002769,0.011614,-0.00405,0.019653,0.004295,-0.00724
1609043659870728493,157,1609043659870728493,-0.001576,0.006256,-0.006,0.999898,-0.000109,0.013924,-0.003161,0.000461,0.012753,-0.005225,0.025294,0.006913,-0.011457
1609043659980032444,158,1609043659980032444,-0.001502,0.006624,-0.008229,0.999899,0.000116,0.013857,-0.003133,-0.003656,0.014439,-0.008743,0.032799,0.006825,-0.014686
1609043660082999706,159,1609043660082999706,-0.001376,0.002983,-0.005904,0.999897,0.000232,0.013874,-0.003452,-0.000292,0.003045,-0.003114,0.032822,0.005422,-0.014392
1609043660186392784,160,1609043660186392784,-0.000781,0.00706,-0.004942,0.999896,7.8e-05,0.013977,-0.003542,-0.001137,0.008185,-0.00071,0.033461,0.006279,-0.014612
1609043660257445812,161,1609043660257445812,-0.002901,0.002863,-0.004382,0.999898,1.6e-05,0.013803,-0.003383,-0.002956,-0.005271,-0.000175,0.003131,0.004091,0.00129
1609043660358417749,162,1609043660358417749,-0.002569,0.000561,-0.003064,0.9999,-1e-05,0.013743,-0.003227,-0.003328,-0.008606,0.003701,0.005892,0.004752,-0.000598
1609043660461256742,163,1609043660461256742,-0.00238,0.00211,-0.004906,0.999898,1.9e-05,0.013881,-0.003194,-0.003721,-0.003065,0.001785,0.010461,0.002831,-0.002864
1609043660564266443,164,1609043660564266443,-0.002552,0.001115,-0.00225,0.999902,0.000162,0.013554,-0.003434,-0.00308,-0.004046,0.007893,0.015228,0.007733,-0.004756
1609043660667532206,165,1609043660667532206,-0.003174,0.001936,-0.005042,0.999898,-0.000107,0.013884,-0.003106,-0.005911,-0.001503,0.003093,0.015897,0.004866,-0.007035
1609043660771424294,166,1609043660771424294,-0.00272,0.002646,-0.002787,0.999901,5.7e-05,0.013656,-0.003327,-0.006294,7.2e-05,0.008653,0.025658,0.00826,-0.010209
1609043660873684883,167,1609043660873684883,-0.002731,0.004105,-0.002646,0.999901,7.6e-05,0.013609,-0.003317,-0.005612,-0.000278,0.008548,0.029487,0.006014,-0.012271
1609043660977250576,168,1609043660977250576,-0.001758,0.002718,-0.004554,0.999897,0.000101,0.013877,-0.003393,-0.002608,-0.003937,0.003534,0.029767,0.006225,-0.012496
1609043661080220938,169,1609043661080220938,-0.004562,0.002383,-0.001593,0.999898,0.000168,0.013732,-0.00369,-0.008749,-0.002789,0.007673,0.032821,0.009099,-0.014921
1609043661183395386,170,1609043661183395386,-0.00381,0.001656,-0.003663,0.999899,0.000208,0.013818,-0.003287,-0.004669,-0.001481,0.002069,0.034432,0.005411,-0.014252
1609043661286161184,171,1609043661286161184,-0.002447,0.001214,-0.004587,0.999898,0.000291,0.013767,-0.003542,-0.001618,-0.003101,7.5e-05,0.034015,0.007121,-0.015175
1609043661356396914,172,1609043661356396914,-0.006258,0.001593,-0.005428,0.999901,-0.000175,0.013618,-0.003295,-0.012305,-0.004511,-0.003427,0.001542,0.003301,0.002128
1609043661458095551,173,1609043661458095551,-0.002137,-0.000609,-0.00513,0.9999,-1e-06,0.013761,-0.003198,-0.000475,-0.007904,-0.003038,0.004247,0.003418,0.00049
1609043661561083794,174,1609043661561083794,-0.00658,-0.001627,-0.002944,0.999902,-5e-06,0.01359,-0.003283,-0.011825,-0.009708,0.002066,0.01011,0.005798,-0.001419
1609043661664525509,175,1609043661664525509,-0.004404,0.001276,-0.004863,0.999899,-6e-05,0.013861,-0.003033,-0.009483,-0.001466,-9e-06,0.015465,0.005749,-0.005187
1609043661768240929,176,1609043661768240929,-0.002887,-0.00073,-0.001507,0.999897,7.3e-05,0.013941,-0.003177,-0.006246,-0.002352,0.007246,0.021095,0.004397,-0.007647
1609043661870469332,177,1609043661870469332,-0.003062,-0.003595,-0.002457,0.999897,0.000177,0.013917,-0.00322,-0.005714,-0.006142,0.004814,0.022428,0.003922,-0.008829
1609043661973752975,178,1609043661973752975,-0.004281,-0.000422,-0.003037,0.999899,9.3e-05,0.013838,-0.003028,-0.009534,0.002517,0.005437,0.029685,0.006504,-0.012478
1609043662076670408,179,1609043662076670408,-0.002447,0.000244,-0.006231,0.999899,0.000136,0.013851,-0.002914,-0.00392,0.004822,-0.000685,0.030992,0.007396,-0.013555
1609043662183703423,180,1609043662183703423,-6.4e-05,-0.000784,-0.00205,0.999895,0.000378,0.014061,-0.003347,0.000986,0.000131,0.008279,0.034866,0.006296,-0.014586
1609043662285902262,181,1609043662285902262,-0.000457,0.00437,-0.002908,0.999897,0.000279,0.013905,-0.003494,-0.001177,0.006261,0.005916,0.032668,0.008567,-0.013942
1609043662356905699,182,1609043662356905699,0.000425,0.001929,-0.004586,0.999899,2.2e-05,0.013834,-0.003166,-0.001408,-0.005478,0.001991,0.002171,0.003332,0.002974
1609043662457743645,183,1609043662457743645,-0.000871,0.003043,-0.003819,0.999898,1.2e-05,0.013918,-0.003193,-0.004108,-0.00315,0.003624,0.003467,0.004551,0.002041
1609043662561408281,184,1609043662561408281,-0.001473,0.002359,-0.005676,0.999901,6e-05,0.013652,-0.003323,-0.003111,-0.002209,-0.000208,0.011329,0.005613,-0.002246
1609043662665227890,185,1609043662665227890,0.000997,0.005492,-0.004834,0.999898,-1.6e-05,0.013835,-0.003407,0.003374,0.00214,0.002544,0.019269,0.006373,-0.006332
1609043662767758131,186,1609043662767758131,-0.003173,0.002952,-0.002802,0.999901,0.000146,0.013613,-0.003291,-0.002048,0.002826,0.006911,0.018251,0.003937,-0.006567
1609043662870408535,187,1609043662870408535,-0.004774,0.001979,-0.001334,0.999899,-8.2e-05,0.013816,-0.003194,-0.006548,-0.001052,0.008169,0.02686,0.00749,-0.010579
1609043662973894596,188,1609043662973894596,-0.001249,-0.001696,-0.002335,0.999897,0.000306,0.013925,-0.003225,0.003604,-0.006851,0.005423,0.028921,0.006501,-0.012856
1609043663076516390,189,1609043663076516390,-0.002805,0.002447,-0.002321,0.999897,-2.4e-05,0.01387,-0.003451,-0.000687,0.000576,0.005017,0.031416,0.006654,-0.013247
1609043663179625988,190,1609043663179625988,-0.000718,0.0003,-0.003791,0.999895,0.000331,0.014076,-0.003215,0.004851,0.001536,0.000459,0.031759,0.006283,-0.01507
1609043663283624172,191,1609043663283624172,-0.002052,0.001946,-0.004141,0.999894,0.0002,0.014069,-0.003554,0.003351,0.003194,-0.002196,0.034256,0.005466,-0.014139
1609043663386454821,192,1609043663386454821,-0.00144,0.003312,-0.001585,0.999896,0.000127,0.013888,-0.00371,0.006731,-0.000584,0.006321,0.03465,0.006095,-0.01459
1609043663456806898,193,1609043663456806898,-0.003067,0.00163,-0.004431,0.999898,-0.000122,0.013872,-0.003162,0.002176,-0.006519,-0.001067,0.000722,0.00208,0.003079
1609043663559280634,194,1609043663559280634,-0.001847,0.002001,-0.003298,0.9999,-1.3e-05,0.013753,-0.003127,0.00184,-0.004467,0.002821,0.00543,0.005085,0.001456
1609043663661369562,195,1609043663661369562,0.000368,0.00158,-0.002759,0.999899,-7.8e-05,0.013857,-0.003104,0.004463,-0.004452,0.003482,0.011225,0.005281,-0.002139
1609043663764312029,196,1609043663764312029,-0.003081,-0.000575,-0.001668,0.9999,2.1e-05,0.013755,-0.00308,-0.002845,-0.007921,0.005599,0.01482,0.006357,-0.00426
1609043663867734671,197,1609043663867734671,4.3e-05,0.001362,-0.003782,0.999897,1.2e-05,0.013946,-0.003216,0.003879,-0.000989,0.000714,0.022234,0.004081,-0.010397
1609043663970978975,198,1609043663970978975,0.001609,0.00387,-0.003319,0.999898,4.2e-05,0.01387,-0.003372,0.005438,0.005083,-0.000567,0.022123,0.006288,-0.008427
1609043664074723482,199,1609043664074723482,-0.001637,-0.00164,-0.00528,0.999897,0.000277,0.013956,-0.003111,-0.002774,-0.005117,-0.002022,0.030171,0.004983,-0.013562
1609043664176994801,200,1609043664176994801,-0.002554,-0.000326,-0.000891,0.999897,9.8e-05,0.013904,-0.003447,-0.006042,-0.004287,0.00662,0.030991,0.006904,-0.013621
1609043664279771090,201,1609043664279771090,-0.002847,0.000654,-0.003041,0.999898,7.8e-05,0.013846,-0.00338,-0.005654,-0.00163,0.001387,0.034641,0.006473,-0.014664
1609043664383482695,202,1609043664383482695,-0.00488,0.000578,-0.005381,0.999899,0.000179,0.013831,-0.003233,-0.008999,-0.002436,-0.002872,0.032295,0.006444,-0.015225
1609043664486382484,203,1609043664486382484,-0.002325,0.003174,-0.002558,0.999897,0.000317,0.013891,-0.003475,-0.00515,0.004653,0.000739,0.03367,0.005186,-0.015247
1609043664556564331,204,1609043664556564331,-0.003817,2.4e-05,-0.001717,0.999899,-3.8e-05,0.013789,-0.003316,-0.00671,-0.007442,0.001303,0.00176,0.001839,0.003303
1609043664658283234,205,1609043664658283234,-0.002345,0.002376,-0.003423,0.9999,-7e-05,0.013762,-0.003128,-0.002345,6.6e-05,-0.00305,0.005722,0.003523,0.001797
1609043664761707067,206,1609043664761707067,-0.004764,0.00203,-0.003743,0.999899,-9.2e-05,0.013807,-0.003115,-0.007659,0.001972,-0.001863,0.01191,0.004058,-0.001893
1609043664864668608,207,1609043664864668608,-0.003093,-0.003708,-0.002633,0.999899,0.000149,0.013769,-0.003335,-0.003189,-0.009503,0.002579,0.016824,0.005239,-0.005226
1609043664967721462,208,1609043664967721462,-0.003532,0.001772,-0.004532,0.999897,8e-05,0.013959,-0.003226,-0.003526,0.000921,-0.000713,0.023115,0.005414,-0.009029
1609043665072690248,209,1609043665072690248,0.000633,0.00024,-0.002454,0.999895,9.4e-05,0.014066,-0.003378,0.004247,-0.00271,0.005972,0.028792,0.008643,-0.012039
1609043665173795462,210,1609043665173795462,-0.000687,0.001414,-0.003821,0.999895,-4.8e-05,0.014025,-0.003376,0.00133,-0.000395,0.005651,0.026686,0.006497,-0.011013
1609043665277086020,211,1609043665277086020,-0.003504,0.001082,-0.002131,0.999897,0.000202,0.013813,-0.003653,-0.002296,-0.00475,0.007982,0.029007,0.008285,-0.012218
1609043665380308867,212,1609043665380308867,-0.00319,0.00054,-0.000235,0.999893,0.000152,0.014164,-0.003478,-0.000267,-0.004645,0.010474,0.034653,0.007255,-0.014321
1609043665483161211,213,1609043665483161211,-0.000366,-0.000685,-0.002993,0.999895,0.000391,0.014038,-0.003456,0.006168,-0.004042,0.005909,0.032311,0.006371,-0.013696
1609043665558884621,214,1609043665558884621,-0.002303,0.00401,-0.002813,0.999899,-2e-06,0.013791,-0.003223,0.002108,-0.000114,0.00432,0.006694,0.005028,0.000881
1609043665661927462,215,1609043665661927462,-0.002039,0.004588,-0.001146,0.999899,-0.000112,0.013849,-0.003056,0.003026,2e-05,0.007968,0.00754,0.004974,-0.001405
1609043665765120983,216,1609043665765120983,-0.000308,0.002463,-0.000994,0.999896,-0.000168,0.014005,-0.003268,0.003799,-0.00113,0.008289,0.016278,0.005527,-0.004916
1609043665867801666,217,1609043665867801666,-0.002255,0.002108,-0.000984,0.999899,-5.6e-05,0.013849,-0.003001,0.001065,-0.000277,0.010137,0.019287,0.00544,-0.006592
1609043665970709085,218,1609043665970709085,-0.000932,0.001245,-0.004022,0.999901,6.1e-05,0.013655,-0.003323,0.002686,-0.002904,-0.001423,0.022809,0.006838,-0.010039
1609043666074698210,219,1609043666074698210,-0.001635,0.002035,-0.005321,0.999898,0.000127,0.013866,-0.003255,-0.002201,-0.000705,-0.003974,0.028076,0.006401,-0.011415
1609043666181234121,220,1609043666181234121,-0.001093,0.005673,-0.003907,0.999897,0.000124,0.013861,-0.003678,-0.0006,0.00515,-0.001641,0.034584,0.00653,-0.014725
1609043666258632421,221,1609043666258632421,-0.000742,0.00142,-0.005172,0.999897,1.7e-05,0.013887,-0.00342,-0.000236,-0.009299,-0.002167,0.006337,0.004517,0.000439
1609043666360102177,222,1609043666360102177,-0.00066,0.000782,-0.002358,0.999898,-4e-06,0.013835,-0.003363,0.000702,-0.008861,0.004229,0.007347,0.00451,-8.5e-05
1609043666464158535,223,1609043666464158535,-0.004078,-0.000564,-0.001736,0.999898,-5.3e-05,0.013808,-0.003389,-0.00772,-0.007663,0.004607,0.00867,0.002725,-0.002215
1609043666566326380,224,1609043666566326380,-0.002319,0.00329,-0.001836,0.999898,5.9e-05,0.013883,-0.003304,-0.001705,0.002472,0.004323,0.018345,0.005663,-0.006497
1609043666669156790,225,1609043666669156790,-0.002875,-0.004272,-0.002571,0.999902,0.000273,0.013599,-0.003168,0.000805,-0.011235,0.002569,0.020804,0.005354,-0.008635
1609043666772404432,226,1609043666772404432,-0.003765,-0.000289,-0.000527,0.999901,0.000249,0.013632,-0.003461,-0.004126,0.000886,0.007898,0.026884,0.007142,-0.011194
1609043666876152277,227,1609043666876152277,-0.00334,-0.001954,-0.000226,0.9999,0.000145,0.013686,-0.003367,-0.001062,-0.001008,0.007497,0.029194,0.006604,-0.013138
1609043666978578091,228,1609043666978578091,-0.002972,0.001185,-0.004373,0.999902,0.00015,0.013569,-0.003262,0.00203,0.003862,0.000306,0.032777,0.007734,-0.012327
1609043667082442760,229,1609043667082442760,-0.001463,-0.000467,-0.004462,0.999898,0.000269,0.01381,-0.003424,0.006586,0.00068,-0.003128,0.033175,0.006649,-0.015046
1609043667184716702,230,1609043667184716702,0.00054,-0.00267,-0.001795,0.999894,0.000335,0.014113,-0.003471,0.008239,-0.004477,0.004902,0.032763,0.007121,-0.01463
1609043667256566048,231,1609043667256566048,-0.002213,-0.001881,-0.004081,0.999898,7e-06,0.01383,-0.003397,0.001385,-0.01036,-0.00035,-0.000271,0.002753,0.003247
1609043667358994246,232,1609043667358994246,0.000157,-0.00031,-0.005232,0.999898,-2.8e-05,0.013901,-0.003231,0.004299,-0.008223,-0.002507,0.004514,0.002769,0.002185
1609043667460701704,233,1609043667460701704,0.001134,0.001269,-0.004851,0.999893,2.7e-05,0.014172,-0.003357,0.005027,-0.002996,0.000206,0.01049,0.006926,-0.001285
1609043667563713789,234,1609043667563713789,-0.003587,-0.000167,-0.004818,0.999898,2e-06,0.013885,-0.003322,-0.003104,-0.004336,0.001271,0.015404,0.005754,-0.004389
1609043667665854692,235,1609043667665854692,-0.001613,-0.001386,-0.004348,0.999895,6e-05,0.01414,-0.003015,-0.001752,-0.004128,0.000828,0.016621,0.006132,-0.00543
1609043667769175291,236,1609043667769175291,-0.005207,-0.000149,-0.00175,0.999898,6.2e-05,0.01381,-0.003411,-0.007395,-0.001876,0.006423,0.02077,0.002732,-0.007542
1609043667874624014,237,1609043667874624014,-0.000555,-0.00234,-0.004349,0.999896,0.000143,0.014092,-0.002865,0.003074,-0.002827,0.000796,0.029185,0.007361,-0.012099
1609043667981836557,238,1609043667981836557,-0.002885,-0.000378,-0.004465,0.999898,0.000216,0.01387,-0.003123,-0.001783,0.002925,0.000586,0.033155,0.007942,-0.014924
1609043668084876776,239,1609043668084876776,-0.003858,0.001237,-0.002477,0.999899,8.4e-05,0.013808,-0.003356,-0.005298,0.004034,0.004057,0.03496,0.005445,-0.014731
1609043668156872034,240,1609043668156872034,-0.002232,0.001117,-0.001883,0.999899,6.6e-05,0.013724,-0.003483,0.000825,-0.007574,0.003563,0.002374,0.002593,0.002686
1609043668257738829,241,1609043668257738829,-0.001813,-0.001599,-0.003179,0.9999,3.6e-05,0.013738,-0.003233,0.003295,-0.009462,0.000798,0.002641,0.003342,0.002006
1609043668369698286,242,1609043668369698286,-0.005395,0.002657,-0.004681,0.999904,0.000135,0.0134,-0.003456,-0.005761,0.001762,-0.000105,0.021197,0.006059,-0.008667
1609043668472450018,243,1609043668472450018,-0.001204,0.001167,-0.00646,0.999897,2.7e-05,0.013946,-0.00333,0.001158,-0.000423,-0.00194,0.026698,0.005304,-0.010964
1609043668576153994,244,1609043668576153994,0.000708,0.001922,-0.004617,0.999893,0.000298,0.014255,-0.003141,0.007483,0.001879,0.003495,0.02857,0.008527,-0.011876
1609043668679510355,245,1609043668679510355,-0.001762,0.005807,-0.005096,0.999898,5e-06,0.013859,-0.003257,0.001996,0.00819,0.002431,0.031654,0.00614,-0.013775
1609043668758439302,246,1609043668758439302,-0.000771,0.000862,-0.002705,0.999897,4e-05,0.013956,-0.003131,0.002651,-0.007463,0.004424,0.005097,0.003841,0.001838
1609043668861402035,247,1609043668861402035,-0.001407,0.002133,-0.003584,0.999898,-0.000137,0.013943,-0.002978,-0.00016,-0.001175,0.004781,0.008659,0.004032,0.000782
1609043668967531204,248,1609043668967531204,-0.000394,0.00205,-0.003561,0.999899,4.4e-05,0.013833,-0.003149,0.002938,-0.000589,0.006782,0.021837,0.004141,-0.008745
1609043669075342655,249,1609043669075342655,0.000374,0.001367,-0.004863,0.999897,0.000213,0.013969,-0.003155,0.004738,0.001234,-0.000131,0.030322,0.006527,-0.011927
1609043669178456545,250,1609043669178456545,-0.002928,-0.000563,-0.003133,0.999896,0.000282,0.013944,-0.003579,-0.002936,-0.002236,0.002731,0.032741,0.007434,-0.014773
1609043669283041716,251,1609043669283041716,-0.003887,-0.001956,-0.002013,0.999895,0.000234,0.013975,-0.003651,-0.003371,-0.004762,0.006591,0.03482,0.005159,-0.013627
1609043669356589317,252,1609043669356589317,-0.00289,-0.00033,-0.002671,0.999896,-2.6e-05,0.014025,-0.003196,-0.003632,-0.006283,0.003905,0.002488,0.00262,0.002456
1609043669458377600,253,1609043669458377600,-0.003746,-0.003557,-0.002808,0.999901,0.000151,0.013694,-0.003104,-0.005803,-0.01227,0.002842,0.004404,0.003221,0.000587
1609043669561326265,254,1609043669561326265,-0.000292,-0.00187,-0.002748,0.999898,5e-05,0.013867,-0.003383,0.002077,-0.010502,0.000897,0.00914,0.003557,-0.001931
1609043669664672613,255,1609043669664672613,-0.003934,0.00156,-0.001709,0.999901,6.3e-05,0.013641,-0.003416,-0.005506,-0.002191,0.004121,0.013169,0.005389,-0.003113
1609043669767797709,256,1609043669767797709,0.000217,0.000946,-0.003062,0.999898,-1e-06,0.013936,-0.003028,0.004181,-0.001615,0.001356,0.017204,0.006143,-0.006683
1609043669870740891,257,1609043669870740891,-0.003316,0.00089,-0.003149,0.999898,-4.9e-05,0.013918,-0.003071,-0.002996,-0.001338,-0.000745,0.019259,0.003159,-0.009584
1609043669974768639,258,1609043669974768639,-0.005944,0.003018,-0.004922,0.999899,-1.8e-05,0.013717,-0.003562,-0.005953,0.00325,-0.004488,0.027031,0.006244,-0.010574
1609043670077357054,259,1609043670077357054,-0.002173,0.003647,-0.007558,0.999899,9.4e-05,0.013805,-0.003316,0.003014,0.005094,-0.007856,0.029368,0.00953,-0.013137
1609043670180481911,260,1609043670180481911,-0.004166,0.000814,-0.004324,0.9999,0.000187,0.013667,-0.003429,-0.000285,-0.001393,-0.000607,0.033057,0.007543,-0.01415
1609043670282839537,261,1609043670282839537,-0.004829,0.000415,-0.004167,0.9999,0.000215,0.013721,-0.00339,0.000825,0.000233,-0.000944,0.033532,0.005391,-0.013761
1609043670385955572,262,1609043670385955572,-0.00164,-0.000812,-0.003498,0.999897,0.000213,0.013888,-0.003352,0.00814,-0.001977,0.002839,0.034964,0.006971,-0.014353
1609043670456449270,263,1609043670456449270,-0.004083,0.000502,-0.003805,0.999898,-0.00011,0.013886,-0.003105,-0.000543,-0.004454,0.002972,0.000936,0.003072,0.003001
1609043670558374166,264,1609043670558374166,-0.001352,-0.001442,-0.005694,0.9999,7.1e-05,0.0138,-0.002867,0.006118,-0.005655,-0.001341,0.00577,0.002585,0.001415
1609043670661405802,265,1609043670661405802,-0.000683,0.000363,-0.004383,0.999899,5e-05,0.01385,-0.003153,0.003729,-0.000974,0.003958,0.013795,0.006103,-0.004654
1609043670764571667,266,1609043670764571667,-0.002312,-0.001589,-0.005298,0.999897,7.7e-05,0.013976,-0.003052,-0.001228,-0.000886,0.000284,0.015166,0.005248,-0.004449
1609043670867654324,267,1609043670867654324,-0.002721,-0.000252,-0.003326,0.9999,0.000122,0.01375,-0.003272,-0.002697,-0.000647,0.004236,0.01689,0.0058,-0.006616
1609043670970948458,268,1609043670970948458,-0.00088,0.005437,-0.002961,0.999898,-4.3e-05,0.013862,-0.003316,-0.000891,0.01172,0.00528,0.025378,0.008057,-0.01066
1609043671074268579,269,1609043671074268579,0.001805,0.003575,-0.008322,0.9999,0.00015,0.013751,-0.003186,0.004025,0.00979,-0.006829,0.029324,0.006612,-0.011643
1609043671177553177,270,1609043671177553177,-0.000539,0.00156,-0.006528,0.999896,0.000193,0.013981,-0.003262,-0.004799,0.005453,-0.001045,0.027836,0.007778,-0.013088
1609043671280499458,271,1609043671280499458,-0.001115,0.000936,-0.005355,0.999898,0.000265,0.013864,-0.003303,-0.005276,0.00457,0.000317,0.034941,0.006691,-0.01422
1609043671384469509,272,1609043671384469509,-0.00048,0.001829,-0.005678,0.999898,0.000306,0.013892,-0.003298,-0.004564,0.004797,-0.001089,0.032921,0.006125,-0.014154
1609043671489806175,273,1609043671489806175,-0.003087,0.000607,-0.003799,0.999898,0.000257,0.013859,-0.003372,-0.009318,0.001196,0.002188,0.031814,0.006293,-0.013659
1609043671558113098,274,1609043671558113098,-0.004405,-0.002028,-0.002139,0.999902,4.8e-05,0.013584,-0.003198,-0.012372,-0.010102,0.005451,0.001362,0.003575,0.003263
1609043671658515692,275,1609043671658515692,-0.004115,-0.000709,-0.004363,0.999899,6.8e-05,0.013878,-0.002903,-0.008788,-0.0041,-0.001779,0.001553,0.003533,0.002932
1609043671761777401,276,1609043671761777401,-0.004653,0.000802,-0.002977,0.999897,-0.000147,0.013927,-0.003253,-0.006914,0.001527,0.001811,0.010199,0.005177,-0.000801
1609043671872451544,277,1609043671872451544,-0.002688,0.00455,-0.007397,0.999897,-3e-06,0.013907,-0.00332,-0.004388,0.012046,-0.009993,0.027295,0.006024,-0.01037
1609043671974337339,278,1609043671974337339,-0.002545,0.00192,-0.003457,0.999898,7.3e-05,0.013854,-0.003369,-0.005455,0.001541,0.001729,0.027034,0.008117,-0.010653
1609043672077321529,279,1609043672077321529,-0.002885,0.000955,-0.004989,0.999898,0.000122,0.013886,-0.003246,-0.003391,-0.00024,-0.00041,0.030462,0.006916,-0.013326
1609043672180401087,280,1609043672180401087,-0.000671,0.004067,-0.006251,0.999898,0.000158,0.013808,-0.00354,0.003368,0.006242,-0.005885,0.033101,0.00685,-0.014306
1609043672283194542,281,1609043672283194542,-0.000731,0.003813,-0.00579,0.9999,0.000275,0.013624,-0.003562,0.00148,0.007291,-0.001926,0.03383,0.0059,-0.015124
1609043672389885426,282,1609043672389885426,-0.000217,0.003437,-0.005621,0.999896,0.000239,0.01395,-0.003457,0.003758,0.003025,-0.00015,0.032945,0.006885,-0.013629
1609043672457178354,283,1609043672457178354,-0.003064,0.000404,-0.002892,0.999899,-3.9e-05,0.013813,-0.003183,-0.007683,-0.00657,0.005697,0.004271,0.003813,0.000539
1609043672561815500,284,1609043672561815500,-0.005063,-0.004243,-0.001625,0.999899,-4.5e-05,0.013789,-0.003197,-0.010497,-0.013646,0.009292,0.00962,0.004169,-0.000768
1609043672661930084,285,1609043672661930084,-0.003646,8.9e-05,-0.006602,0.999899,-1.2e-05,0.01388,-0.002855,-0.005277,-0.003363,-0.003504,0.014102,0.005428,-0.003988
1609043672765889406,286,1609043672765889406,4.4e-05,0.000213,-0.003726,0.999896,-4.9e-05,0.014039,-0.003036,-0.000536,-0.005385,0.00361,0.014043,0.007449,-0.004233
1609043672869439602,287,1609043672869439602,-0.003363,-0.000721,-0.003824,0.999901,3.8e-05,0.013676,-0.003266,-0.006989,-0.006926,0.002872,0.022138,0.006105,-0.009944
1609043672971505404,288,1609043672971505404,-0.004065,-0.003607,-0.004229,0.999898,4.1e-05,0.0139,-0.003099,-0.008129,-0.006878,0.00112,0.027104,0.006959,-0.011067
1609043673073864698,289,1609043673073864698,-0.002501,2e-06,-0.007256,0.9999,0.000164,0.013731,-0.003181,-0.003171,-0.000382,-0.007004,0.028789,0.006778,-0.011975
1609043673177118301,290,1609043673177118301,0.000186,-0.000822,-0.004304,0.999896,0.00021,0.013943,-0.003396,0.003753,-0.003825,0.001972,0.030249,0.00791,-0.013556
1609043673280866861,291,1609043673280866861,-0.001465,0.002358,-0.003246,0.999895,1e-06,0.014094,-0.00331,0.000399,0.002808,0.005301,0.027957,0.00727,-0.012888
1609043673384187460,292,1609043673384187460,-0.001694,0.001806,-0.004864,0.999898,0.000283,0.013821,-0.003352,0.002156,0.001909,0.001583,0.033619,0.007167,-0.014653
1609043673486265659,293,1609043673486265659,-0.002564,0.002578,-0.003094,0.999894,0.00024,0.014056,-0.003556,-0.002545,0.003422,0.006714,0.03499,0.005581,-0.014783
1609043673556525946,294,1609043673556525946,-0.003209,-0.000247,-0.005172,0.999897,6e-06,0.013946,-0.003112,-0.003005,-0.006886,0.000723,-5.8e-05,0.003649,0.004877
1609043673658455372,295,1609043673658455372,-0.001784,0.000216,-0.001933,0.999898,-0.000102,0.013868,-0.003251,4.9e-05,-0.00729,0.007498,0.007493,0.00197,-9.7e-05
1609043673763788700,296,1609043673763788700,-0.00181,0.003511,-0.003361,0.999898,-0.0001,0.01389,-0.003185,-0.005101,0.003823,0.004833,0.014817,0.006791,-0.004889
1609043673866989851,297,1609043673866989851,-0.001157,0.004509,-0.003869,0.999898,-3.8e-05,0.013939,-0.002969,-0.000847,0.005371,0.001154,0.020273,0.004548,-0.007599
1609043673967819691,298,1609043673967819691,-0.002662,0.003037,-0.003665,0.9999,-0.000125,0.013747,-0.003141,-0.001459,0.001234,0.002336,0.023296,0.006247,-0.009444
1609043674070949078,299,1609043674070949078,-0.004668,0.003965,-0.001067,0.999898,4.2e-05,0.013805,-0.003393,-0.008429,0.004466,0.007256,0.025596,0.006571,-0.009813
1609043674175453901,300,1609043674175453901,-0.001819,0.004711,-0.006473,0.999899,-2.8e-05,0.013762,-0.003457,-0.002212,0.005693,-0.004057,0.029665,0.005434,-0.01082
1609043674278709888,301,1609043674278709888,-0.002983,0.002007,-0.004455,0.999899,0.000211,0.013742,-0.003434,-0.006648,0.000712,-0.001574,0.030006,0.00592,-0.012775
1609043674380568743,302,1609043674380568743,-0.000606,0.003112,-0.004061,0.999895,4.2e-05,0.014038,-0.00348,-0.001476,0.00169,0.002195,0.031966,0.00825,-0.012956
1609043674486509562,303,1609043674486509562,-0.000437,0.005549,-0.005466,0.999898,0.000113,0.013814,-0.003469,0.000892,0.004463,-0.000237,0.032577,0.009165,-0.012747
1609043674557726383,304,1609043674557726383,-0.002107,-0.001707,-0.004764,0.9999,0.000238,0.013694,-0.003234,-0.003123,-0.01476,-0.001363,0.006522,0.004935,0.000868
1609043674658894539,305,1609043674658894539,-0.001997,7.6e-05,-0.003916,0.999902,0.000112,0.013584,-0.003328,-0.002854,-0.009953,0.001706,0.003572,0.005489,0.003021
1609043674762137413,306,1609043674762137413,-0.002585,0.000818,-0.004688,0.999901,-7.9e-05,0.013741,-0.002981,-0.003632,0.001382,0.003242,0.012851,0.00729,-0.004365
1609043674864768267,307,1609043674864768267,-0.004946,0.00436,-0.00397,0.999899,-0.000168,0.01374,-0.003383,-0.008709,0.00356,0.005479,0.017841,0.009684,-0.006633
1609043674967703342,308,1609043674967703342,-0.001603,0.002875,-0.00619,0.999898,0.000166,0.013895,-0.003095,-0.002306,0.005079,0.001241,0.021439,0.005056,-0.009634
1609043675070831060,309,1609043675070831060,-0.003222,0.002493,-0.005488,0.9999,4.5e-05,0.013783,-0.003144,-0.005343,0.002755,0.00299,0.021866,0.006899,-0.008085
1609043675175945997,310,1609043675175945997,-0.000292,0.005534,-0.003559,0.9999,4.2e-05,0.013716,-0.003401,-0.001488,0.007976,0.003669,0.029861,0.006494,-0.01328
1609043675276805162,311,1609043675276805162,-0.002447,-9.2e-05,-0.002597,0.999898,0.000314,0.013818,-0.003457,-0.008665,-0.005464,0.002986,0.03091,0.006841,-0.014086
1609043675379696608,312,1609043675379696608,-0.00543,0.001692,-0.004154,0.999898,0.00012,0.013775,-0.003677,-0.012479,-0.004105,0.000374,0.031627,0.007655,-0.013177
1609043675484305859,313,1609043675484305859,-0.0035,0.003495,-0.006034,0.999899,0.000297,0.013763,-0.003464,-0.004106,-0.000694,-0.002747,0.0354,0.005647,-0.013067
1609043675586269379,314,1609043675586269379,-0.005624,0.003139,-0.005417,0.999897,9.3e-05,0.013863,-0.003537,-0.007122,-0.003238,0.00027,0.03521,0.005531,-0.014784
1609043675656328917,315,1609043675656328917,-0.003702,-0.000488,-0.003697,0.9999,4.6e-05,0.013719,-0.003354,0.000459,-0.015073,0.00292,0.001835,0.001815,0.002864
1609043675758325100,316,1609043675758325100,-0.006874,-0.000909,-0.002048,0.999905,-9.9e-05,0.013305,-0.003474,-0.007051,-0.014191,0.007254,0.00232,0.00222,0.003155
1609043675861519575,317,1609043675861519575,-0.002839,0.001148,-0.00594,0.999901,-1.9e-05,0.013727,-0.00308,0.000482,-0.006174,-0.001746,0.010829,0.004907,-0.002268
1609043675964497566,318,1609043675964497566,-0.004241,-0.000105,-0.004218,0.999901,0.000114,0.013673,-0.003077,-0.00256,-0.003754,0.002315,0.013103,0.006973,-0.00471
1609043676067419767,319,1609043676067419767,-0.006038,0.002025,-0.003646,0.999903,-0.000118,0.013491,-0.003248,-0.010864,3e-05,0.003543,0.017445,0.008162,-0.006147
1609043676170366049,320,1609043676170366049,-0.003674,0.001339,-0.001882,0.999902,5.5e-05,0.013493,-0.003518,-0.005307,0.000447,0.006856,0.026232,0.006885,-0.010733
1609043676273576975,321,1609043676273576975,-0.002722,0.002425,-0.002818,0.999899,-3.8e-05,0.013836,-0.003134,-0.005963,0.004175,0.006094,0.02874,0.006108,-0.011169
1609043676377115250,322,1609043676377115250,-0.003924,0.001628,-0.005745,0.999898,0.000113,0.013827,-0.003282,-0.006759,0.000279,-0.001015,0.030925,0.007247,-0.014141
1609043676479820490,323,1609043676479820490,-0.001714,-7.5e-05,-0.004831,0.999898,6.8e-05,0.013929,-0.003139,-0.000566,-0.003736,0.003057,0.032809,0.007843,-0.01466
1609043676583160400,324,1609043676583160400,-0.003586,0.002063,-0.002704,0.999898,0.000243,0.013808,-0.003404,-0.008253,-0.000843,0.005766,0.032996,0.006585,-0.013734
1609043676686212540,325,1609043676686212540,-0.001095,0.000243,-0.004004,0.999897,0.000167,0.013917,-0.003381,-0.002616,-0.002278,0.001439,0.033328,0.005952,-0.013556
1609043676756862402,326,1609043676756862402,0.000285,-0.002669,-0.005618,0.9999,0.00022,0.013778,-0.002938,0.001976,-0.011451,-0.004034,0.003233,0.004068,0.003782
1609043676857973814,327,1609043676857973814,-0.003579,0.001876,-0.004005,0.9999,1.2e-05,0.013796,-0.003071,-0.009468,-0.000687,0.00028,0.005732,0.004007,0.000307
1609043676961449385,328,1609043676961449385,-0.003354,0.001484,-0.003586,0.999901,-5.7e-05,0.013713,-0.003097,-0.008183,0.000833,-0.000522,0.010564,0.004423,-0.001844
1609043677064424992,329,1609043677064424992,-0.002945,-0.00061,-0.002548,0.999898,-7e-05,0.013894,-0.003189,-0.008365,-0.004387,0.003373,0.01442,0.004542,-0.006114
1609043677167688608,330,1609043677167688608,-0.003879,0.005556,-0.00508,0.999901,-8.2e-05,0.01362,-0.003337,-0.005928,0.007014,-0.000462,0.021189,0.004599,-0.006892
1609043677270481110,331,1609043677270481110,-0.001041,0.00525,-0.003809,0.999898,-5e-05,0.013912,-0.003191,-0.002944,0.005237,0.005678,0.021466,0.006097,-0.006899
1609043677373960257,332,1609043677373960257,0.001467,0.00726,-0.005486,0.999899,0.000143,0.013795,-0.003181,0.002715,0.007391,0.00094,0.027483,0.00722,-0.011144
1609043677477940798,333,1609043677477940798,-0.000278,0.002724,-0.008048,0.999899,0.000142,0.013717,-0.00345,-0.000661,-0.001246,-0.005609,0.031856,0.006262,-0.015015
1609043677579547405,334,1609043677579547405,-0.000731,0.003926,-0.007555,0.999897,0.000212,0.013906,-0.003415,-0.000107,0.001907,-0.003462,0.034504,0.006482,-0.014421
1609043677656095982,335,1609043677656095982,0.00031,0.00208,-0.005954,0.999898,6.6e-05,0.013883,-0.003157,0.00343,-0.008518,-0.000134,-0.00104,0.0026,0.003994
1609043677756802797,336,1609043677756802797,0.000524,0.001584,-0.006507,0.999898,-6.1e-05,0.013895,-0.003226,0.000527,-0.010235,-0.002367,0.000118,0.001191,0.004721
1609043677859470606,337,1609043677859470606,0.002873,0.000607,-0.005178,0.999896,-0.000175,0.014091,-0.002908,0.005662,-0.009375,0.00181,0.009185,0.004773,-9.7e-05
1609043677962438345,338,1609043677962438345,-0.000289,-0.002114,-0.007189,0.999898,0.0001,0.013903,-0.003241,-0.00073,-0.012918,-0.001005,0.011082,0.005084,-0.002543
1609043678065738201,339,1609043678065738201,-0.000335,-0.001105,-0.005538,0.999898,2.2e-05,0.013942,-0.002886,-0.001593,-0.006252,0.001857,0.014333,0.006446,-0.004542
1609043678168950558,340,1609043678168950558,-0.000564,0.000678,-0.007141,0.999898,1e-05,0.013898,-0.003219,0.000733,-0.002882,-0.00372,0.016315,0.007501,-0.005342
1609043678271996021,341,1609043678271996021,-0.000593,0.002402,-0.004112,0.999898,5.2e-05,0.013849,-0.003345,-0.000707,0.003542,0.003251,0.029198,0.007792,-0.01097
1609043678375839472,342,1609043678375839472,0.001469,0.000333,-0.005157,0.999896,0.000218,0.014051,-0.003139,0.003644,0.001724,0.001849,0.029871,0.006344,-0.012493
1609043678478072643,343,1609043678478072643,-0.002374,0.002586,-0.001272,0.999897,0.000153,0.013863,-0.003469,-0.005116,0.006676,0.008845,0.033046,0.007875,-0.013367
1609043678581359386,344,1609043678581359386,5e-05,0.004222,-0.004417,0.999896,0.00018,0.013921,-0.00349,0.001886,0.00897,-0.000164,0.032062,0.006509,-0.014366
1609043678684293032,345,1609043678684293032,0.000215,0.003814,-0.005542,0.999893,0.000251,0.014165,-0.003547,0.003536,0.004295,-0.002255,0.034792,0.006687,-0.014534
1609043678756196260,346,1609043678756196260,-0.002054,0.002071,-0.004717,0.999896,7e-06,0.013979,-0.003386,-0.000528,-0.00715,-0.000686,0.000987,0.002712,0.004389
1609043678856541872,347,1609043678856541872,-0.000939,0.00014,-0.006045,0.999897,-0.000179,0.013973,-0.003232,0.001827,-0.009188,-0.002485,0.005313,0.005104,0.000709
1609043678959327221,348,1609043678959327221,-0.000129,0.002057,-0.007257,0.999894,-6e-06,0.014134,-0.003204,0.000706,-0.003593,-0.004864,0.005412,0.004488,0.001402
1609043679062998056,349,1609043679062998056,-0.001552,0.003537,-0.004507,0.999899,-8e-05,0.013773,-0.003302,-0.003661,-0.000536,0.003945,0.013684,0.00582,-0.004204
1609043679165721416,350,1609043679165721416,-0.002,0.001801,-0.006311,0.999896,9e-06,0.014038,-0.0032,-0.005522,-0.001505,-0.000437,0.017273,0.005682,-0.006168
1609043679268833637,351,1609043679268833637,-0.001672,0.003502,-0.003983,0.999895,-6.7e-05,0.014,-0.003541,-0.004141,0.002349,0.004714,0.021178,0.006011,-0.008434
1609043679372149944,352,1609043679372149944,-0.003885,-0.001418,-0.002655,0.999899,2.6e-05,0.013764,-0.003461,-0.008025,-0.006518,0.008204,0.025345,0.00672,-0.010791
1609043679476570845,353,1609043679476570845,-0.001989,0.00184,-0.004314,0.999898,5.9e-05,0.013872,-0.003213,-0.005184,0.001794,0.003549,0.031191,0.005847,-0.013339
1609043679584754705,354,1609043679584754705,-0.002494,0.001918,-0.001005,0.999898,9.9e-05,0.013814,-0.003515,-0.001743,5.1e-05,0.00939,0.034694,0.006235,-0.014353
1609043679655912161,355,1609043679655912161,-0.001751,0.000473,-0.002047,0.999898,-5.7e-05,0.013861,-0.003141,-0.000668,-0.006827,0.006077,0.002038,0.002784,0.00314
1609043679756366730,356,1609043679756366730,-0.005361,-0.000513,-0.00248,0.999901,-7.8e-05,0.013627,-0.003381,-0.007753,-0.008909,0.002744,-0.000961,0.000925,0.004426
1609043679859115839,357,1609043679859115839,-0.001046,0.000473,-0.004721,0.999898,1.5e-05,0.013901,-0.00326,0.001921,-0.004859,-0.002031,0.007803,0.006867,-0.001679
1609043679968720675,358,1609043679968720675,-0.00287,0.001469,-0.003022,0.9999,5.9e-05,0.013697,-0.00325,-0.000373,0.000901,0.00264,0.021279,0.006339,-0.007942
1609043680072023869,359,1609043680072023869,-0.005506,0.000394,-0.003748,0.999901,0.000109,0.013646,-0.003405,-0.005974,-0.004134,0.00338,0.026278,0.006482,-0.011995
1609043680175702572,360,1609043680175702572,-0.004328,-0.000768,-0.003299,0.999899,0.000125,0.013782,-0.003444,-0.001716,-0.006134,0.004329,0.02907,0.008869,-0.011394
1609043680277891159,361,1609043680277891159,-2e-06,0.002816,-0.003273,0.999895,0.000188,0.01405,-0.003458,0.002106,0.002058,0.006842,0.030861,0.004746,-0.013299
1609043680381027460,362,1609043680381027460,-0.004242,-0.00198,-0.003155,0.999898,0.000352,0.01382,-0.003569,-0.004313,-0.008626,0.00657,0.03326,0.00504,-0.014207
