time,field.header.seq,field.header.stamp,field.pose.pose.position.x,field.pose.pose.position.y,field.pose.pose.position.z,field.pose.pose.orientation.x,field.pose.pose.orientation.y,field.pose.pose.orientation.z,field.pose.pose.orientation.w,field.twist.twist.linear.x,field.twist.twist.linear.y,field.twist.twist.linear.z,field.twist.twist.angular.x,field.twist.twist.angular.y,field.twist.twist.angular.z
1609046842781122923,2,1609046842781122923,0.004761,-0.000518,0.003295,0.999632,-0.000129,0.026819,-0.004006,0.006363,-0.000946,0.015494,0.011189,0.006009,0.00202
1609046842883485794,3,1609046842883485794,0.006595,-0.000265,0.001215,0.999635,-0.000176,0.026717,-0.003939,0.007208,0.000221,0.00747,0.012906,0.005819,0.001333
1609046842986877203,4,1609046842986877203,0.004217,0.000472,0.003421,0.99963,-9.3e-05,0.026866,-0.004098,0.000399,0.001451,0.010336,0.017591,0.005291,-0.001666
1609046843089576483,5,1609046843089576483,0.008394,0.000958,0.001772,0.999633,-0.000202,0.026753,-0.004098,0.008704,0.00319,0.005316,0.019497,0.005855,-0.003475
1609046843192418337,6,1609046843192418337,0.008417,-0.000758,0.003402,0.99963,-0.000146,0.026866,-0.004176,0.00656,-7.3e-05,0.009708,0.021235,0.007179,-0.005541
1609046843295470953,7,1609046843295470953,0.006821,2.9e-05,0.002855,0.999632,-0.000178,0.02682,-0.00394,0.004869,0.002582,0.007445,0.026079,0.006143,-0.007905
1609046843401053429,8,1609046843401053429,0.004774,-0.000734,0.000812,0.999634,-4.7e-05,0.02671,-0.004181,0.000251,-0.000993,0.002972,0.02613,0.004919,-0.008963
1609046843501728296,9,1609046843501728296,0.007717,-0.000995,0.002961,0.999632,-0.000143,0.026806,-0.004054,0.003887,-0.000502,0.006361,0.026433,0.00734,-0.008005
1609046843572059631,10,1609046843572059631,0.00343,-0.000193,0.002347,0.999635,-0.000216,0.026742,-0.003687,-0.005176,-0.002485,0.003676,0.001101,0.002886,0.007432
1609046843673682690,11,1609046843673682690,0.004983,-0.0009,0.004977,0.999629,-0.000199,0.026931,-0.003824,-0.001761,-0.004115,0.007931,-0.000965,0.002232,0.008174
1609046843776911259,12,1609046843776911259,0.004848,-0.000898,0.002989,0.999635,-0.000214,0.026739,-0.00365,-0.001291,-0.000959,0.002557,0.008945,0.004086,0.003379
1609046843879849672,13,1609046843879849672,0.005591,-0.000204,0.003402,0.999635,-7.7e-05,0.026745,-0.003746,0.00228,0.001793,0.00218,0.008734,0.005122,0.001792
1609046843984355450,14,1609046843984355450,0.006419,-0.000859,0.001658,0.999634,-0.000195,0.026747,-0.003927,0.002498,-5.4e-05,-0.002722,0.014848,0.007439,0.0011
1609046844085905075,15,1609046844085905075,0.008354,0.000129,0.001506,0.999635,-0.000133,0.026716,-0.003952,0.005608,0.003184,-0.001223,0.01618,0.004557,-0.002205
1609046844189086676,16,1609046844189086676,0.005806,1e-05,0.00178,0.999632,-0.000131,0.026786,-0.004116,-0.002599,0.002157,-0.000505,0.022434,0.007793,-0.004332
1609046844292747259,17,1609046844292747259,0.006129,-0.001747,-4e-05,0.999634,-0.000134,0.026716,-0.004141,-0.002271,-0.002503,-0.002271,0.022341,0.005078,-0.005342
1609046844395283222,18,1609046844395283222,0.006718,0.000175,0.003471,0.999633,-0.000265,0.026772,-0.004,-0.001827,0.003036,0.004475,0.025982,0.006563,-0.006616
1609046844498527050,19,1609046844498527050,0.003075,-0.001994,0.00037,0.999635,-2.7e-05,0.026686,-0.004119,-0.008346,-0.001701,-0.00355,0.024213,0.003796,-0.007832
1609046844601438999,20,1609046844601438999,0.002708,-0.000487,0.002117,0.999632,-9.2e-05,0.026817,-0.004063,-0.009492,0.003042,0.000425,0.026683,0.00543,-0.009765
1609046844671971083,21,1609046844671971083,0.000589,-0.002796,0.002857,0.999635,-6.5e-05,0.026729,-0.003834,-0.011726,-0.008063,0.000695,-0.000712,0.003916,0.007537
1609046844774305820,22,1609046844774305820,0.000204,-0.003015,0.001665,0.999635,-8.4e-05,0.026711,-0.003847,-0.007967,-0.007746,-0.000672,0.004173,0.002705,0.00653
1609046844876910925,23,1609046844876910925,0.001883,-0.002264,0.000985,0.999638,-0.000136,0.026604,-0.003952,0.00028,-0.005237,7.7e-05,0.007249,0.003439,0.004812
1609046844979641438,24,1609046844979641438,0.001608,-0.000651,0.001776,0.999637,-0.000167,0.026638,-0.003891,0.00052,0.000522,0.001142,0.011842,0.004519,0.001792
1609046845087772608,25,1609046845087772608,0.001704,-0.00068,0.003007,0.999633,-0.00022,0.026757,-0.003996,0.00056,0.001577,0.003402,0.018662,0.006236,-0.002229
1609046845191053152,26,1609046845191053152,1.5e-05,1.6e-05,0.002369,0.999633,-0.000282,0.026788,-0.003807,-0.003667,0.004049,0.000141,0.019974,0.005137,-0.003319
1609046845293898582,27,1609046845293898582,0.003403,-0.000299,0.001366,0.999633,-0.000139,0.026761,-0.004055,0.00339,0.001654,-0.002046,0.024185,0.00653,-0.007487
1609046845396756887,28,1609046845396756887,0.004343,0.000737,0.001282,0.999634,-0.000254,0.026711,-0.00411,0.005756,0.004747,-0.001654,0.024018,0.005185,-0.007251
1609046845500083208,29,1609046845500083208,0.004804,0.001039,0.002547,0.999635,-0.000289,0.026682,-0.004097,0.006167,0.005051,0.002198,0.026134,0.00492,-0.008893
1609046845572151423,30,1609046845572151423,0.005132,0.000394,0.001331,0.99963,-8.3e-05,0.026877,-0.004175,0.006793,-0.00263,-0.000848,0.001141,0.004196,0.00732
1609046845672154188,31,1609046845672154188,0.003791,-0.000629,0.002712,0.999624,-0.000222,0.027103,-0.003905,9.2e-05,-0.00168,0.001261,0.000682,0.001837,0.007411
1609046845775036573,32,1609046845775036573,0.008521,-0.000636,0.000145,0.999634,-0.000379,0.026789,-0.003698,0.012103,-0.000469,-0.004395,0.000931,0.003397,0.006989
1609046845877982140,33,1609046845877982140,0.006528,-0.001335,6e-06,0.999635,-0.000208,0.026725,-0.003802,0.005058,-0.001118,-0.00309,0.007073,0.004707,0.003743
1609046845980954409,34,1609046845980954409,0.007184,-0.001389,0.002412,0.999636,-0.000295,0.026698,-0.003788,0.004357,0.000815,0.002148,0.009556,0.005513,0.002628
1609046846084257603,35,1609046846084257603,0.006812,-0.000597,0.004375,0.999631,-0.000237,0.026858,-0.003932,-0.000731,0.00523,0.007798,0.016319,0.002724,-0.002368
1609046846187910557,36,1609046846187910557,0.006133,-0.000459,0.006496,0.999628,-7e-05,0.026938,-0.004176,-0.004468,0.00287,0.010746,0.018949,0.006573,-0.003981
1609046846290307045,37,1609046846290307045,0.005622,0.000436,0.004667,0.999631,-0.000274,0.026866,-0.003918,-0.002959,0.00335,0.003405,0.022637,0.006749,-0.005407
1609046846393627167,38,1609046846393627167,0.005681,-0.000404,0.002801,0.99963,-0.000156,0.026837,-0.004353,-0.005354,0.001148,0.000109,0.024253,0.00718,-0.006967
1609046846497103453,39,1609046846497103453,0.009072,0.000561,0.002372,0.999634,-0.000183,0.026723,-0.003987,0.002902,0.004579,0.000742,0.025909,0.005677,-0.00778
1609046846600000381,40,1609046846600000381,0.002204,-0.002171,0.001965,0.999633,9.8e-05,0.026777,-0.004062,-0.009684,-2e-06,-3.9e-05,0.024026,0.003694,-0.006667
1609046846672477961,41,1609046846672477961,0.004571,0.00088,0.002638,0.999629,-0.00013,0.026862,-0.004279,-0.004514,0.00134,-0.00017,0.001052,0.002778,0.007754
1609046846772044897,42,1609046846772044897,0.006695,0.00052,0.00242,0.999632,-0.000326,0.026841,-0.003819,-0.000211,0.001869,-0.000241,-0.000388,0.004842,0.008563
1609046846875285625,43,1609046846875285625,0.005086,-0.0008,-0.000129,0.999634,-0.000206,0.026758,-0.00375,-0.005306,-0.001972,-0.006942,0.004882,0.004022,0.005988
1609046846983413935,44,1609046846983413935,0.007644,-0.0021,0.001321,0.999637,-0.000252,0.026657,-0.003765,-0.001014,-0.003984,-0.003175,0.015607,0.006326,-0.000428
1609046847084388256,45,1609046847084388256,0.005491,-0.002575,0.001403,0.999634,-0.000253,0.026765,-0.00388,-0.004867,-0.003453,-0.002517,0.014048,0.005219,-0.000845
1609046847187813282,46,1609046847187813282,0.003399,-0.003319,0.003684,0.999631,-5.5e-05,0.026871,-0.003954,-0.009564,-0.003589,0.002783,0.018819,0.006786,-0.003133
1609046847291962624,47,1609046847291962624,0.005616,-0.001665,0.001937,0.999633,-9.5e-05,0.026759,-0.003999,-0.003082,0.002674,0.00048,0.021297,0.006307,-0.004417
1609046847393856525,48,1609046847393856525,0.002807,-0.000745,-0.000371,0.999636,-0.000193,0.026653,-0.00397,-0.009451,0.007218,-0.004401,0.025701,0.006527,-0.005665
1609046847497085810,49,1609046847497085810,0.007766,-0.001905,0.002795,0.999632,-0.000105,0.026786,-0.004045,0.001111,0.006471,0.002679,0.02457,0.005705,-0.008301
1609046847599806547,50,1609046847599806547,0.00604,0.000378,0.003184,0.999631,-0.000163,0.026836,-0.004042,-0.002496,0.010895,0.004476,0.02596,0.005003,-0.008332
1609046847671875477,51,1609046847671875477,0.003004,-0.001621,0.000734,0.999635,-0.000162,0.026709,-0.003911,-0.008288,-0.000903,-0.001938,-0.000369,0.005784,0.008267
1609046847772095680,52,1609046847772095680,0.002828,-0.002153,0.001443,0.999632,-0.000173,0.02682,-0.003884,-0.005187,-0.003418,0.000683,-5e-05,0.002842,0.0075
1609046847875608683,53,1609046847875608683,0.001827,-0.000424,0.002833,0.999632,-0.000241,0.026822,-0.003902,-0.00756,-9.1e-05,0.00531,0.007076,0.00459,0.00452
1609046847978022099,54,1609046847978022099,0.006077,-0.000629,0.001894,0.999637,-0.000116,0.026662,-0.00378,0.0046,0.001932,0.00287,0.007439,0.004794,0.002808
1609046848081429005,55,1609046848081429005,0.008267,-0.000429,0.001116,0.999632,-0.000222,0.026771,-0.004184,0.007925,-0.00027,0.003175,0.009661,0.006653,0.002372
1609046848184927940,56,1609046848184927940,0.004734,0.000886,0.001493,0.999633,-0.000233,0.026741,-0.004122,-0.000474,0.003215,0.005859,0.011727,0.00408,0.001143
1609046848296851397,57,1609046848296851397,0.005361,0.000857,0.003442,0.999629,-0.000338,0.026875,-0.004317,-0.001751,0.004944,0.010163,0.022409,0.004869,-0.006271
1609046848400095463,58,1609046848400095463,0.007408,0.002565,0.001492,0.999632,-0.000297,0.026736,-0.004376,0.001966,0.008625,0.003389,0.027073,0.005723,-0.009099
1609046848501193047,59,1609046848501193047,0.008545,0.00217,0.003437,0.999632,-0.00025,0.026785,-0.00414,0.002869,0.007847,0.006722,0.024973,0.002893,-0.008847
1609046848571957111,60,1609046848571957111,0.007832,0.000829,0.003187,0.999626,-0.000224,0.027041,-0.004064,0.000431,-0.001094,0.004465,0.001647,0.004004,0.006343
1609046848673169613,61,1609046848673169613,0.010137,0.000587,0.004161,0.999631,-0.000206,0.026833,-0.00421,0.00701,-0.00224,0.004697,0.003056,0.005651,0.00626
1609046848777867794,62,1609046848777867794,0.004174,0.00226,0.00179,0.999633,-0.000333,0.02681,-0.003771,-0.005544,0.004748,-0.000244,0.008236,0.005214,0.002375
1609046848881298065,63,1609046848881298065,0.006913,0.000843,0.000376,0.999635,-0.000207,0.026667,-0.004155,-0.001382,-0.000857,-0.003782,0.012935,0.006794,0.00107
1609046848982772350,64,1609046848982772350,0.00528,-0.001327,0.004399,0.99963,-0.000356,0.026927,-0.00378,-0.006277,-0.003049,0.004569,0.009397,0.004577,0.002019
1609046849085796118,65,1609046849085796118,0.007101,-0.001365,0.004716,0.999632,-0.00019,0.026842,-0.003894,-0.001471,-0.001217,0.004947,0.016876,0.006454,-0.002193
1609046849188966751,66,1609046849188966751,0.003751,-0.001928,0.002797,0.999633,-0.000112,0.026807,-0.00386,-0.006679,-0.000714,0.001948,0.020944,0.004686,-0.005101
1609046849292664289,67,1609046849292664289,0.003652,0.000837,0.001582,0.999633,-0.000287,0.026764,-0.004062,-0.003215,0.006248,0.000831,0.024078,0.00692,-0.006819
1609046849395053864,68,1609046849395053864,0.00501,-8.6e-05,0.002439,0.999633,-0.000336,0.02678,-0.003973,0.001252,0.004358,0.004872,0.024736,0.007392,-0.007108
1609046849498718739,69,1609046849498718739,0.006687,-0.000182,0.001285,0.999633,-0.000149,0.026755,-0.004007,0.005184,0.004032,0.002609,0.024769,0.004149,-0.00849
1609046849601204157,70,1609046849601204157,0.002851,0.000611,0.002187,0.999632,-6.2e-05,0.026807,-0.004051,-0.003346,0.005984,0.004033,0.026797,0.004526,-0.00882
1609046849671424627,71,1609046849671424627,0.004947,-0.000771,0.003875,0.999628,-8.2e-05,0.026925,-0.00419,-0.002482,-0.002735,0.004412,0.000171,0.005023,0.007932
1609046849773547411,72,1609046849773547411,0.003765,0.001003,0.001808,0.999629,-0.000287,0.026899,-0.00412,-0.002825,0.001163,0.000232,0.000668,0.005005,0.006741
1609046849876348972,73,1609046849876348972,0.00273,-0.000512,0.003238,0.999632,-0.000347,0.026813,-0.003865,-0.00401,-0.000771,0.004034,0.0087,0.005253,0.002961
1609046849979423761,74,1609046849979423761,0.006517,-0.000681,0.002991,0.99963,-0.000399,0.026869,-0.003968,0.002619,-0.001107,0.002684,0.009145,0.004668,0.001923
1609046850082615614,75,1609046850082615614,0.006319,-0.00168,0.001871,0.999634,-0.000216,0.026705,-0.004109,0.001678,-0.002915,0.000891,0.01337,0.006454,-0.000119
1609046850185678720,76,1609046850185678720,0.006937,-9.4e-05,0.000147,0.999633,-0.000175,0.026781,-0.003998,2.3e-05,0.001293,-0.004653,0.014925,0.004068,-0.001703
1609046850288942575,77,1609046850288942575,0.005834,-0.0004,0.003195,0.999632,-0.000246,0.026863,-0.003756,-0.001426,0.0022,0.002609,0.018967,0.006827,-0.002483
1609046850392298698,78,1609046850392298698,0.007015,0.000568,0.002333,0.999631,-0.000252,0.02681,-0.004139,-0.000123,0.003739,0.001817,0.022567,0.005829,-0.00757
1609046850495137453,79,1609046850495137453,0.0071,-0.00093,0.001284,0.99963,-0.000128,0.026846,-0.00415,-0.002293,0.000761,-0.001404,0.024446,0.005701,-0.007848
1609046850598149061,80,1609046850598149061,0.004129,-0.000608,0.002849,0.999632,-0.000242,0.026795,-0.00411,-0.006112,-0.000114,0.003085,0.024481,0.004499,-0.008931
1609046850701236486,81,1609046850701236486,0.004556,0.001334,0.001981,0.999633,-0.000131,0.026756,-0.004072,-0.004187,0.005692,0.000752,0.026261,0.005852,-0.008848
1609046850771607161,82,1609046850771607161,0.003709,-0.001327,0.002368,0.999629,-9.7e-05,0.026921,-0.004111,-0.004326,-0.005518,0.000538,0.00142,0.006497,0.007851
1609046850873324871,83,1609046850873324871,0.001061,-0.000345,0.002556,0.999632,-0.000302,0.026834,-0.00393,-0.007282,-0.000881,-0.000223,0.003862,0.002853,0.0056
1609046850976317406,84,1609046850976317406,0.005589,0.000699,0.001075,0.999632,-0.000282,0.026818,-0.0039,0.003152,0.003134,-0.004483,0.008787,0.004891,0.004216
1609046851079416513,85,1609046851079416513,0.006531,-0.001127,0.001115,0.999637,-0.000418,0.026667,-0.003635,0.005107,-0.00091,-0.002029,0.009768,0.005276,0.003373
1609046851183229685,86,1609046851183229685,0.005344,-0.001596,0.000393,0.999636,-0.000369,0.026667,-0.003954,0.002655,-0.003356,-0.000283,0.013504,0.006064,0.000945
1609046851285019875,87,1609046851285019875,0.002196,-0.00108,-0.000905,0.999636,-0.000227,0.026644,-0.003985,-0.004289,-0.000202,-0.001216,0.018467,0.006506,-0.000554
1609046851388114214,88,1609046851388114214,0.002021,0.000261,0.000643,0.999636,-0.000289,0.026666,-0.004036,-0.004674,0.003821,0.002504,0.021057,0.005482,-0.003998
1609046851491568804,89,1609046851491568804,0.005518,-0.00025,0.001349,0.999633,-0.000349,0.026752,-0.004151,0.001021,0.002616,0.003415,0.020776,0.007014,-0.004373
1609046851594684839,90,1609046851594684839,0.005831,0.000121,0.004953,0.99963,-0.000169,0.026881,-0.004127,-0.000506,0.002413,0.010831,0.022529,0.006005,-0.006362
1609046851697880507,91,1609046851697880507,0.004598,0.000936,0.001985,0.999633,-0.000189,0.02676,-0.004032,-0.001573,0.004492,0.004984,0.026776,0.004207,-0.008134
1609046851800915956,92,1609046851800915956,0.010398,-0.001328,0.004912,0.999629,-0.000184,0.026883,-0.004207,0.008154,-0.001234,0.009379,0.025173,0.003966,-0.009892
1609046851871320963,93,1609046851871320963,0.006772,0.000636,0.002937,0.999629,-0.00028,0.026888,-0.004309,-0.000372,-0.000225,0.002666,0.001524,0.005804,0.005447
1609046851973047495,94,1609046851973047495,0.009131,0.00274,0.001527,0.999633,-0.000643,0.026767,-0.004116,0.004877,0.006069,-0.001387,0.003008,0.004787,0.006611
1609046852076071501,95,1609046852076071501,0.009194,0.000832,0.001311,0.999631,-0.000421,0.026846,-0.004057,0.004662,7.4e-05,-0.002994,0.00603,0.003666,0.003714
1609046852179152250,96,1609046852179152250,0.008265,-0.000478,0.000197,0.999631,-0.000401,0.026792,-0.004239,1.4e-05,-0.004294,-0.004443,0.009872,0.005155,0.001787
1609046852282329321,97,1609046852282329321,0.00583,-0.000181,0.002762,0.99963,-0.000263,0.026878,-0.003994,-0.005749,-0.001843,0.002421,0.013581,0.006808,-0.000702
1609046852384957314,98,1609046852384957314,0.001323,0.000374,0.004692,0.99963,-0.000149,0.026891,-0.003947,-0.013844,0.001322,0.006458,0.012881,0.004536,-0.0006
1609046852488520622,99,1609046852488520622,0.005705,0.00071,0.003405,0.999634,-0.00025,0.026719,-0.004005,-0.001773,0.003503,0.003482,0.021641,0.004623,-0.004966
1609046852591594219,100,1609046852591594219,0.004486,-0.001464,0.00416,0.999633,-0.000214,0.026808,-0.003884,-0.00343,0.000134,0.00632,0.021166,0.005202,-0.004728
1609046852694822311,101,1609046852694822311,0.003587,0.000292,0.000638,0.999633,-0.00019,0.026745,-0.004245,-0.003156,0.003948,-0.000514,0.024168,0.005806,-0.006787
1609046852797986269,102,1609046852797986269,0.009384,-0.000932,0.00205,0.999633,-0.000202,0.026768,-0.004121,0.009001,0.001423,0.002812,0.025955,0.004205,-0.007648
1609046852901259899,103,1609046852901259899,0.006255,0.001739,0.002773,0.999633,-0.000374,0.026784,-0.003976,0.00154,0.009154,0.004023,0.027227,0.005997,-0.007401
1609046852971366405,104,1609046852971366405,0.006614,0.000369,0.002873,0.999632,-0.000167,0.026812,-0.004008,0.002312,0.000555,0.00121,0.001005,0.002836,0.008173
1609046853073413610,105,1609046853073413610,0.00545,0.000521,0.003068,0.999633,-0.000325,0.026782,-0.003814,-9.6e-05,0.001575,0.00307,0.005389,0.006617,0.006871
1609046853176168919,106,1609046853176168919,0.005773,0.000647,-0.000205,0.999634,-0.000394,0.026738,-0.003931,-0.001516,0.001326,-0.005309,0.008459,0.001736,0.003749
1609046853279094458,107,1609046853279094458,0.007494,0.000632,0.001678,0.999634,-0.00027,0.026737,-0.003984,0.000709,0.000623,0.000292,0.007622,0.005073,0.002809
1609046853381848097,108,1609046853381848097,0.007791,-0.001044,0.002824,0.999632,-0.000304,0.026825,-0.004008,0.000162,-0.002282,0.003293,0.012182,0.005687,0.001664
1609046853485204458,109,1609046853485204458,0.005309,0.000693,0.00112,0.999636,-0.00029,0.026685,-0.003851,-0.002771,0.003156,0.00104,0.018791,0.006639,-0.003021
1609046853588275433,110,1609046853588275433,0.003166,0.000409,9.8e-05,0.999637,-0.000286,0.02666,-0.003842,-0.00645,0.002109,-0.001084,0.021365,0.00599,-0.003511
1609046853691444874,111,1609046853691444874,0.006385,0.000203,0.004848,0.999631,-0.000324,0.026861,-0.003819,-0.002755,0.001997,0.00837,0.01996,0.006124,-0.004171
1609046853794646025,112,1609046853794646025,0.00513,0.000249,0.002239,0.999633,-0.000353,0.026747,-0.004231,-0.003025,0.001201,0.004623,0.02279,0.006565,-0.006045
1609046853897840738,113,1609046853897840738,0.004307,-0.000271,0.002115,0.999634,-0.000137,0.026736,-0.004004,-0.002128,0.002855,0.002247,0.025236,0.004191,-0.008766
1609046854001017094,114,1609046854001017094,0.006154,0.00043,0.002468,0.999633,-0.000207,0.026757,-0.003991,0.002849,0.002259,0.001388,0.026602,0.004605,-0.009337
1609046854071305275,115,1609046854071305275,0.004469,-0.001012,0.001781,0.99963,-0.000161,0.026894,-0.003915,-0.001903,-0.005199,-0.002751,0.000903,0.003822,0.00679
1609046854173077583,116,1609046854173077583,0.002825,2.2e-05,0.001895,0.999629,-0.000257,0.026887,-0.004137,-0.005679,-0.002637,-0.001371,0.00236,0.006553,0.006016
1609046854276171684,117,1609046854276171684,0.007159,-0.000469,0.001947,0.999631,-0.000414,0.026872,-0.00385,0.003984,-0.002328,-0.001331,0.008701,0.004081,0.00299
1609046854379001379,118,1609046854379001379,0.007228,0.000901,0.004024,0.999628,-0.000414,0.026945,-0.004056,0.001713,0.000235,0.005504,0.010708,0.005624,0.00069
1609046854482342958,119,1609046854482342958,0.007093,0.000347,0.003694,0.999631,-0.000432,0.026867,-0.003781,0.001876,0.000577,0.005004,0.015174,0.005496,-0.000233
1609046854585064888,120,1609046854585064888,0.00606,0.000637,0.003106,0.999632,-0.00043,0.026836,-0.003783,-0.000667,0.003218,0.000561,0.017616,0.006869,-0.00122
1609046854688234806,121,1609046854688234806,0.003307,-0.000924,0.003012,0.99963,-0.000117,0.026847,-0.004186,-0.005389,-0.001145,0.001065,0.018932,0.004795,-0.003829
1609046854791399956,122,1609046854791399956,0.004752,-0.000949,0.003151,0.999634,-0.000218,0.026744,-0.00402,0.001516,0.001502,0.001991,0.022221,0.006306,-0.004603
1609046854894348621,123,1609046854894348621,0.007301,-0.001704,0.003828,0.999633,-0.000317,0.026804,-0.003871,0.005054,0.003387,0.003555,0.022906,0.004807,-0.007662
1609046854998707056,124,1609046854998707056,0.004415,-0.001458,0.00389,0.999629,-2.8e-05,0.026918,-0.003964,-0.001402,0.003959,0.003847,0.027041,0.004398,-0.007966
1609046855101145506,125,1609046855101145506,0.004105,-0.000701,0.004752,0.999628,-0.000152,0.02695,-0.00412,-0.003568,0.005177,0.00557,0.025734,0.003397,-0.009475
1609046855171255827,126,1609046855171255827,0.00424,-3.3e-05,0.002252,0.999626,-0.0001,0.027002,-0.004241,-0.002732,0.000622,-5.3e-05,0.002076,0.005769,0.007412
1609046855273828268,127,1609046855273828268,0.002593,-0.000286,0.002963,0.999629,-0.000164,0.026886,-0.004143,-0.005279,0.000827,0.000388,-0.00108,0.002813,0.00866
1609046855376131296,128,1609046855376131296,0.004482,0.000656,-0.000635,0.999633,-0.000374,0.026778,-0.004076,0.001196,0.003365,-0.00734,0.00589,0.003529,0.004278
1609046855479208469,129,1609046855479208469,0.004748,0.001543,-0.002897,0.999634,-0.000225,0.026694,-0.004159,0.001017,0.002957,-0.01004,0.008849,0.007521,0.004583
1609046855582283020,130,1609046855582283020,0.004281,-0.000362,-0.000195,0.999634,-0.000304,0.02675,-0.003913,-0.000393,0.001196,-0.003579,0.015092,0.005561,-0.001526
1609046855685334921,131,1609046855685334921,0.003283,-1e-05,0.001139,0.999632,-0.000172,0.026804,-0.003992,-0.002043,0.002583,2e-05,0.019787,0.006783,-0.0026
1609046855788450480,132,1609046855788450480,0.003089,0.002801,-0.000841,0.999633,-0.000352,0.026746,-0.004095,-0.002695,0.00797,-0.002915,0.01873,0.006771,-0.003025
1609046855891535044,133,1609046855891535044,0.003173,0.001061,0.002526,0.999632,-0.000321,0.026814,-0.004035,-0.003635,0.003331,0.003774,0.021446,0.007564,-0.004787
1609046855994340181,134,1609046855994340181,0.004825,0.001058,0.003263,0.999629,-0.000227,0.026905,-0.004139,-0.000796,0.001341,0.00387,0.025106,0.006156,-0.006528
1609046856097698927,135,1609046856097698927,0.006653,-0.000791,0.003786,0.999631,-0.00014,0.026869,-0.003821,0.000113,0.000201,0.001642,0.023855,0.005115,-0.007302
1609046856200646877,136,1609046856200646877,0.00647,-0.001177,0.00336,0.999631,-0.000249,0.026808,-0.004141,-0.000615,-0.000243,0.002103,0.026094,0.003674,-0.008859
1609046856270874262,137,1609046856270874262,0.00363,-0.000403,0.003234,0.99963,-3.2e-05,0.026844,-0.004356,-0.005425,-0.00336,0.000304,0.003378,0.005749,0.006621
1609046856373088121,138,1609046856373088121,0.004605,0.000599,0.003262,0.999628,-0.000196,0.026899,-0.004315,-0.002775,-0.001721,0.000603,0.002689,0.003753,0.005805
1609046856475932360,139,1609046856475932360,0.005757,0.002299,0.00395,0.999626,-0.000249,0.027013,-0.004071,-0.001632,0.004716,0.001738,0.006819,0.006323,0.003848
1609046856578944206,140,1609046856578944206,0.006697,0.000869,0.004577,0.99963,-0.000274,0.026889,-0.003866,0.000148,0.001746,0.003229,0.009262,0.004666,0.002473
1609046856682237148,141,1609046856682237148,0.003224,0.000742,0.000774,0.999633,-0.000223,0.026775,-0.004077,-0.005535,0.000346,-0.004128,0.012494,0.006823,0.000321
1609046856785253286,142,1609046856785253286,0.005341,0.001297,0.002476,0.999631,-0.000406,0.026834,-0.003975,-0.002185,0.002916,-0.001032,0.017495,0.005936,-0.000709
1609046856888509989,143,1609046856888509989,0.006078,0.000524,0.000381,0.999635,-0.000249,0.026655,-0.0042,-0.000127,0.000699,-0.003239,0.019923,0.005242,-0.003618
1609046856991461277,144,1609046856991461277,0.005048,0.000649,0.001943,0.999633,-0.000365,0.02679,-0.003947,-0.001111,0.003119,-0.000281,0.021908,0.005714,-0.006817
1609046857094422340,145,1609046857094422340,0.006204,0.00017,0.002664,0.999629,-0.000303,0.026887,-0.004156,-0.001212,0.002382,0.003165,0.024171,0.006229,-0.006559
1609046857197767019,146,1609046857197767019,0.008763,0.000631,0.004806,0.999626,-0.000273,0.026977,-0.004256,0.002732,0.003277,0.005999,0.025542,0.004862,-0.007839
1609046857300457954,147,1609046857300457954,0.005885,-0.001428,0.002787,0.999633,2.6e-05,0.026739,-0.004256,-0.001357,1.2e-05,0.001972,0.026277,0.003689,-0.008418
1609046857370843410,148,1609046857370843410,0.006015,-0.000887,0.004712,0.999625,-1.4e-05,0.027043,-0.004152,-0.001798,-0.002427,0.002963,0.000228,0.005116,0.007558
1609046857472904444,149,1609046857472904444,0.007277,0.000389,0.004888,0.999625,-0.000301,0.027104,-0.003874,0.001309,0.001213,0.003662,-0.000182,0.002889,0.007895
1609046857575943708,150,1609046857575943708,0.007606,-0.000413,0.001912,0.999629,-0.000255,0.026954,-0.003895,0.001639,-0.00085,-0.00288,0.008028,0.004083,0.004411
1609046857679066896,151,1609046857679066896,0.009088,0.001229,0.002344,0.99963,-0.000369,0.026877,-0.004119,0.004589,0.001941,-0.001613,0.011064,0.002798,0.000914
1609046857782416105,152,1609046857782416105,0.004731,0.000677,0.00118,0.999633,-0.000309,0.026765,-0.004078,-0.0035,0.001713,-0.001193,0.012692,0.004836,0.00101
1609046857885345697,153,1609046857885345697,0.007019,-0.000328,0.004218,0.999629,-0.000453,0.026931,-0.003869,0.002196,0.002257,0.004965,0.01599,0.005437,-0.001992
1609046857988800764,154,1609046857988800764,0.008466,-0.000782,0.004286,0.999628,-0.000361,0.026932,-0.004068,0.003525,-0.002466,0.005642,0.018258,0.005543,-0.003366
1609046858091836929,155,1609046858091836929,0.010806,0.000996,0.001795,0.999633,-0.000439,0.026746,-0.004041,0.008564,0.00497,0.001123,0.021538,0.004707,-0.006122
1609046858194612265,156,1609046858194612265,0.008907,0.000234,0.004222,0.999631,-0.000326,0.026834,-0.004012,0.005404,0.002232,0.005947,0.024428,0.006223,-0.005995
1609046858298383713,157,1609046858298383713,0.009791,0.001512,0.005552,0.999627,-0.000568,0.026979,-0.003977,0.008151,0.00512,0.007906,0.026354,0.004891,-0.007282
1609046858400810719,158,1609046858400810719,0.011641,0.001184,0.005766,0.999628,-0.000311,0.026925,-0.004248,0.011099,0.003069,0.008274,0.025872,0.003242,-0.00841
1609046858471033335,159,1609046858471033335,0.011957,0.002251,0.000842,0.999632,-0.000223,0.026744,-0.004492,0.014629,-0.001602,-0.000566,0.000682,0.00449,0.007515
1609046858572797775,160,1609046858572797775,0.013943,1e-05,0.002378,0.99963,-0.000301,0.026874,-0.004142,0.017131,-0.004395,0.002068,0.004682,0.004052,0.00621
1609046858675834417,161,1609046858675834417,0.013696,0.001312,0.002074,0.999629,-0.000375,0.02694,-0.00392,0.0105,0.00022,0.001306,0.005408,0.003984,0.005821
1609046858778877735,162,1609046858778877735,0.015368,-0.000332,0.006848,0.999627,-0.000391,0.027016,-0.003922,0.011028,-0.000846,0.011767,0.009408,0.003439,0.002509
1609046858882261753,163,1609046858882261753,0.011093,-0.001263,0.006308,0.999624,-0.000289,0.027111,-0.004085,-0.001453,-0.003256,0.009819,0.012947,0.006082,-0.000529
1609046858984929800,164,1609046858984929800,0.013142,-0.002611,0.004116,0.999632,-0.000377,0.026831,-0.00375,0.007674,-0.004903,0.004221,0.018509,0.00594,-0.00244
1609046859088097572,165,1609046859088097572,0.005181,-0.001715,0.004355,0.999631,-0.000133,0.026855,-0.004033,-0.008854,-0.000453,0.003475,0.019782,0.005593,-0.002897
1609046859191257477,166,1609046859191257477,0.008143,9.2e-05,0.005506,0.999626,-0.000318,0.027028,-0.003973,-0.002166,0.005888,0.00561,0.022861,0.005795,-0.004335
1609046859294385672,167,1609046859294385672,0.006559,0.000538,0.00491,0.999631,-9.3e-05,0.026858,-0.003934,-0.005697,0.008916,0.004516,0.023722,0.005822,-0.006588
1609046859397656202,168,1609046859397656202,0.011249,-0.000596,0.007894,0.999626,-0.000302,0.027062,-0.003774,0.005815,0.004579,0.008705,0.026097,0.004032,-0.008369
1609046859500774622,169,1609046859500774622,0.012239,0.001589,0.007313,0.999625,-0.000274,0.027069,-0.00411,0.006396,0.006783,0.005533,0.025492,0.00291,-0.009764
1609046859571021557,170,1609046859571021557,0.01184,0.00155,0.003364,0.999628,-0.000321,0.02694,-0.00422,0.007149,0.001121,-0.005223,0.000418,0.003679,0.007366
1609046859672726393,171,1609046859672726393,0.012111,0.001433,0.003197,0.99963,-0.000369,0.026875,-0.004041,0.009108,0.000713,-0.004628,0.003051,0.004163,0.006579
1609046859776108265,172,1609046859776108265,0.009051,0.002424,0.002265,0.999626,-0.000481,0.027009,-0.004193,-0.000317,0.00418,-0.005247,0.00865,0.004554,0.004643
1609046859879061699,173,1609046859879061699,0.010583,0.001187,0.003435,0.99963,-0.000559,0.026898,-0.003807,0.00396,0.001671,-0.000451,0.009921,0.004864,0.002764
1609046859982322693,174,1609046859982322693,0.012087,-0.0011,0.001269,0.999635,-0.000372,0.026719,-0.003915,0.008885,-0.003652,-0.002193,0.012654,0.005828,0.000867
1609046860085167170,175,1609046860085167170,0.00973,-0.001082,0.003913,0.99963,-0.000412,0.026893,-0.004012,0.002386,-0.001931,0.004765,0.017237,0.006059,-0.000829
1609046860188185930,176,1609046860188185930,0.007636,-0.001406,0.003676,0.999629,-0.000217,0.026909,-0.003987,-0.000951,-0.001489,0.004446,0.018039,0.006791,-0.002057
1609046860291242361,177,1609046860291242361,0.009845,-0.001258,0.002243,0.99963,-0.000268,0.026836,-0.004248,0.001773,-0.001381,0.000442,0.020733,0.006882,-0.004534
1609046860394419670,178,1609046860394419670,0.009065,-0.001022,0.001906,0.999632,-0.000127,0.026779,-0.004096,-0.000767,0.002476,-0.002559,0.025386,0.006805,-0.007053
1609046860497514486,179,1609046860497514486,0.007925,0.000655,0.000168,0.999634,-0.000243,0.026704,-0.004229,-0.000657,0.004643,-0.005755,0.024512,0.002971,-0.007721
1609046860600615501,180,1609046860600615501,0.00648,0.001053,0.004291,0.99963,-0.000169,0.026868,-0.004011,-0.00551,0.005117,0.003117,0.027095,0.00737,-0.009424
1609046860670919895,181,1609046860670919895,0.012022,0.000992,0.001349,0.999629,-0.000219,0.026862,-0.00448,0.008034,-0.00041,-0.00466,0.000653,0.002409,0.006722
1609046860773055792,182,1609046860773055792,0.013368,0.000522,0.002497,0.99963,-0.000336,0.026853,-0.004283,0.009431,-0.001341,-0.000836,0.003497,0.004131,0.006722
1609046860875856161,183,1609046860875856161,0.011951,0.00142,2.3e-05,0.999631,-0.000307,0.026793,-0.004271,0.004727,3.1e-05,-0.006071,0.004652,0.005277,0.006245
1609046860979003668,184,1609046860979003668,0.013448,0.002862,0.002071,0.999634,-0.000474,0.026709,-0.004073,0.00727,0.003069,-0.000626,0.009166,0.005379,0.002169
1609046861082153320,185,1609046861082153320,0.008396,-0.000822,-0.000366,0.999634,-0.000203,0.026691,-0.004231,-0.002157,-0.007289,-0.005249,0.014237,0.004141,-0.000495
1609046861185218811,186,1609046861185218811,0.011938,-0.000264,0.002484,0.999631,-0.000329,0.026835,-0.004183,0.003826,-0.004414,0.000208,0.013992,0.002351,0.000419
1609046861288495064,187,1609046861288495064,0.009241,-0.000615,0.001304,0.999631,-0.000358,0.026801,-0.004309,-0.001004,-0.005488,3.3e-05,0.020456,0.006028,-0.004163
1609046861391306162,188,1609046861391306162,0.007074,-0.000963,0.001347,0.999632,-0.000366,0.026797,-0.004072,-0.00581,-0.00189,-0.000173,0.020963,0.005832,-0.00482
1609046861494316578,189,1609046861494316578,0.007794,-0.000299,-0.000401,0.999632,-0.000317,0.026795,-0.00411,-0.000584,0.002185,-0.002944,0.024288,0.005172,-0.007027
1609046861597460032,190,1609046861597460032,0.006512,0.000306,5.2e-05,0.999631,-0.000147,0.026803,-0.004262,-0.002024,0.005004,0.000964,0.02533,0.005029,-0.007669
1609046861700460911,191,1609046861700460911,0.005815,-0.001032,0.000795,0.999635,-0.000113,0.026718,-0.003976,0.000818,0.004874,0.002595,0.027304,0.004406,-0.009955
1609046861770995855,192,1609046861770995855,0.008144,6.9e-05,0.000552,0.99963,-0.000162,0.026837,-0.00433,0.007007,0.000493,0.001745,-0.00151,0.00429,0.0072
1609046861872781992,193,1609046861872781992,0.008911,0.000114,0.00281,0.999632,-0.000345,0.026791,-0.004076,0.00891,0.001689,0.004232,0.004537,0.00359,0.005659
1609046861975788116,194,1609046861975788116,0.012219,-0.000644,0.000747,0.999628,-0.000313,0.02694,-0.004187,0.013491,-0.000444,0.000194,0.008009,0.003065,0.004796
1609046862078939438,195,1609046862078939438,0.014583,-0.000663,0.000907,0.999632,-0.000178,0.026777,-0.004185,0.015625,-0.000721,0.000108,0.010303,0.005118,0.000783
1609046862182152987,196,1609046862182152987,0.014723,0.00226,0.002072,0.999632,-0.000284,0.026802,-0.004097,0.013102,0.005192,0.003773,0.010061,0.004131,0.002308
1609046862285255909,197,1609046862285255909,0.015658,-0.000133,0.006436,0.999627,-0.000349,0.026971,-0.004189,0.010844,-0.000812,0.012191,0.01819,0.009091,-0.002595
1609046862388201237,198,1609046862388201237,0.011065,-0.000192,0.004917,0.999627,-0.000374,0.026974,-0.00417,0.000464,-0.002328,0.007373,0.017565,0.004322,-0.002745
1609046862491432428,199,1609046862491432428,0.013078,0.000369,0.005107,0.999627,-0.000398,0.026993,-0.004048,0.00626,0.000555,0.007764,0.024347,0.007433,-0.007575
1609046862594545603,200,1609046862594545603,0.014135,-0.000839,0.005316,0.999627,-0.000195,0.026992,-0.00401,0.006178,-0.002101,0.005515,0.024501,0.003891,-0.00749
1609046862697530270,201,1609046862697530270,0.014041,-0.000361,0.006532,0.999624,-0.000385,0.027053,-0.004323,0.005476,-0.001085,0.006054,0.026047,0.004162,-0.008078
1609046862800507307,202,1609046862800507307,0.010222,0.000913,0.000136,0.999633,-0.000209,0.026753,-0.004187,-0.001123,0.001695,-0.006877,0.025895,0.003047,-0.008729
1609046862870868683,203,1609046862870868683,0.009889,8.7e-05,0.00244,0.999627,-0.000236,0.026931,-0.004308,0.001079,-0.004367,-0.002104,-0.001077,0.004012,0.008068
1609046862973068476,204,1609046862973068476,0.012105,-0.000376,0.001284,0.999631,-0.000381,0.026839,-0.00398,0.007075,-0.004094,-0.003805,0.002169,0.005302,0.007856
1609046863075634241,205,1609046863075634241,0.011284,-0.001331,0.000727,0.999627,-0.00034,0.026975,-0.004136,0.006129,-0.004604,-0.004489,0.007023,0.00133,0.004245
1609046863178802729,206,1609046863178802729,0.011695,-0.000846,-0.000194,0.999633,-0.000199,0.026774,-0.004061,0.005198,-0.001039,-0.003244,0.012739,0.007896,0.001302
1609046863281921864,207,1609046863281921864,0.01485,0.000805,0.00085,0.999633,-0.000491,0.026737,-0.004125,0.01213,0.003271,0.001154,0.014803,0.00272,-0.001581
1609046863384902716,208,1609046863384902716,0.012384,0.001781,-3.8e-05,0.999632,-0.000365,0.026753,-0.004244,0.00287,0.005927,0.000114,0.020726,0.007045,-0.001832
1609046863487659931,209,1609046863487659931,0.009658,-6.2e-05,0.001538,0.999634,-0.000222,0.026735,-0.003961,0.000466,0.002725,0.004172,0.018909,0.005666,-0.003691
1609046863591070652,210,1609046863591070652,0.009681,-0.000948,0.003661,0.999631,-0.000297,0.026834,-0.004057,0.001096,0.000752,0.008499,0.020573,0.007304,-0.004507
1609046863694291115,211,1609046863694291115,0.008695,-3.3e-05,0.001937,0.999631,-0.00028,0.02682,-0.004184,-0.001951,0.003151,0.0041,0.024018,0.00635,-0.00703
1609046863797416210,212,1609046863797416210,0.012871,-0.000634,0.005078,0.999624,-0.000395,0.027082,-0.004262,0.005085,0.001887,0.00844,0.024514,0.00512,-0.007758
1609046863900552511,213,1609046863900552511,0.009063,0.000393,0.002556,0.999631,-0.000234,0.026842,-0.004145,-0.00179,0.004871,0.002979,0.026777,0.003821,-0.009406
1609046863970772028,214,1609046863970772028,0.009538,0.000506,0.003012,0.999629,-0.000221,0.026866,-0.00432,0.001645,-0.00063,0.00236,-0.000227,0.003169,0.00779
1609046864072424650,215,1609046864072424650,0.006961,0.000598,0.000168,0.999633,-0.00029,0.026767,-0.004101,-0.001699,-0.000831,-0.003448,-0.000502,0.003721,0.007747
1609046864175596237,216,1609046864175596237,0.01101,-0.000316,0.001341,0.999632,-0.000359,0.026829,-0.003935,0.007575,-0.002533,0.00035,0.005818,0.003253,0.005048
1609046864278694153,217,1609046864278694153,0.010287,-0.000777,0.003201,0.999632,-0.000348,0.026785,-0.004055,0.00477,-0.002302,0.004655,0.010447,0.005082,0.001456
1609046864382097960,218,1609046864382097960,0.010233,0.00012,0.003859,0.999631,-0.000229,0.026844,-0.003948,0.004924,0.001361,0.005726,0.014601,0.006054,-0.000481
1609046864484856844,219,1609046864484856844,0.010962,0.001163,0.002052,0.999633,-0.000492,0.026739,-0.004163,0.0068,0.002667,0.001767,0.017827,0.006368,-0.002461
1609046864588232517,220,1609046864588232517,0.009908,0.000335,0.004198,0.999629,-0.000289,0.026905,-0.004063,0.00432,0.002236,0.00602,0.021709,0.007517,-0.004743
1609046864690949917,221,1609046864690949917,0.012983,-0.000246,0.003865,0.99963,-0.000358,0.026865,-0.004144,0.008284,0.00179,0.002748,0.022126,0.005016,-0.006253
1609046864793971539,222,1609046864793971539,0.00796,0.00052,0.003682,0.999631,-0.000419,0.026852,-0.003878,-0.002953,0.007178,0.002533,0.023872,0.006326,-0.00657
1609046864898176908,223,1609046864898176908,0.009413,-0.001524,0.003889,0.99963,-0.000128,0.026871,-0.004125,0.00121,0.004473,0.0022,0.023553,0.003203,-0.008033
1609046865000480890,224,1609046865000480890,0.009407,-0.000277,0.00391,0.999628,-0.000167,0.026943,-0.004064,-0.000529,0.005606,0.001645,0.026453,0.003015,-0.009817
1609046865070817232,225,1609046865070817232,0.012369,0.001428,0.003634,0.999625,-0.000358,0.027002,-0.004374,0.008425,0.003672,0.00069,0.001906,0.004151,0.006371
1609046865172594070,226,1609046865172594070,0.010321,0.000715,0.004445,0.99963,-0.000567,0.026838,-0.004216,0.005441,0.002384,0.002503,0.000706,0.002291,0.007259
1609046865275635719,227,1609046865275635719,0.010225,0.0002,0.002673,0.999628,-0.000572,0.026965,-0.003986,0.007621,0.001916,-0.000749,0.00545,0.003747,0.004655
1609046865378703117,228,1609046865378703117,0.00833,0.002607,9.8e-05,0.999635,-0.000337,0.026681,-0.004107,0.000784,0.00568,-0.003773,0.008798,0.005613,0.003994
1609046865481900930,229,1609046865481900930,0.012827,0.001353,0.002592,0.999634,-0.000416,0.02672,-0.003995,0.007872,0.001953,0.002072,0.010202,0.007362,0.001977
1609046865584841251,230,1609046865584841251,0.010838,0.000246,0.002482,0.999634,-0.000402,0.02677,-0.003792,0.006279,0.001571,0.003621,0.017597,0.004679,-0.001528
1609046865688065052,231,1609046865688065052,0.012533,0.000428,0.005346,0.999625,-0.000257,0.027033,-0.004161,0.006335,-1.3e-05,0.007059,0.022775,0.006301,-0.004979
1609046865790968895,232,1609046865790968895,0.015985,0.000498,0.0066,0.999626,-0.000444,0.026984,-0.004189,0.008679,-0.000224,0.00782,0.023422,0.005026,-0.005147
1609046865894009829,233,1609046865894009829,0.007383,-0.000134,0.006038,0.999627,-0.000241,0.026979,-0.004094,-0.007921,0.000936,0.00573,0.024923,0.006157,-0.007835
1609046865997380495,234,1609046865997380495,0.008384,0.001308,0.004171,0.99963,-0.000206,0.026845,-0.004274,-0.002221,0.003394,0.002656,0.026824,0.004335,-0.008267
1609046866100607634,235,1609046866100607634,0.013575,-0.000962,0.006473,0.999627,-0.000373,0.027001,-0.003875,0.005933,0.000623,0.005087,0.025361,0.004123,-0.008744
1609046866170928717,236,1609046866170928717,0.012795,0.001161,0.001476,0.999634,-0.000378,0.026662,-0.004414,0.004418,-0.001055,-0.004593,0.000277,0.005438,0.008115
1609046866272918463,237,1609046866272918463,0.010877,0.001466,0.001322,0.999631,-0.000584,0.026826,-0.004012,0.001705,0.00157,-0.005262,0.004204,0.002064,0.005888
1609046866376024961,238,1609046866376024961,0.009474,0.001216,-2.6e-05,0.999633,-0.000429,0.026778,-0.003912,-0.000922,0.001902,-0.006604,0.00677,0.00542,0.004508
1609046866479067564,239,1609046866479067564,0.007985,0.001153,0.000878,0.999633,-0.000335,0.026794,-0.003927,-0.005395,0.002142,-0.00229,0.010158,0.004287,0.002023
1609046866581962109,240,1609046866581962109,0.006247,1.1e-05,0.001284,0.999635,-0.000346,0.026716,-0.003942,-0.006261,0.002213,-0.002069,0.012115,0.006342,9e-06
1609046866685087919,241,1609046866685087919,0.008972,0.001683,0.002105,0.999632,-0.000472,0.026812,-0.003974,-0.000123,0.005436,0.000273,0.016591,0.00632,-0.001436
1609046866788161278,242,1609046866788161278,0.007774,0.000267,0.002475,0.999632,-0.000212,0.026849,-0.00381,-0.001426,0.003245,0.001356,0.019938,0.005029,-0.003126
1609046866891152382,243,1609046866891152382,0.011896,0.000883,0.003204,0.999626,-0.000481,0.026986,-0.004217,0.007512,0.003885,0.00222,0.021904,0.005483,-0.005007
1609046866994258642,244,1609046866994258642,0.005159,0.000381,0.002675,0.99963,-0.000296,0.026902,-0.003991,-0.006931,0.00364,0.003556,0.023183,0.006983,-0.006483
1609046867097453356,245,1609046867097453356,0.009429,3e-06,0.003499,0.999631,-0.000351,0.026873,-0.003835,0.005017,0.002717,0.003791,0.026339,0.004257,-0.008092
1609046867200194836,246,1609046867200194836,0.008951,-0.001748,-0.000107,0.999634,-0.000159,0.026719,-0.004047,0.005534,-0.001955,-0.002654,0.026662,0.003851,-0.008754
1609046867270612240,247,1609046867270612240,0.010348,0.002599,0.002447,0.999627,-0.000611,0.026968,-0.004175,0.00721,0.003861,-8.2e-05,-0.001295,0.003102,0.007677
1609046867372594833,248,1609046867372594833,0.01134,0.000223,0.000548,0.999628,-0.000341,0.026947,-0.004137,0.009275,-0.001879,-0.002994,0.00358,0.004321,0.006158
1609046867475284100,249,1609046867475284100,0.009818,0.000495,-0.000949,0.999633,-0.000301,0.026806,-0.003893,0.004658,0.001587,-0.005395,0.005752,0.003733,0.003583
1609046867578359365,250,1609046867578359365,0.011812,-0.00108,-8e-06,0.999633,-0.000473,0.02676,-0.004044,0.008352,-0.001011,-0.001006,0.009445,0.005662,0.003314
1609046867681569576,251,1609046867681569576,0.011506,-0.000886,0.003457,0.999628,-0.000261,0.026984,-0.003952,0.006148,0.000387,0.009044,0.014076,0.006987,0.000634
1609046867784730673,252,1609046867784730673,0.010662,-0.002997,0.003351,0.999633,-0.000309,0.026801,-0.003925,0.004234,-0.003892,0.008545,0.013355,0.003298,-0.000337
1609046867887934685,253,1609046867887934685,0.010302,-0.000398,0.002466,0.99963,-0.000421,0.026858,-0.004129,0.002616,0.004626,0.007115,0.019661,0.005659,-0.004106
1609046867991075516,254,1609046867991075516,0.011833,-0.002302,0.002983,0.99963,-0.000101,0.026885,-0.003933,0.00327,0.00202,0.008032,0.022269,0.006493,-0.005936
1609046868094160080,255,1609046868094160080,0.009656,-0.000726,0.006596,0.999628,-0.000336,0.026982,-0.003865,-0.001851,0.006196,0.014275,0.024896,0.006332,-0.006771
1609046868197501183,256,1609046868197501183,0.009322,-0.000277,0.004319,0.99963,-0.000218,0.026881,-0.003982,-0.001079,0.007451,0.007575,0.024353,0.00233,-0.007491
1609046868300450563,257,1609046868300450563,0.011267,0.000774,0.003538,0.999629,-0.000223,0.026902,-0.004052,0.003524,0.00843,0.00445,0.025376,0.005306,-0.009335
1609046868370687008,258,1609046868370687008,0.009686,0.000468,0.003325,0.999623,-0.00028,0.0271,-0.004245,0.002772,0.001452,0.003625,0.000941,0.002912,0.007301
1609046868472593546,259,1609046868472593546,0.011477,0.001284,0.005754,0.999626,-0.000483,0.027071,-0.003764,0.008018,0.003533,0.00869,-0.000365,0.003011,0.00788
1609046868575545788,260,1609046868575545788,0.010075,0.000269,0.003269,0.999628,-0.000347,0.026962,-0.003995,0.006735,-0.000448,0.002016,0.009659,0.006272,0.003404
1609046868678578377,261,1609046868678578377,0.01432,0.001611,0.005548,0.999626,-0.000351,0.027016,-0.004049,0.011348,0.002696,0.006806,0.009918,0.005355,0.001543
1609046868781983376,262,1609046868781983376,0.014,-0.000373,0.004528,0.99963,-0.000339,0.026911,-0.003803,0.007865,-0.002008,0.004713,0.015978,0.006073,-0.001377
1609046868884860277,263,1609046868884860277,0.013389,0.001432,0.004097,0.999633,-0.000377,0.026772,-0.004075,0.007221,0.001463,0.003861,0.015809,0.007013,-0.001778
1609046868987967014,264,1609046868987967014,0.010758,0.000283,0.004524,0.999628,-0.000322,0.026944,-0.003992,0.000806,0.001014,0.004334,0.018611,0.006973,-0.003529
1609046869090998173,265,1609046869090998173,0.012024,0.000713,0.003719,0.999629,-0.000312,0.026924,-0.004066,0.00221,0.00271,0.002199,0.022868,0.006044,-0.003792
1609046869194227219,266,1609046869194227219,0.014089,-4.1e-05,0.005247,0.99963,-0.00044,0.026882,-0.004012,0.005858,0.002796,0.005047,0.024101,0.005391,-0.007042
1609046869297960281,267,1609046869297960281,0.009957,1.4e-05,0.003333,0.999628,-0.000365,0.026915,-0.004185,-0.001538,0.00397,0.00303,0.027431,0.004823,-0.008469
1609046869400494814,268,1609046869400494814,0.013465,0.000233,0.002335,0.999629,-0.000399,0.026851,-0.004415,0.008583,0.002881,0.000519,0.025701,0.004635,-0.010538
1609046869470755339,269,1609046869470755339,0.015972,0.001503,0.002803,0.999623,-0.000201,0.027079,-0.004517,0.012636,-0.001126,0.00053,-0.001633,0.004021,0.008011
1609046869572643518,270,1609046869572643518,0.015824,0.001055,0.003056,0.999625,-0.00054,0.027041,-0.004171,0.009699,-0.000741,0.000801,0.001182,0.005253,0.006457
1609046869675712109,271,1609046869675712109,0.014473,8.3e-05,0.001853,0.999625,-0.000554,0.027038,-0.004083,0.00563,-0.001154,-0.002712,0.004224,0.003644,0.004566
1609046869778297901,272,1609046869778297901,0.010349,-0.001509,0.001244,0.99963,-0.000303,0.026876,-0.004058,-0.003784,-0.006155,-0.00064,0.009095,0.006967,0.002204
1609046869882037878,273,1609046869882037878,0.007006,-0.001833,0.002545,0.999633,-0.000231,0.026776,-0.004031,-0.009281,-0.00333,0.002838,0.014551,0.005562,-0.001254
1609046869985094547,274,1609046869985094547,0.008012,0.000334,2.8e-05,0.999635,-0.000294,0.026702,-0.003948,-0.004675,0.002144,-0.001616,0.019953,0.00615,-0.003804
1609046870088393211,275,1609046870088393211,0.006751,0.001029,0.001376,0.999634,-0.000382,0.026742,-0.003972,-0.004178,0.003206,0.002796,0.017911,0.004713,-0.002835
1609046870191456318,276,1609046870191456318,0.006601,0.001511,0.000316,0.999632,-0.000343,0.026814,-0.003987,-0.0052,0.005299,0.001306,0.022764,0.007631,-0.005957
1609046870294465303,277,1609046870294465303,0.005135,0.000926,0.001565,0.999632,-0.00021,0.02681,-0.004111,-0.007212,0.00183,0.004162,0.023715,0.005191,-0.004551
1609046870397612810,278,1609046870397612810,0.007857,0.000791,0.002997,0.999629,-0.00021,0.026931,-0.003994,-0.000447,0.001114,0.004671,0.027032,0.004593,-0.010669
1609046870500520945,279,1609046870500520945,0.006125,-0.00067,0.004455,0.999627,-0.000159,0.026989,-0.00398,-0.002344,-0.002106,0.006466,0.026627,0.004049,-0.009933
1609046870570791006,280,1609046870570791006,0.00744,0.001253,-0.0007,0.999626,-0.00035,0.027044,-0.003974,0.001939,-0.001108,-0.006414,0.001116,0.004421,0.007743
1609046870672641754,281,1609046870672641754,0.004045,-0.000126,0.001156,0.99962,-0.000296,0.027231,-0.004098,-0.006964,-0.001714,-0.002216,0.007776,0.005857,0.004395
1609046870775317669,282,1609046870775317669,0.007191,-0.001349,0.001632,0.999629,-0.000226,0.026978,-0.003715,0.00016,-0.003792,0.000915,0.007018,0.005317,0.005446
1609046870878636837,283,1609046870878636837,0.003665,-0.00031,0.001586,0.999629,-0.000522,0.026988,-0.003612,-0.006886,-0.000187,0.002716,0.007601,0.005966,0.00215
1609046870982064724,284,1609046870982064724,0.007489,-0.001468,1.2e-05,0.999632,-0.000241,0.026806,-0.004111,0.002707,-0.000995,-0.000684,0.014376,0.00677,-0.001978
1609046871084966898,285,1609046871084966898,0.004994,-1.4e-05,-0.00168,0.999634,-0.000379,0.026779,-0.003725,-0.002896,0.004586,-0.00419,0.016815,0.005487,-0.002599
1609046871188114166,286,1609046871188114166,0.004811,0.000194,0.00068,0.99963,-0.000248,0.026909,-0.003706,-0.002304,0.0037,0.002505,0.020813,0.006157,-0.004809
1609046871291294813,287,1609046871291294813,0.008425,-0.000208,-0.000204,0.99963,-0.000134,0.026903,-0.003821,0.004415,0.002977,0.000935,0.021509,0.006494,-0.005971
1609046871394364595,288,1609046871394364595,0.005349,-0.002168,-0.00161,0.999635,-7.9e-05,0.02672,-0.00395,-0.003573,-0.001483,-0.00149,0.024312,0.006977,-0.006036
1609046871497316837,289,1609046871497316837,0.008558,-0.000467,0.00036,0.99963,-0.000312,0.026938,-0.003713,0.00258,0.005559,0.002378,0.024966,0.005008,-0.007711
1609046871600325823,290,1609046871600325823,0.005792,0.000315,0.001826,0.999628,-0.000326,0.026979,-0.003846,-0.005146,0.007021,0.005769,0.026893,0.006805,-0.008675
1609046871670673609,291,1609046871670673609,0.008667,-0.000647,-9.3e-05,0.99962,-0.00016,0.02722,-0.004186,-0.000469,-0.00247,-0.000296,0.001387,0.006001,0.006721
1609046871772479534,292,1609046871772479534,0.005284,0.001301,-0.000233,0.999623,-0.000599,0.027155,-0.004008,-0.008877,0.003288,0.00011,0.004202,0.003396,0.006042
1609046871875357151,293,1609046871875357151,0.00742,0.003048,-0.002303,0.999631,-0.000589,0.026867,-0.003702,-0.002285,0.008176,-0.003028,0.007732,0.005849,0.004707
1609046871978432178,294,1609046871978432178,0.004296,0.000749,-0.00126,0.999634,-0.000331,0.026752,-0.003938,-0.010008,0.002265,0.001534,0.010373,0.00504,0.003041
1609046872081956148,295,1609046872081956148,0.010784,-0.000919,-0.002176,0.999634,-0.000437,0.026754,-0.003839,0.003148,0.000268,-0.001441,0.012789,0.006445,0.000245
1609046872184604168,296,1609046872184604168,0.007272,-0.001098,0.000209,0.999632,-0.000207,0.026825,-0.00379,-0.003749,0.000979,0.003592,0.015798,0.006126,-0.001013
1609046872287814617,297,1609046872287814617,0.0057,-0.00168,0.004059,0.999632,-0.000124,0.026846,-0.003652,-0.004953,0.000424,0.009234,0.01835,0.009263,-0.002897
1609046872391087055,298,1609046872391087055,0.011386,-0.000911,0.003025,0.99963,-0.000321,0.02693,-0.003769,0.006357,0.002935,0.004035,0.023225,0.005707,-0.006009
1609046872494340420,299,1609046872494340420,0.00652,-0.000554,0.002386,0.999631,-0.000238,0.026865,-0.003901,-0.005236,0.003296,0.00394,0.022798,0.005175,-0.007228
1609046872598186255,300,1609046872598186255,0.008033,-0.00011,0.00257,0.999632,-0.000295,0.026828,-0.003849,-0.001452,0.006051,0.003162,0.025765,0.005094,-0.008237
1609046872700405836,301,1609046872700405836,0.00611,0.000645,0.000656,0.999631,-0.000114,0.026843,-0.003947,-0.004654,0.00634,-0.002128,0.024024,0.004234,-0.009043
1609046872770752430,302,1609046872770752430,0.006684,0.000703,0.000249,0.999624,-0.000106,0.027112,-0.004049,-0.00288,0.00142,-0.004346,0.000873,0.003791,0.008072
1609046872873307705,303,1609046872873307705,0.007214,0.000278,0.001535,0.999623,-0.000103,0.0271,-0.0042,-0.002206,0.000677,-0.001576,0.004152,0.003775,0.006002
1609046872975540161,304,1609046872975540161,0.003843,0.000174,-0.001476,0.999629,-0.000218,0.026942,-0.003918,-0.008247,0.001578,-0.007012,0.006576,0.004593,0.004272
1609046873078626156,305,1609046873078626156,0.007465,4.4e-05,-0.000415,0.999628,-0.000297,0.026952,-0.00399,-0.001123,-0.001191,-0.000858,0.010712,0.006019,0.001955
1609046873181701660,306,1609046873181701660,0.004484,0.001999,-0.000635,0.999634,-0.00034,0.026802,-0.00366,-0.007137,0.006021,0.001146,0.012195,0.005237,-0.000344
1609046873284642935,307,1609046873284642935,0.006115,-0.000974,-0.000144,0.999634,-0.000125,0.026763,-0.003829,-0.002503,-0.002415,0.002518,0.016906,0.005446,-0.001029
1609046873387748480,308,1609046873387748480,0.006773,-0.001251,0.00136,0.99963,-0.000296,0.026881,-0.003987,-0.002676,-0.003289,0.006174,0.018954,0.00554,-0.004937
1609046873491244078,309,1609046873491244078,0.009835,-0.001323,0.001281,0.99963,-0.000416,0.026872,-0.003966,0.004029,-0.001218,0.005951,0.025368,0.006337,-0.006055
1609046873593942642,310,1609046873593942642,0.005355,-0.000751,-0.001491,0.999631,-0.00019,0.026851,-0.003893,-0.004427,0.001188,0.00159,0.02381,0.006384,-0.00581
1609046873697649479,311,1609046873697649479,0.009759,0.000253,0.003326,0.99963,-0.000196,0.02691,-0.003851,0.005295,0.004895,0.008982,0.025008,0.005753,-0.008284
1609046873800377131,312,1609046873800377131,0.004551,0.00084,0.002177,0.999628,-0.000383,0.026954,-0.004008,-0.004483,0.005315,0.005628,0.026829,0.0045,-0.009466
1609046873870646000,313,1609046873870646000,0.007475,0.000797,-0.001876,0.999619,-0.000382,0.027274,-0.004008,0.001934,0.000679,-0.005519,-0.000199,0.002275,0.008004
1609046873972507000,314,1609046873972507000,0.003027,-0.000373,-0.000453,0.999621,-0.000323,0.027275,-0.003706,-0.006286,0.000834,-0.001525,0.00403,0.004584,0.006383
1609046874075507641,315,1609046874075507641,0.007529,0.000232,-0.000197,0.999625,-0.000289,0.027103,-0.003782,0.003782,0.003577,-0.000292,0.007219,0.003923,0.003511
1609046874178455114,316,1609046874178455114,0.008118,-0.001093,-0.000493,0.999633,-0.000384,0.026778,-0.003902,0.005651,-0.00073,0.000459,0.009803,0.005221,0.002071
1609046874281796217,317,1609046874281796217,0.003682,-0.001646,0.000582,0.999636,-0.000147,0.026725,-0.00365,-0.002038,0.000464,0.00311,0.014202,0.005145,-0.000367
1609046874384667873,318,1609046874384667873,0.0067,-0.001958,0.002288,0.99963,-0.000179,0.026913,-0.003749,0.002852,0.001338,0.005642,0.015888,0.008008,-0.002966
1609046874487864017,319,1609046874487864017,0.006405,-0.000525,0.0001,0.999628,-0.000249,0.026959,-0.004008,0.001468,0.003041,0.001987,0.019381,0.004727,-0.002011
1609046874590837479,320,1609046874590837479,0.006571,9e-05,0.001693,0.999632,-0.000302,0.026837,-0.003767,0.003552,0.006223,0.004818,0.021447,0.008032,-0.003703
1609046874693987608,321,1609046874693987608,0.008828,-0.000422,-4.2e-05,0.99963,-0.000225,0.026879,-0.004056,0.004469,-0.003917,0.000388,0.014661,0.008579,0.014463
1609046874797785521,322,1609046874797785521,0.002746,0.001789,0.003015,0.999629,-0.000198,0.026878,-0.00421,-0.005901,0.010947,0.005501,0.024423,0.006256,-0.0168
1609046874900197983,323,1609046874900197983,0.000709,0.000833,0.002321,0.999629,4.9e-05,0.0269,-0.004117,-0.009832,0.00538,0.005469,0.030012,0.005398,-0.013512
1609046874970544338,324,1609046874970544338,0.004281,0.0026,0.000597,0.999626,-0.000393,0.02703,-0.003887,-0.000588,0.001187,-0.000684,0.00167,0.007382,0.011771
1609046875072383642,325,1609046875072383642,0.003874,0.00117,0.001596,0.99963,-0.000798,0.026873,-0.00388,0.000185,0.000304,0.001605,0.01183,0.003642,0.001864
1609046875175513983,326,1609046875175513983,0.008104,0.001727,-0.000986,0.999631,-0.000365,0.026837,-0.003936,0.009135,0.000894,-0.003776,0.007947,0.008499,-0.00247
1609046875278715372,327,1609046875278715372,0.004032,0.00254,-0.002458,0.999637,-0.000404,0.026618,-0.004006,0.001376,-0.000334,-0.005311,0.007675,0.004352,0.007969
1609046875382138252,328,1609046875382138252,0.00362,-0.000164,-0.000249,0.999634,-0.000382,0.026716,-0.004171,-0.001389,-0.004494,0.001161,0.016528,0.005252,-0.001634
1609046875484779835,329,1609046875484779835,0.007677,-0.001746,0.002966,0.999633,-0.000128,0.026782,-0.004006,0.00588,-0.005223,0.0052,0.009354,0.004401,-0.001265
1609046875588176489,330,1609046875588176489,0.005761,0.000458,0.000223,0.999638,-0.000225,0.026601,-0.004018,0.002069,-0.001415,-0.001337,0.003748,0.003512,0.003673
1609046875691165924,331,1609046875691165924,0.007218,0.000376,0.001946,0.999636,-0.000444,0.02666,-0.004022,0.003446,0.005134,0.001163,0.013096,0.00171,-0.013317
1609046875794065714,332,1609046875794065714,0.007816,0.000268,0.003291,0.999633,-0.000167,0.026746,-0.004073,0.001798,0.003323,0.002858,0.009239,0.004026,-0.015497
1609046875897170782,333,1609046875897170782,0.007729,-0.000217,0.004928,0.999633,-0.000141,0.02678,-0.00401,0.00148,0.000138,0.005764,-0.003569,0.002551,-0.007584
1609046876000116110,334,1609046876000116110,0.009839,0.000231,0.00495,0.999632,-0.000131,0.026797,-0.004094,0.004097,0.000965,0.004778,0.01259,0.006936,-0.012859
1609046876070470810,335,1609046876070470810,0.008081,0.001682,0.00208,0.999629,-0.000524,0.026905,-0.004155,0.001526,-0.001587,-0.004247,0.00073,0.004198,0.006252
1609046876172136307,336,1609046876172136307,0.009912,0.000854,0.001617,0.999631,-0.000495,0.026816,-0.004088,0.004807,0.002687,0.000602,-0.034844,0.014591,0.010918
1609046876275097847,337,1609046876275097847,0.010726,-0.001248,0.001324,0.999631,-0.000404,0.026846,-0.0041,0.006309,-0.006775,-0.001884,-0.000424,0.009548,0.005816
1609046876378247738,338,1609046876378247738,0.012003,0.001292,0.003766,0.999634,-0.000426,0.02672,-0.004054,0.007339,-0.004616,0.005284,0.021692,0.011991,0.005866
1609046876481525421,339,1609046876481525421,0.011177,0.001994,0.004105,0.999644,-0.000597,0.026311,-0.004333,0.001853,-0.001642,0.005874,0.01506,0.004229,0.012304
1609046876584642410,340,1609046876584642410,0.012333,0.000596,0.002045,0.999646,-0.000248,0.026286,-0.004011,0.008348,-0.003974,0.002342,0.035604,0.013483,0.007603
1609046876687853813,341,1609046876687853813,0.009155,0.001464,0.003129,0.999632,-0.000301,0.026786,-0.004242,-0.002612,0.003775,0.003988,-0.001499,0.004701,0.004065
1609046876790977001,342,1609046876790977001,0.00982,-1.9e-05,0.003499,0.999624,-0.000159,0.027089,-0.004026,-0.005269,0.001192,0.004235,-0.001756,0.016989,0.002939
1609046876894124031,343,1609046876894124031,0.010962,0.000174,0.004969,0.999623,-0.000365,0.02715,-0.003948,0.001368,0.002036,0.007008,0.01417,0.009098,0.000551
1609046876997346640,344,1609046876997346640,0.008569,0.00096,0.004582,0.999627,-0.000289,0.026973,-0.004171,-0.000661,0.002231,0.006459,0.003895,0.005148,-0.001345
1609046877100282907,345,1609046877100282907,0.01396,-2.6e-05,0.004122,0.999622,-0.000145,0.027194,-0.004021,0.009774,0.001316,-5e-06,0.022122,-0.001944,-0.005393
1609046877170508623,346,1609046877170508623,0.010033,6.2e-05,0.004126,0.999616,-0.000105,0.027337,-0.004366,0.005007,-0.001459,-0.000968,-0.013635,0.00217,0.002679
1609046877272255659,347,1609046877272255659,0.012035,0.001484,0.004771,0.999619,-0.000377,0.027272,-0.004014,0.008711,0.001902,-0.003049,-0.003244,-0.008075,0.00803
1609046877375077248,348,1609046877375077248,0.011231,-0.000511,0.001927,0.999645,-0.000402,0.026223,-0.00457,0.008981,-0.005039,-0.018827,0.027245,-0.057616,0.007504
1609046877478117228,349,1609046877478117228,0.009709,-0.001145,-0.002659,0.999725,-0.000451,0.022849,-0.005183,0.017716,-0.009109,-0.010596,-0.000893,-0.020408,0.006017
1609046877581147909,350,1609046877581147909,0.013269,0.002229,-0.009148,0.999772,-0.000611,0.020385,-0.006177,0.007303,-0.000763,-0.022864,0.049268,-0.035344,0.007095
1609046877684280157,351,1609046877684280157,0.017093,3e-05,-0.001147,0.999777,-0.000215,0.019959,-0.006814,0.009976,-0.015341,0.006159,0.005051,-0.027037,-0.006506
1609046877787448406,352,1609046877787448406,0.023066,-0.002323,0.007889,0.999759,-6.7e-05,0.020306,-0.008302,0.026403,-0.015472,0.072438,0.112712,-0.008079,0.001992
1609046877890496016,353,1609046877890496016,0.023938,-0.004617,0.023291,0.999659,0.000721,0.021315,-0.015042,0.013384,-0.022413,0.227795,0.097627,0.0482,-0.01244
1609046877993830681,354,1609046877993830681,0.022284,-0.011683,0.048746,0.999543,0.001182,0.022156,-0.020516,-0.002702,-0.063966,0.386741,0.120801,-0.071147,0.019046
1609046878097793579,355,1609046878097793579,0.01155,-0.022934,0.100004,0.999564,0.001103,0.018256,-0.023159,-0.03294,-0.095424,0.653021,0.068271,-0.045734,0.005321
1609046878199885130,356,1609046878199885130,0.008859,-0.037184,0.175065,0.99954,0.000993,0.016062,-0.025686,-0.027335,-0.133523,0.943915,0.11179,0.013042,0.015285
1609046878270299196,357,1609046878270299196,0.00506,-0.047419,0.240493,0.999501,0.000868,0.015144,-0.027673,-0.023845,-0.170659,1.140182,0.038002,0.032027,0.00145
1609046878373291492,358,1609046878373291492,0.002098,-0.066785,0.370479,0.999465,0.000822,0.015309,-0.028867,-0.024949,-0.21643,1.393505,0.002781,0.000239,0.006814
1609046878475315809,359,1609046878475315809,0.010616,-0.096322,0.53781,0.999444,0.000713,0.015619,-0.029437,-0.005001,-0.278862,1.585552,-0.056924,0.053143,-0.008594
1609046878578386068,360,1609046878578386068,0.006426,-0.123113,0.7056,0.999568,0.001118,0.015388,-0.024993,-0.015147,-0.303796,1.530414,-0.107585,-0.00707,-0.00881
1609046878681599140,361,1609046878681599140,-0.002104,-0.152768,0.84968,0.999749,0.001225,0.012542,-0.018486,-0.030929,-0.314836,1.299786,-0.124971,-0.038248,-0.011644
1609046878784573078,362,1609046878784573078,-0.005125,-0.184148,0.969059,0.99987,0.001326,0.010081,-0.012449,-0.026996,-0.316712,1.026781,-0.076439,0.001291,-0.005269
1609046878887846231,363,1609046878887846231,-0.00592,-0.215476,1.057634,0.999912,0.00154,0.010031,-0.00843,-0.011173,-0.309784,0.746102,-0.080363,0.007609,-0.006576
