time,field.header.seq,field.header.stamp,field.pose.pose.position.x,field.pose.pose.position.y,field.pose.pose.position.z,field.pose.pose.orientation.x,field.pose.pose.orientation.y,field.pose.pose.orientation.z,field.pose.pose.orientation.w,field.twist.twist.linear.x,field.twist.twist.linear.y,field.twist.twist.linear.z,field.twist.twist.angular.x,field.twist.twist.angular.y,field.twist.twist.angular.z
1624165222813523769,2,1624165222813523769,0.005197,-0.004978,0.00123,0.999516,4.7e-05,0.031088,-0.000217,-0.000912,-0.006598,0.001989,0.016873,0.005346,-0.001592
1624165222913520575,3,1624165222913520575,0.006604,-0.007466,-0.000136,0.999515,2e-05,0.031132,-0.000237,0.001832,-0.010149,-0.001946,0.01922,0.008355,-0.002218
1624165223013517380,4,1624165223013517380,0.003268,-0.004808,-8.3e-05,0.999514,-5.3e-05,0.031151,-0.000497,-0.006579,-0.002354,-0.000437,0.019808,0.007367,-0.004006
1624165223113514185,5,1624165223113514185,0.004077,-0.004108,-0.00075,0.999516,5.3e-05,0.031085,-0.000469,-0.002778,-0.000502,-0.002758,0.018615,0.007663,-0.000986
1624165223213510752,6,1624165223213510752,0.005201,-0.00378,0.000258,0.999507,4.8e-05,0.031375,-0.000414,-0.002206,-0.001084,-0.000621,0.017807,0.006518,-0.001117
1624165223313507557,7,1624165223313507557,0.0054,-0.000193,-0.000295,0.999507,-8e-06,0.031377,-0.00034,-0.001693,0.007686,-0.000202,0.019604,0.005918,-0.002563
1624165223413504362,8,1624165223413504362,0.005009,0.002403,0.000983,0.999511,-3.9e-05,0.03125,-0.000601,-0.003709,0.01051,0.004431,0.018339,0.008477,-0.003423
1624165223513501167,9,1624165223513501167,0.003863,-0.003632,0.000726,0.999515,6.8e-05,0.031138,-0.00019,-0.007379,-0.00594,0.003055,0.018736,0.008217,-0.001831
1624165223613497734,10,1624165223613497734,0.004912,-0.005822,0.001221,0.99951,-7.2e-05,0.031271,-0.000177,-0.005251,-0.01053,0.003854,0.018242,0.00977,-0.003225
1624165223713494539,11,1624165223713494539,0.002534,-0.004018,0.001702,0.999514,-1.7e-05,0.031168,-0.000425,-0.008705,-0.004972,0.00389,0.019954,0.009158,-0.003189
1624165223813491344,12,1624165223813491344,0.003177,-0.00389,0.002034,0.999513,0.000156,0.031189,-0.000128,-0.005486,-0.004359,0.004509,0.01676,0.009339,-0.002369
1624165223913487911,13,1624165223913487911,0.003717,-0.004621,0.002704,0.999514,0.000241,0.031149,-0.000298,-0.002674,-0.005615,0.004971,0.019362,0.007745,-0.002177
1624165224013484716,14,1624165224013484716,0.00502,-0.001105,0.000941,0.999513,-2.1e-05,0.031189,-0.000617,0.001066,0.002549,0.001542,0.019105,0.006452,-0.003414
1624165224113481522,15,1624165224113481522,0.006856,-0.00061,0.001153,0.999511,4.1e-05,0.031253,-0.000405,0.003778,0.003457,-0.000882,0.01493,0.005195,-0.000766
1624165224213478327,16,1624165224213478327,0.005873,-0.004973,-0.000309,0.99951,-1.3e-05,0.03129,-0.000241,0.001304,-0.003518,-0.003548,0.01909,0.008482,-0.000806
1624165224313474894,17,1624165224313474894,0.004877,-0.002161,-0.002197,0.999509,-7.2e-05,0.0313,-0.000265,-0.002804,0.001832,-0.006379,0.018972,0.010963,-0.004268
1624165224413471699,18,1624165224413471699,0.006798,-0.00155,0.000922,0.999505,5e-06,0.031436,-0.000306,3.1e-05,0.003029,0.002763,0.019262,0.009953,-0.003272
1624165224513468504,19,1624165224513468504,0.002877,-0.005305,0.001428,0.99951,0.000186,0.031274,-0.000318,-0.009321,-0.007071,0.003939,0.018435,0.008383,-0.002015
1624165224613465309,20,1624165224613465309,0.003124,-0.007953,-0.000558,0.999511,-2.6e-05,0.031236,-0.000336,-0.005978,-0.010975,-0.000661,0.018791,0.008562,-0.002292
1624165224713461876,21,1624165224713461876,0.002424,-0.003543,0.001646,0.999514,0.000119,0.031147,-0.000355,-0.006802,0.000695,0.005491,0.02078,0.006986,-0.003244
1624165224813458681,22,1624165224813458681,0.005857,-0.005968,0.003024,0.99952,7.4e-05,0.030975,-0.00043,0.002364,-0.006225,0.007356,0.01804,0.00591,-0.001286
1624165224913455486,23,1624165224913455486,0.005107,-0.006053,0.000845,0.999517,-5.3e-05,0.031044,-0.000248,0.001022,-0.004605,5.2e-05,0.021382,0.008064,-0.002556
1624165225013452291,24,1624165225013452291,0.005645,-0.002315,0.000219,0.999512,-3.1e-05,0.031204,-0.000278,0.002018,0.002245,-0.001289,0.016902,0.008209,-0.001259
1624165225113448858,25,1624165225113448858,0.005032,-0.000718,0.000467,0.999506,6.7e-05,0.03142,-0.000342,-0.001168,0.003229,-0.002028,0.019937,0.008051,-0.002386
1624165225213445663,26,1624165225213445663,0.006238,-0.00269,0.000706,0.999507,-1.8e-05,0.031381,-0.000133,0.00034,-0.00075,-0.000767,0.017557,0.006526,-0.001859
1624165225313442469,27,1624165225313442469,0.005112,-0.004258,-0.000912,0.999512,8.9e-05,0.031229,-0.000175,-0.002163,-0.00494,-0.00347,0.020913,0.008189,-0.002694
1624165225413439274,28,1624165225413439274,0.004625,-0.003888,-0.001356,0.999509,1e-06,0.031305,-0.000261,-0.003885,-0.004407,-0.001616,0.019482,0.010528,-0.003403
1624165225513435841,29,1624165225513435841,0.005097,-0.000459,-8.4e-05,0.999514,0.000127,0.031162,-0.000391,-0.002821,0.001857,0.001689,0.018241,0.006475,-0.000858
1624165225613432646,30,1624165225613432646,0.005929,-0.002447,-0.000794,0.999507,0.000177,0.031373,-0.000372,-0.000876,-0.003802,0.000218,0.019565,0.008982,-0.004133
1624165225713429451,31,1624165225713429451,0.003213,-0.002763,-0.00027,0.999508,0.000173,0.03136,-0.000194,-0.006101,-0.006358,0.000956,0.018075,0.011136,-0.003105
1624165225813426018,32,1624165225813426018,0.00489,-0.00276,0.00017,0.999507,0.000135,0.03138,-0.000359,-0.001702,-0.008266,0.001065,0.017169,0.007901,-0.001135
1624165225913422823,33,1624165225913422823,0.001382,-0.006831,0.000816,0.999513,-2e-06,0.03119,-0.000357,-0.008622,-0.014213,0.002536,0.019778,0.00751,-0.002054
1624165226013419628,34,1624165226013419628,0.004576,-0.005562,0.000217,0.99951,-0.000105,0.031299,-0.000275,-0.001605,-0.00916,0.000109,0.018613,0.008251,-0.003254
1624165226113416433,35,1624165226113416433,0.0036,-0.009119,0.000503,0.999514,-3.9e-05,0.031166,1e-05,-0.003579,-0.014999,0.00259,0.017276,0.008034,-0.001911
1624165226213413000,36,1624165226213413000,0.003767,-0.007263,-0.000738,0.999512,-0.000179,0.031217,-0.000311,-0.003248,-0.010598,-0.00115,0.019046,0.008429,-0.001838
1624165226313409805,37,1624165226313409805,0.003487,-0.006701,-0.000542,0.999512,2.5e-05,0.031233,-0.000183,-0.003404,-0.007398,-0.00069,0.020596,0.008764,-0.004398
1624165226413406610,38,1624165226413406610,0.003954,-0.003901,-0.000433,0.99951,0.000216,0.03128,-2.1e-05,-0.001497,-0.002436,-0.0006,0.019068,0.010022,-0.002049
1624165226513403416,39,1624165226513403416,0.005351,-0.001006,-0.00119,0.999507,0.000145,0.031381,-0.000457,0.001717,0.004366,-0.001952,0.019071,0.007575,-0.003261
1624165226613399982,40,1624165226613399982,0.002798,-0.000372,0.001427,0.999513,-8.3e-05,0.031188,-0.000385,-0.004272,0.004769,0.005381,0.019731,0.007175,-0.003028
1624165226713396788,41,1624165226713396788,0.006109,0.005367,-0.00076,0.999506,0.0,0.031403,-0.000431,0.003383,0.016199,-0.001381,0.021071,0.010278,-0.002773
1624165226813393593,42,1624165226813393593,0.004092,-0.000203,0.00076,0.99951,0.000216,0.031291,-0.000375,-0.004195,-0.001149,0.003543,0.018267,0.007912,-0.00072
1624165226913390398,43,1624165226913390398,0.00423,0.001354,0.000725,0.999514,-1.1e-05,0.031169,-0.000345,-0.003785,0.000467,0.000553,0.019839,0.009315,-0.003258
1624165227013386965,44,1624165227013386965,0.005126,8.1e-05,0.000317,0.999508,-4.2e-05,0.031355,-0.000229,-0.00308,-0.004046,0.000168,0.017124,0.006955,-0.001138
1624165227113383770,45,1624165227113383770,0.005126,-0.003247,-0.000121,0.999511,0.000247,0.031259,-0.000252,-0.002274,-0.010526,0.000797,0.02017,0.009491,-0.003409
1624165227213380575,46,1624165227213380575,0.005256,-0.004979,0.002255,0.999508,-9.6e-05,0.031343,-0.000347,-0.002072,-0.011164,0.006492,0.016951,0.005848,-0.000721
1624165227313377380,47,1624165227313377380,0.00584,-0.001713,0.001586,0.99951,0.000219,0.031289,-0.000191,-2.2e-05,-0.004787,0.002211,0.017069,0.006499,-0.002938
1624165227413373947,48,1624165227413373947,0.004366,-0.005763,0.001615,0.999512,0.000106,0.031217,-0.000344,-0.003454,-0.011001,0.003507,0.020396,0.009819,-0.002101
1624165227513370752,49,1624165227513370752,0.003412,-0.002633,0.00189,0.99951,0.000125,0.031294,-0.000279,-0.006089,-0.001721,0.002858,0.018712,0.008659,-0.000489
1624165227613367558,50,1624165227613367558,0.003878,-0.004212,0.001096,0.99951,0.000111,0.031272,-0.000195,-0.004137,-0.003283,-0.001022,0.019207,0.008947,-0.003388
1624165227713364124,51,1624165227713364124,0.003944,-0.006156,0.001897,0.999511,0.000123,0.031247,-0.00033,-0.003281,-0.008593,0.00059,0.015539,0.005209,-0.000823
1624165227813360929,52,1624165227813360929,0.005919,-0.005963,-0.000671,0.999504,9.7e-05,0.031481,-0.000306,0.000843,-0.007914,-0.004753,0.017832,0.00622,-0.000688
1624165227913357735,53,1624165227913357735,0.004648,-0.002991,-0.000425,0.999509,1e-06,0.031301,-0.000598,-0.001365,0.000236,-0.002217,0.01873,0.006952,-0.002812
1624165228013354540,54,1624165228013354540,0.004591,-0.001613,0.002247,0.999507,0.000122,0.031381,-0.000492,-0.003169,0.002088,0.003676,0.019351,0.008673,-0.002092
1624165228113351107,55,1624165228113351107,0.006805,0.00029,0.001781,0.999513,-7e-05,0.031199,-0.00042,0.002994,0.004916,0.002406,0.016571,0.007334,-0.001203
1624165228213347912,56,1624165228213347912,0.005263,0.00031,0.000933,0.999514,0.000182,0.03117,-0.000359,-0.000179,0.003799,0.000429,0.019943,0.00983,-0.003455
1624165228313344717,57,1624165228313344717,0.003333,0.001169,0.001334,0.999508,0.00017,0.031352,-0.000609,-0.005485,0.002454,-0.000225,0.01764,0.007919,-0.002491
1624165228413341522,58,1624165228413341522,0.006132,0.001153,-4.3e-05,0.999503,2.5e-05,0.031492,-0.000291,0.002032,0.00424,-0.003759,0.019071,0.01006,-0.003148
1624165228513338089,59,1624165228513338089,0.005136,-0.006847,0.001545,0.999514,6.3e-05,0.031142,-0.000294,-0.001091,-0.016911,-0.000194,0.018192,0.008818,-0.00275
1624165228613334894,60,1624165228613334894,0.006187,-0.003036,0.000982,0.999514,2.3e-05,0.031167,-0.000289,4.7e-05,-0.00373,-0.000397,0.018103,0.007064,-0.002145
1624165228713331699,61,1624165228713331699,0.004643,-0.002849,0.001209,0.999514,-2.8e-05,0.031164,-0.000288,-0.004623,-0.004601,0.000784,0.017328,0.008298,-0.000239
1624165228813328505,62,1624165228813328505,0.004404,-0.001761,-0.000453,0.999513,-8e-06,0.031201,-0.000382,-0.004785,-0.003823,-0.002062,0.018741,0.00673,-0.00268
1624165228913325071,63,1624165228913325071,0.003491,-0.002508,0.001162,0.999514,-0.000118,0.031153,-0.000432,-0.005458,-0.005285,0.002964,0.020132,0.007952,-0.003346
1624165229013321877,64,1624165229013321877,0.003512,0.001023,-0.001093,0.999508,4.1e-05,0.031348,-0.000433,-0.002418,0.00122,-0.003729,0.01892,0.008937,-0.003574
1624165229113318682,65,1624165229113318682,0.003996,-0.005137,-0.000498,0.999517,-0.000108,0.031067,-0.000552,-0.000351,-0.010662,-0.002516,0.016987,0.005849,-0.002316
1624165229213315487,66,1624165229213315487,0.005103,-0.002385,-0.001271,0.999516,1.5e-05,0.03109,-0.000461,0.000919,-0.004993,-0.003651,0.020669,0.009499,-0.002761
1624165229313312054,67,1624165229313312054,0.00296,-0.002032,-0.000121,0.999516,-1.7e-05,0.031104,-0.000393,-0.005032,-0.00287,-0.000197,0.017066,0.00789,-0.001866
1624165229413308859,68,1624165229413308859,0.005722,-0.000228,0.000235,0.99951,3e-05,0.031293,-0.000316,0.001189,0.002393,0.001263,0.021619,0.008166,-0.00203
1624165229513305664,69,1624165229513305664,0.006098,-0.000977,0.002299,0.999513,0.000149,0.031194,-0.000568,0.002101,-0.001564,0.006316,0.019833,0.008647,-0.001499
1624165229613302231,70,1624165229613302231,0.00519,-0.005411,0.002009,0.999511,8.4e-05,0.031244,-0.000116,-0.000795,-0.010072,0.004413,0.018458,0.008416,-0.002331
1624165229713299036,71,1624165229713299036,0.004784,-0.000927,0.00181,0.99951,-2.5e-05,0.031298,-0.000393,-0.001978,-0.001409,0.003447,0.019394,0.006826,-0.003059
1624165229813295841,72,1624165229813295841,0.005002,-0.007641,0.001112,0.99951,5.3e-05,0.03127,-0.000489,-0.002371,-0.016646,0.000841,0.01904,0.006323,-0.001668
1624165229913292646,73,1624165229913292646,0.005083,-0.002513,0.001669,0.999516,0.000122,0.031079,-0.000388,-0.002213,-0.003588,0.002778,0.020189,0.009256,-0.002857
1624165230013289213,74,1624165230013289213,0.005603,-0.000482,0.000418,0.999513,7e-05,0.031196,-0.000404,-0.001261,0.000577,-0.00096,0.016475,0.006071,-0.001552
1624165230113286018,75,1624165230113286018,0.003454,-0.003213,-0.000774,0.99951,-5e-05,0.031273,-0.000344,-0.006107,-0.007883,-0.003581,0.019216,0.007064,-0.002804
1624165230213282824,76,1624165230213282824,0.003823,-0.00501,0.00127,0.999515,8.5e-05,0.031108,-0.00026,-0.003867,-0.011605,0.00212,0.016777,0.006621,-0.001062
1624165230313279629,77,1624165230313279629,0.003484,-0.00363,-0.000721,0.999512,-3.2e-05,0.031206,-0.000399,-0.004601,-0.007659,-0.002837,0.018973,0.008638,-0.002616
1624165230413276196,78,1624165230413276196,0.004669,-0.006297,0.001199,0.999506,-7.1e-05,0.031426,-0.00032,-0.002732,-0.012157,0.003246,0.017581,0.005414,-0.001606
1624165230513273001,79,1624165230513273001,0.002768,-0.002622,-0.000463,0.99951,-0.000205,0.031276,-0.000267,-0.005644,-0.000628,0.000386,0.019338,0.007118,-0.002042
1624165230613269806,80,1624165230613269806,0.005248,-0.003587,0.001188,0.999509,-0.000147,0.031304,-0.000522,-0.000434,-0.00181,0.003408,0.016625,0.008819,-0.000709
1624165230713266611,81,1624165230713266611,0.002961,-0.003258,-0.000549,0.999511,-0.000124,0.031251,-0.000239,-0.006051,-0.002116,0.000894,0.016833,0.007637,-0.001608
1624165230813263178,82,1624165230813263178,0.005111,-0.007477,0.000672,0.999509,-8.1e-05,0.031307,-0.000399,-0.000875,-0.011672,0.00385,0.018284,0.007976,-0.002437
1624165230913259983,83,1624165230913259983,0.005784,-0.005648,0.001115,0.999516,1.3e-05,0.031103,-0.000285,0.001565,-0.005238,0.005136,0.020148,0.008219,-0.002371
1624165231013256788,84,1624165231013256788,0.004543,-0.003124,0.002158,0.99951,8.6e-05,0.031277,-0.00042,-0.001084,0.00097,0.007489,0.019501,0.008343,-0.001908
1624165231113253355,85,1624165231113253355,0.005948,-0.001815,0.002297,0.999505,1.2e-05,0.031429,-0.000284,0.00126,0.001227,0.005351,0.019918,0.008329,-0.003131
1624165231213250160,86,1624165231213250160,0.005923,-0.006068,0.001055,0.999509,7.7e-05,0.031325,-0.000224,0.002262,-0.008932,0.000687,0.01706,0.004884,-0.000738
1624165231313246965,87,1624165231313246965,0.005596,-0.004247,9e-06,0.999512,0.000152,0.031207,-0.000314,0.001793,-0.004013,-0.000529,0.017238,0.008064,-0.002606
1624165231413243771,88,1624165231413243771,0.005294,-0.003483,0.000206,0.999509,0.000142,0.03133,-0.000238,-0.000456,-0.002862,0.000827,0.021113,0.010146,-0.003786
1624165231513240337,89,1624165231513240337,0.005877,-0.000257,0.000676,0.999508,-1.8e-05,0.031334,-0.000296,0.000724,0.001999,0.001636,0.016216,0.00783,-0.001271
1624165231613237143,90,1624165231613237143,0.006079,-0.006066,0.002095,0.999512,-0.000138,0.031217,-0.000388,0.000201,-0.009656,0.00528,0.018557,0.00671,-0.002507
1624165231713233948,91,1624165231713233948,0.005786,-0.009602,0.000971,0.999514,0.000102,0.031145,-0.000429,4.9e-05,-0.014101,0.003593,0.019854,0.007863,-0.003778
1624165231813230753,92,1624165231813230753,0.005833,-0.005829,0.001302,0.999514,8e-05,0.031161,-0.00018,0.000332,-0.005271,0.00341,0.014483,0.003579,-0.000532
1624165231913227320,93,1624165231913227320,0.005156,-0.004012,0.001833,0.999509,-7.3e-05,0.031309,-0.000577,-0.001539,-0.001685,0.005346,0.019717,0.00849,-0.002075
1624165232013224125,94,1624165232013224125,0.003009,-0.004097,0.001487,0.999509,6.7e-05,0.031303,-0.000346,-0.005871,-0.002231,0.003193,0.015839,0.005678,-0.001126
1624165232113220930,95,1624165232113220930,0.004419,-0.003005,0.000848,0.999509,-8.6e-05,0.031308,-0.000343,-0.00172,0.000727,0.002195,0.018136,0.006933,-0.001973
1624165232213217735,96,1624165232213217735,0.004742,-0.001402,0.001219,0.999507,0.000141,0.031395,-0.000241,-0.002081,0.004045,0.00389,0.018287,0.006334,-0.001954
1624165232313214302,97,1624165232313214302,0.002917,-0.000154,0.000128,0.999514,4.9e-05,0.031156,-0.000548,-0.004875,0.00573,0.002628,0.020014,0.008425,-0.003749
1624165232413211107,98,1624165232413211107,0.003533,0.002851,-3.5e-05,0.999511,-6.4e-05,0.031232,-0.000547,-0.002182,0.008404,0.003563,0.01852,0.008628,-0.002625
1624165232513207912,99,1624165232513207912,0.00341,-0.002592,-0.000575,0.999508,-3.8e-05,0.031335,-0.000538,-0.002253,-0.006691,0.001707,0.019307,0.009687,-0.002192
1624165232613204718,100,1624165232613204718,0.004536,-0.000471,0.001738,0.999511,-4e-05,0.031262,-0.000264,0.00087,-0.002098,0.007833,0.019213,0.008031,-0.002426
1624165232713201284,101,1624165232713201284,0.006444,-0.000569,0.001383,0.999511,0.00026,0.031254,-8.3e-05,0.005065,-0.002337,0.005478,0.020939,0.009761,-0.003021
1624165232813198090,102,1624165232813198090,0.003496,-0.004763,-0.000372,0.999509,0.000131,0.031312,-0.000189,-0.00213,-0.010391,0.001048,0.018155,0.008046,-0.001575
1624165232913194895,103,1624165232913194895,0.005947,-0.006034,0.000145,0.999512,0.00025,0.031231,-0.000343,0.003552,-0.011999,0.002046,0.019435,0.007492,-0.004052
1624165233013191462,104,1624165233013191462,0.006173,-0.003099,-0.000386,0.999506,9e-06,0.031404,-0.000387,0.003072,-0.005425,-0.000206,0.019588,0.008194,-0.002568
1624165233113188267,105,1624165233113188267,0.004901,-0.003303,0.001282,0.999512,3e-06,0.031233,-0.000191,-0.000156,-0.006032,0.004272,0.01807,0.009507,-0.002317
1624165233213185072,106,1624165233213185072,0.004815,-0.005017,-0.000435,0.99951,-2e-05,0.031287,-0.000421,-0.001396,-0.008204,0.001667,0.019599,0.008424,-0.004159
1624165233313181877,107,1624165233313181877,0.008433,-0.001672,0.001175,0.999504,3.6e-05,0.03147,-0.000333,0.004582,0.000915,0.002865,0.01908,0.006679,-0.001954
1624165233413178444,108,1624165233413178444,0.006003,0.001029,0.001781,0.999512,-9.4e-05,0.031227,-0.000424,-0.001813,0.006822,0.005993,0.017033,0.00764,-0.001824
1624165233513175249,109,1624165233513175249,0.006891,-0.0016,0.000605,0.999511,2.2e-05,0.031254,-0.000248,0.000132,-0.000629,0.001807,0.019146,0.007417,-0.001185
1624165233613172054,110,1624165233613172054,0.006532,0.000975,0.00252,0.999516,3.3e-05,0.031094,-0.000341,-0.001391,0.004759,0.007327,0.018063,0.006722,-0.004644
1624165233713168859,111,1624165233713168859,0.007272,0.005096,0.001346,0.999508,0.000132,0.031354,-0.000564,0.000465,0.008871,0.003672,0.019326,0.008416,-0.002515
1624165233813165426,112,1624165233813165426,0.005509,0.000717,0.002975,0.999511,-0.000112,0.031249,-0.00028,-0.004408,-0.002443,0.008236,0.01964,0.00979,-0.000881
1624165233913162231,113,1624165233913162231,0.004303,-0.001244,0.002034,0.999512,7e-05,0.031208,-0.000284,-0.006404,-0.008166,0.003987,0.018794,0.007305,-0.001466
1624165234013159037,114,1624165234013159037,0.003334,0.000291,0.002485,0.999514,-6.8e-05,0.031141,-0.000259,-0.006481,-0.002126,0.004271,0.015382,0.005157,-0.003338
1624165234113155842,115,1624165234113155842,0.003699,0.000698,-0.000495,0.999512,-9.6e-05,0.031206,-0.000338,-0.003499,-0.001768,-0.003728,0.016648,0.004652,-0.001911
1624165234213152409,116,1624165234213152409,0.001644,-0.003992,-7.2e-05,0.999511,5e-05,0.031254,-0.000245,-0.007902,-0.00937,-0.000583,0.018113,0.008263,-0.002385
1624165234313149214,117,1624165234313149214,0.005446,-0.00291,0.000576,0.999508,0.000148,0.031331,-0.0003,0.001948,-0.005664,0.001612,0.017792,0.008756,-0.003504
1624165234413146019,118,1624165234413146019,0.004823,-0.00427,-0.000165,0.999514,0.000143,0.031161,-0.000346,0.00171,-0.007789,-0.000116,0.018983,0.007041,-0.002066
1624165234513142824,119,1624165234513142824,0.00488,-0.005533,0.000473,0.99951,-5.4e-05,0.031284,-0.000312,0.00158,-0.007993,0.003408,0.019068,0.009328,-0.001976
1624165234613139391,120,1624165234613139391,0.005004,0.000245,0.000121,0.999508,7.4e-05,0.031332,-0.000493,0.002168,0.005627,0.002378,0.017995,0.006523,-0.003068
1624165234713136196,121,1624165234713136196,0.00601,-0.004139,0.001281,0.999515,-3.1e-05,0.031128,-0.000389,0.00388,-0.004804,0.004785,0.017536,0.008869,-0.001394
1624165234813133001,122,1624165234813133001,0.005061,-0.00536,0.000747,0.999511,3.2e-05,0.031264,-0.000294,0.000348,-0.007691,0.002883,0.018717,0.007626,-0.000847
1624165234913129568,123,1624165234913129568,0.004847,-0.002003,-0.00024,0.999512,2.1e-05,0.031209,-0.000342,-0.001736,0.002688,0.001971,0.017135,0.009019,-0.005531
1624165235013126373,124,1624165235013126373,0.004995,-0.003385,0.001102,0.99951,0.000242,0.031289,-0.000434,0.000543,-0.006284,0.005606,0.007668,0.009291,0.008055
1624165235113123178,125,1624165235113123178,0.005024,0.00095,-4.5e-05,0.999506,-9.5e-05,0.031397,-0.000393,0.001039,0.000962,0.003228,0.024656,0.009401,0.009168
1624165235213119984,126,1624165235213119984,0.005436,-0.000172,-0.000591,0.999511,-0.000232,0.031255,-0.000342,0.000629,0.001648,0.001471,0.031447,0.003539,-0.011548
1624165235313116550,127,1624165235313116550,0.006964,-0.000779,-0.001123,0.999511,0.000327,0.031239,-0.000369,0.005057,-0.0004,0.001596,0.008528,0.009987,-0.00573
1624165235413113356,128,1624165235413113356,0.005604,-0.000404,0.00083,0.999512,3.5e-05,0.03123,-0.000546,-0.000146,-0.009067,0.006985,0.019744,0.009219,0.010384
1624165235513110161,129,1624165235513110161,0.004694,-0.006752,0.000967,0.99951,-0.000244,0.03129,-0.000332,-0.002739,-0.015475,0.008198,0.022514,0.007758,-0.00023
1624165235613106966,130,1624165235613106966,0.006196,-0.006276,0.000307,0.999512,1.1e-05,0.031215,-0.000209,0.002129,-0.008447,0.003835,0.014458,0.008024,-0.011951
1624165235713103533,131,1624165235713103533,0.007876,-0.003791,0.001394,0.999507,0.000405,0.031389,-0.000404,0.005682,-0.007311,0.006612,0.017168,0.014074,0.004127
1624165235813100338,132,1624165235813100338,0.008415,0.000427,-0.000361,0.999505,1.1e-05,0.031443,-0.000254,0.005221,0.004833,0.000355,0.022852,0.008122,0.003212
1624165235913097143,133,1624165235913097143,0.009178,0.000242,0.00055,0.999505,1.4e-05,0.031429,-0.000499,0.004491,0.001339,0.003812,0.019073,0.011099,-0.004757
1624165236013093948,134,1624165236013093948,0.006142,0.004877,0.001108,0.999511,0.000303,0.031239,-0.000632,-0.001527,0.00881,0.003905,0.02348,0.0049,0.002269
1624165236113090515,135,1624165236113090515,0.006562,0.003797,-0.001336,0.99951,8.4e-05,0.031278,-0.000471,-0.002324,5.4e-05,-0.002136,0.018818,0.006613,0.012279
1624165236213087320,136,1624165236213087320,0.005473,0.002294,-0.002563,0.999509,-0.000296,0.03131,-0.000242,-0.004079,-0.003812,-0.004228,0.024354,0.00526,0.008273
1624165236313084126,137,1624165236313084126,0.004999,0.001135,-0.00311,0.999512,4.7e-05,0.031228,-0.000522,-0.005475,-0.005996,-0.001812,0.013448,0.015249,0.004932
1624165236413080931,138,1624165236413080931,0.004733,0.002433,-0.002369,0.999508,2.7e-05,0.031351,-0.000419,-0.004543,-0.002946,-0.001167,-0.005384,0.000993,0.003303
1624165236513077497,139,1624165236513077497,0.005132,-0.004469,-0.0026,0.999511,-0.000128,0.031237,-0.000271,-0.00467,-0.023158,0.001337,0.031413,0.009871,0.016248
1624165236613074303,140,1624165236613074303,0.008419,0.000268,-0.001083,0.999507,0.000182,0.031366,-0.000318,0.004413,-0.002872,0.002011,-0.004816,0.011118,-0.008164
1624165236713071108,141,1624165236713071108,0.00512,-0.000686,-0.000982,0.999503,0.000261,0.031515,-0.000328,-0.000516,-0.006906,0.000982,0.009664,-0.009811,0.001076
1624165236813067675,142,1624165236813067675,0.002819,-9.7e-05,-0.000641,0.999508,2.3e-05,0.031352,-0.000517,-0.001064,-0.011028,0.001268,0.022718,-0.001972,0.010644
1624165236913064480,143,1624165236913064480,0.005479,0.005196,-2.6e-05,0.999496,-0.0002,0.031722,-0.000454,0.006524,0.010768,0.004732,-0.041932,0.014222,-0.010944
1624165237013061285,144,1624165237013061285,0.004223,-0.000294,0.000255,0.999495,0.000288,0.031744,-0.000667,-0.011933,-0.011172,0.008204,0.039532,0.005623,0.013233
1624165237113058090,145,1624165237113058090,0.00268,0.005315,-0.001278,0.999474,0.00038,0.032422,-0.000412,-0.015088,-0.008633,0.002494,-0.003347,-0.000114,0.022309
1624165237213054657,146,1624165237213054657,0.002455,0.004114,-0.001398,0.99948,0.000136,0.032228,-0.00054,0.000555,-0.002624,-0.00145,-0.012393,0.003448,0.015084
1624165237313051462,147,1624165237313051462,0.003147,0.004835,-0.001869,0.999475,0.000372,0.032366,-0.000831,-0.004066,-0.013247,-0.002788,-0.010192,0.003777,0.006065
1624165237413048267,148,1624165237413048267,0.002786,0.005942,-0.002507,0.999482,0.000776,0.032158,-0.00064,-0.007409,-0.00605,0.002438,0.001695,0.00479,0.012001
1624165237513045073,149,1624165237513045073,0.002713,0.005783,-0.003159,0.999469,0.000338,0.032565,-0.000615,-0.002658,-0.007153,-0.00192,0.003438,-0.00113,0.013389
1624165237613041639,150,1624165237613041639,0.002908,0.004657,-0.003613,0.999469,-1.5e-05,0.032577,-0.000617,0.005782,-0.007098,0.000792,0.006789,0.015517,0.011809
1624165237713038445,151,1624165237713038445,0.003181,0.009923,-0.00303,0.999463,8.9e-05,0.032744,-0.000741,-0.001355,-0.000347,-0.002664,-0.009933,-0.007187,0.001066
1624165237813035250,152,1624165237813035250,0.004678,0.004939,-0.003377,0.999471,0.000403,0.032496,-0.000489,-0.000312,-0.012265,-0.000243,-0.024713,-0.000785,0.006009
1624165237913032055,153,1624165237913032055,0.005261,0.007297,-0.003931,0.999479,0.000457,0.032258,-0.000834,0.011354,-0.004971,-0.003286,0.004991,-0.011814,0.011289
1624165238013028622,154,1624165238013028622,0.006763,0.007925,-0.005372,0.999486,0.000414,0.032029,-0.00057,0.018928,-0.006627,-0.000615,0.009241,0.007303,0.007286
1624165238113025427,155,1624165238113025427,0.006072,0.005236,-0.003205,0.999486,0.000163,0.03204,-0.000558,-0.004499,-0.010865,0.007339,-0.002412,0.003373,0.011081
1624165238213022232,156,1624165238213022232,0.004936,0.00657,-0.00291,0.999485,0.000295,0.032063,-0.000711,-0.008998,-0.00801,0.006746,-0.012506,-0.005312,0.01268
1624165238313019037,157,1624165238313019037,0.004707,0.006197,-0.003061,0.999469,0.00024,0.032564,-0.000821,-0.006835,-0.007853,0.003566,-0.000681,0.012892,0.008873
1624165238413015604,158,1624165238413015604,0.002026,0.008458,-0.001281,0.999465,0.000259,0.032681,-0.000589,-0.001664,-0.003941,-0.001059,-0.003479,-0.00856,0.005676
1624165238513012409,159,1624165238513012409,0.001441,0.007143,-0.003508,0.999498,0.000273,0.031657,-0.000614,-0.006561,-0.003771,-0.017311,-0.021855,-0.07263,0.00929
1624165238613009214,160,1624165238613009214,0.003674,0.01431,-0.006982,0.99958,0.000334,0.028955,-0.00096,0.013102,0.005158,-0.020984,0.015897,-0.051896,0.006799
1624165238713005781,161,1624165238713005781,0.007469,0.009923,-0.006889,0.999669,0.000348,0.025683,-0.00065,0.019846,-0.006424,-0.015847,0.044401,-0.080667,0.006922
1624165238813002586,162,1624165238813002586,0.00957,0.008236,-0.009411,0.999725,0.000101,0.023412,-0.000432,0.01403,-0.009716,-0.010445,0.015641,-0.017782,0.003942
1624165238912999392,163,1624165238912999392,0.012135,0.017947,-0.004202,0.999761,0.00022,0.021819,-0.000803,0.004473,0.01619,0.008608,0.008612,-0.030651,-0.000268
1624165239012996197,164,1624165239012996197,0.013038,0.022041,0.003943,0.999764,8e-06,0.021622,-0.001721,0.002394,0.012054,0.042806,0.020375,0.01913,0.00393
1624165239112992764,165,1624165239112992764,0.013777,0.019335,0.005968,0.999736,0.000388,0.022869,-0.001726,-0.002898,0.005457,0.039852,0.022397,0.013704,0.006782
1624165239212989569,166,1624165239212989569,0.012435,0.010244,0.008969,0.999727,0.00052,0.023276,-0.001945,-0.008486,-0.013332,0.024389,0.000852,-0.025293,-0.00532
1624165239312986374,167,1624165239312986374,0.007926,0.016279,0.010284,0.999752,0.001422,0.021985,-0.003207,-0.030082,0.021087,0.050782,-0.007512,-0.075188,-0.015879
1624165239412983179,168,1624165239412983179,0.004906,0.00292,0.021953,0.999813,0.003162,0.016992,-0.008583,-0.039961,-0.013121,0.178684,0.104894,-0.078611,-0.005343
1624165239512979746,169,1624165239512979746,0.006465,-0.014621,0.045926,0.999779,0.003624,0.014155,-0.015062,-0.025635,-0.062657,0.320205,0.066267,-0.067571,0.016131
1624165239612976551,170,1624165239612976551,-0.001612,-0.027066,0.083384,0.999814,0.004067,0.009485,-0.016261,-0.031192,-0.087446,0.425662,-0.019271,-0.054802,0.009936
1624165239712973356,171,1624165239712973356,-0.011841,-0.037946,0.12812,0.999819,0.004277,0.006621,-0.017294,-0.032972,-0.104998,0.502369,0.030014,-0.027223,0.024452
1624165239812970161,172,1624165239812970161,-0.01696,-0.050597,0.176341,0.999827,0.004297,0.00627,-0.01693,-0.019579,-0.110503,0.582207,-0.058117,0.016464,-0.005058
1624165239912966728,173,1624165239912966728,-0.0169,-0.060411,0.234861,0.999856,0.003988,0.006197,-0.015281,0.002687,-0.125728,0.649745,0.000822,0.01544,0.027237
1624165240012963533,174,1624165240012963533,-0.010508,-0.0647,0.304164,0.999855,0.003546,0.006972,-0.015065,0.030724,-0.111006,0.71994,-0.024715,0.024019,0.005814
1624165240112960339,175,1624165240112960339,-0.002853,-0.06476,0.377811,0.999878,0.003481,0.00839,-0.012669,0.055967,-0.092894,0.775777,-0.087036,0.025587,0.003704
1624165240212957144,176,1624165240212957144,0.006076,-0.069229,0.456495,0.999863,0.003378,0.01077,-0.012072,0.071282,-0.090697,0.82989,-0.016537,0.067499,0.010265
1624165240312953711,177,1624165240312953711,0.011353,-0.072645,0.547926,0.999853,0.003504,0.014073,-0.009126,0.072356,-0.073213,0.903696,-0.10395,0.11154,-0.007193
1624165240412950516,178,1624165240412950516,0.01633,-0.074506,0.636069,0.999786,0.003344,0.019521,-0.005896,0.059965,-0.056279,0.931433,-0.062181,0.1263,0.002135
1624165240512947321,179,1624165240512947321,0.0153,-0.08117,0.722293,0.999702,0.002731,0.023768,-0.004733,0.029224,-0.049537,0.933223,-0.036551,0.101837,0.010209
1624165240612943888,180,1624165240612943888,0.011465,-0.071509,0.816451,0.999637,0.002333,0.026516,-0.004097,-0.008238,0.000788,0.962483,-0.000614,0.048078,0.006426
1624165240712940693,181,1624165240712940693,0.007273,-0.073243,0.922704,0.999548,0.002408,0.02965,-0.004146,-0.045969,0.021408,1.028249,0.045249,0.040394,0.007927
1624165240812937498,182,1624165240812937498,0.004351,-0.080986,1.030115,0.999498,0.00229,0.03109,-0.005492,-0.078347,0.025459,1.089204,0.05508,0.034077,0.012557
1624165240912934303,183,1624165240912934303,-0.008962,-0.089727,1.139566,0.999458,0.001574,0.031438,-0.009593,-0.125621,0.006393,1.133636,0.094995,-0.013221,0.021403
1624165241012930870,184,1624165241012930870,-0.022958,-0.098433,1.254903,0.999444,0.001818,0.029877,-0.014656,-0.162599,-0.011991,1.15835,0.064503,0.005109,0.013208
1624165241112927675,185,1624165241112927675,-0.039715,-0.068673,1.358892,0.999465,0.00151,0.02675,-0.018719,-0.191961,0.036278,1.144435,0.041489,-0.081644,0.008719
1624165241212924480,186,1624165241212924480,-0.063819,-0.058731,1.474031,0.999505,0.001584,0.023314,-0.021037,-0.222561,0.037439,1.173433,0.022328,-0.068066,0.007722
1624165241312921286,187,1624165241312921286,-0.085295,-0.062805,1.595057,0.999555,0.001721,0.019686,-0.022308,-0.235765,0.008412,1.197169,0.018083,-0.085003,0.012604
1624165241412917852,188,1624165241412917852,-0.102698,-0.082947,1.71676,0.99964,0.002232,0.01621,-0.021251,-0.221763,-0.043978,1.219726,-0.062101,-0.07096,0.009491
1624165241512914658,189,1624165241512914658,-0.123832,-0.090198,1.840887,0.999734,0.002193,0.012816,-0.018997,-0.208049,-0.062291,1.254294,-0.072038,-0.045363,-5.7e-05
1624165241612911463,190,1624165241612911463,-0.140915,-0.09326,1.966082,0.999784,0.002245,0.010348,-0.017857,-0.188104,-0.063955,1.258567,-0.042358,-0.030683,0.012977
1624165241712908268,191,1624165241712908268,-0.158505,-0.100607,2.088088,0.999822,0.001989,0.007436,-0.01721,-0.168046,-0.0812,1.263857,-0.057136,-0.060463,0.014942
1624165241812904835,192,1624165241812904835,-0.171931,-0.119342,2.219019,0.999869,0.001841,0.005651,-0.01505,-0.142485,-0.10419,1.283118,-0.016993,-0.002946,0.020927
1624165241912901640,193,1624165241912901640,-0.183283,-0.143993,2.353557,0.99987,0.001267,0.006773,-0.014535,-0.120191,-0.135764,1.262794,0.020734,0.064687,0.022637
1624165242012898445,194,1624165242012898445,-0.203813,-0.150875,2.471438,0.99986,0.000455,0.009268,-0.013862,-0.12115,-0.125405,1.215184,-0.008368,0.022296,0.011771
1624165242112895250,195,1624165242112895250,-0.218235,-0.152069,2.587289,0.999844,0.000619,0.012216,-0.012718,-0.11775,-0.098592,1.205631,0.000975,0.070063,0.002012
1624165242212891817,196,1624165242212891817,-0.230514,-0.147749,2.703897,0.999812,0.000639,0.01342,-0.013949,-0.11884,-0.07048,1.172405,0.036314,0.019647,0.008948
1624165242312888622,197,1624165242312888622,-0.242362,-0.133278,2.818612,0.999774,0.001002,0.01346,-0.016363,-0.108965,-0.025145,1.132903,0.05633,-0.015384,0.008629
1624165242412885427,198,1624165242412885427,-0.250291,-0.128875,2.928272,0.999779,0.001079,0.012762,-0.01665,-0.09551,-0.016904,1.094263,-0.021291,-0.080278,0.015827
1624165242512881994,199,1624165242512881994,-0.259962,-0.135857,3.034657,0.999818,0.000967,0.010152,-0.016122,-0.084726,-0.030463,1.089937,-0.048062,-0.053713,0.012947
1624165242612878799,200,1624165242612878799,-0.267329,-0.145281,3.147664,0.99986,0.00097,0.007876,-0.014717,-0.064599,-0.048703,1.153413,-0.052027,-0.039421,0.011391
1624165242712875605,201,1624165242712875605,-0.268409,-0.167475,3.262217,0.999892,0.000882,0.005616,-0.013507,-0.028176,-0.084825,1.156139,-0.008725,-0.02138,0.012493
1624165242812872410,202,1624165242812872410,-0.270487,-0.176877,3.37296,0.999908,0.000508,0.005158,-0.012497,-0.002397,-0.092283,1.090069,-0.04692,0.026679,0.015571
1624165242912868977,203,1624165242912868977,-0.267174,-0.182339,3.479008,0.999917,0.000544,0.006572,-0.011021,0.029174,-0.075186,1.061717,-0.055822,0.050116,-0.00356
1624165243012865782,204,1624165243012865782,-0.261721,-0.181061,3.585082,0.999913,0.000921,0.008572,-0.009931,0.051725,-0.0574,1.05593,-0.020487,0.04056,0.0051
1624165243112862587,205,1624165243112862587,-0.257743,-0.18224,3.689992,0.999906,0.001089,0.011228,-0.007741,0.059219,-0.041395,1.037585,-0.007422,-0.002146,0.009716
1624165243212859392,206,1624165243212859392,-0.250879,-0.192957,3.796002,0.999897,0.001416,0.010571,-0.009551,0.072013,-0.052126,1.050625,0.019296,-0.019554,0.010213
1624165243312855959,207,1624165243312855959,-0.240156,-0.207527,3.902025,0.999897,0.001266,0.008641,-0.011323,0.095149,-0.070305,1.09163,-0.011172,-0.012496,0.007362
1624165243412852764,208,1624165243412852764,-0.228018,-0.213408,4.010325,0.99989,0.001235,0.007897,-0.012477,0.125796,-0.062077,1.124682,0.062643,0.006704,0.011991
1624165243512849569,209,1624165243512849569,-0.214223,-0.199544,4.123385,0.999871,0.000945,0.008734,-0.013442,0.149292,-0.024461,1.180323,-0.018921,0.024059,0.015159
1624165243612846375,210,1624165243612846375,-0.200311,-0.184911,4.243462,0.999862,0.000611,0.010109,-0.013116,0.165747,0.013486,1.257596,-0.025368,0.034672,0.014887
1624165243712842941,211,1624165243712842941,-0.187042,-0.183111,4.372448,0.999867,0.000396,0.010971,-0.012053,0.169994,0.008282,1.249892,-0.065574,0.005579,0.025796
1624165243812839746,212,1624165243812839746,-0.166575,-0.188285,4.492826,0.999849,0.00037,0.013061,-0.01137,0.188531,0.010646,1.247385,-0.021249,0.059637,-0.004049
1624165243912836552,213,1624165243912836552,-0.151821,-0.189309,4.627562,0.99982,0.000257,0.016166,-0.00988,0.181338,0.011374,1.305465,-0.014139,0.05641,-0.000778
1624165244012833357,214,1624165244012833357,-0.132466,-0.188429,4.754729,0.999773,0.000468,0.019383,-0.008726,0.183869,0.024953,1.28178,0.023248,0.080925,0.001803
1624165244112829924,215,1624165244112829924,-0.11005,-0.19518,4.879775,0.999713,0.000808,0.021841,-0.009807,0.182637,0.020851,1.264323,0.022311,0.019268,-0.000177
1624165244212826729,216,1624165244212826729,-0.092291,-0.183753,5.006173,0.999687,0.001302,0.022077,-0.011616,0.172604,0.047065,1.271462,0.044638,-0.015427,0.005859
1624165244312823534,217,1624165244312823534,-0.075099,-0.185117,5.134985,0.999683,0.001805,0.019935,-0.015228,0.160457,0.042882,1.27888,0.073696,-0.020742,0.001459
1624165244412820101,218,1624165244412820101,-0.060118,-0.173586,5.261763,0.999681,0.001788,0.018481,-0.017089,0.151003,0.053895,1.292555,0.000887,-0.01172,0.004632
1624165244512816906,219,1624165244512816906,-0.04569,-0.165404,5.398945,0.999679,0.001675,0.017618,-0.018085,0.141947,0.057606,1.371872,-0.018699,-0.004867,0.028271
1624165244612813711,220,1624165244612813711,-0.035263,-0.159362,5.541529,0.999642,0.00162,0.017486,-0.020145,0.121771,0.050256,1.439051,-0.025693,-0.003687,0.019221
1624165244712810516,221,1624165244712810516,-0.024783,-0.160138,5.684441,0.999644,0.001207,0.01622,-0.021143,0.106925,0.020832,1.488255,-0.025628,-0.017421,0.021923
1624165244812807083,222,1624165244812807083,-0.012996,-0.158899,5.835813,0.99967,0.000841,0.014371,-0.021274,0.09933,-3.4e-05,1.544355,0.012438,-0.040891,0.025445
1624165244912803888,223,1624165244912803888,-0.000171,-0.166755,5.994987,0.999712,0.000181,0.011459,-0.021055,0.102897,-0.03533,1.604445,-0.005218,-0.025375,0.033533
1624165245012800694,224,1624165245012800694,0.008424,-0.166815,6.160992,0.999756,-0.000612,0.010374,-0.019456,0.094877,-0.039814,1.658831,-0.075129,-0.011566,0.025498
1624165245112797499,225,1624165245112797499,0.018817,-0.168826,6.329713,0.999804,-0.00154,0.010721,-0.016525,0.098106,-0.048797,1.709787,-0.076263,0.040709,0.014579
1624165245212794065,226,1624165245212794065,0.0272,-0.164581,6.496524,0.999805,-0.002463,0.009108,-0.017345,0.08165,-0.032506,1.650338,0.002461,-0.188455,0.031069
1624165245312790871,227,1624165245312790871,0.036321,-0.157039,6.660878,0.999859,-0.002428,-0.003,-0.016288,0.089811,-0.01304,1.671551,-0.054691,-0.212425,0.00979
1624165245412787676,228,1624165245412787676,0.050011,-0.150102,6.834097,0.999805,-0.002972,-0.011613,-0.015673,0.138903,-0.00472,1.737199,-0.033722,-0.105324,0.021549
1624165245512784481,229,1624165245512784481,0.064338,-0.149612,7.010472,0.999739,-0.002799,-0.015566,-0.016451,0.186716,0.000901,1.779462,0.012415,-0.049755,0.00854
1624165245612781048,230,1624165245612781048,0.086774,-0.153103,7.189098,0.999719,-0.002939,-0.016343,-0.016902,0.240238,-0.015685,1.809204,-0.01776,0.047233,-0.0042
1624165245712777853,231,1624165245712777853,0.115875,-0.166229,7.360847,0.999715,-0.003079,-0.017889,-0.015442,0.282886,-0.048186,1.699215,-0.038717,-0.10711,0.016854
1624165245812774658,232,1624165245812774658,0.142115,-0.167852,7.518278,0.999455,-0.003395,-0.029842,-0.013631,0.324653,-0.041061,1.57325,-0.028805,-0.316829,0.016976
1624165245912771225,233,1624165245912771225,0.179799,-0.170762,7.676398,0.998816,-0.003315,-0.046878,-0.01249,0.414481,-0.03471,1.567043,-0.053987,-0.3525,0.01929
1624165246012768030,234,1624165246012768030,0.22778,-0.175173,7.835173,0.998031,-0.003251,-0.061524,-0.011701,0.548608,-0.035808,1.595779,-0.012254,-0.23273,0.020364
1624165246112764835,235,1624165246112764835,0.295701,-0.188439,8.004608,0.997521,-0.003582,-0.069264,-0.011841,0.727761,-0.050816,1.687066,0.054976,-0.032611,0.023786
1624165246212761641,236,1624165246212761641,0.377079,-0.19899,8.177978,0.997689,-0.003721,-0.066434,-0.013696,0.892932,-0.055439,1.747429,-0.011605,0.115797,0.011429
1624165246312758207,237,1624165246312758207,0.474188,-0.211907,8.353607,0.997911,-0.003669,-0.063035,-0.013642,1.028431,-0.071185,1.74561,-0.035628,0.024922,-0.000292
1624165246412755013,238,1624165246412755013,0.584891,-0.222629,8.525348,0.997753,-0.003383,-0.065598,-0.01316,1.153743,-0.073114,1.694214,-0.015066,-0.151962,0.001104
1624165246512751818,239,1624165246512751818,0.709208,-0.224618,8.692076,0.997183,-0.00348,-0.073514,-0.014418,1.306521,-0.061249,1.682689,-0.006107,-0.129239,0.013771
1624165246612748623,240,1624165246612748623,0.84508,-0.234054,8.869299,0.997048,-0.003294,-0.075278,-0.014707,1.478307,-0.063924,1.75151,0.0028,0.093586,-0.000839
1624165246712745190,241,1624165246712745190,1.000415,-0.241915,9.043729,0.997423,-0.003092,-0.069989,-0.015431,1.622578,-0.070573,1.717798,-0.000771,0.120522,0.007306
1624165246812741995,242,1624165246812741995,1.165687,-0.242881,9.216776,0.997853,-0.00333,-0.063575,-0.015359,1.749906,-0.068003,1.72526,-0.006412,0.138056,0.016401
1624165246912738800,243,1624165246912738800,1.35191,-0.247723,9.389882,0.998199,-0.003655,-0.057838,-0.015453,1.885354,-0.070293,1.711271,0.009265,0.102024,0.018341
1624165247012735605,244,1624165247012735605,1.543004,-0.252735,9.563617,0.998491,-0.004231,-0.052645,-0.015016,1.990311,-0.062286,1.715964,-0.013079,0.116878,0.01081
1624165247112732172,245,1624165247112732172,1.745766,-0.259282,9.732823,0.99874,-0.004427,-0.047807,-0.014561,2.088587,-0.057064,1.723328,-0.015586,0.126371,-0.004285
1624165247212728977,246,1624165247212728977,1.957339,-0.25407,9.902757,0.998956,-0.004818,-0.043337,-0.013551,2.175424,-0.037553,1.704161,0.013175,0.071876,0.019928
1624165247312725782,247,1624165247312725782,2.177654,-0.259286,10.071735,0.999172,-0.005033,-0.038042,-0.013477,2.255935,-0.028845,1.683596,0.009319,0.110457,0.008613
1624165247412722588,248,1624165247412722588,2.408726,-0.270435,10.241549,0.999429,-0.005305,-0.030814,-0.012788,2.323528,-0.039982,1.675794,-0.006268,0.135707,0.002852
1624165247512719154,249,1624165247512719154,2.641674,-0.277966,10.404659,0.999584,-0.005639,-0.02445,-0.014193,2.367489,-0.046587,1.635055,0.014232,0.138037,0.005561
1624165247612715960,250,1624165247612715960,2.88201,-0.29016,10.567507,0.99968,-0.00566,-0.01971,-0.014802,2.401194,-0.055243,1.569405,0.018927,0.078669,0.001967
1624165247712712765,251,1624165247712712765,3.119338,-0.275716,10.728051,0.999747,-0.005728,-0.015115,-0.015619,2.426843,-0.013294,1.559115,0.001299,0.119208,0.00887
1624165247812709332,252,1624165247812709332,3.364881,-0.276963,10.877112,0.999781,-0.005952,-0.010261,-0.017226,2.450279,-0.016391,1.497279,-0.007485,0.069445,0.00834
1624165247912706137,253,1624165247912706137,3.614793,-0.277153,11.02106,0.99983,-0.006008,-0.006546,-0.016124,2.481448,-0.019428,1.445379,-0.02,0.133818,0.018134
1624165248012702942,254,1624165248012702942,3.861065,-0.28561,11.164471,0.99985,-0.006428,0.00183,-0.015939,2.482889,-0.038257,1.349208,-0.017667,0.2272,0.008439
1624165248112699747,255,1624165248112699747,4.112003,-0.288702,11.293932,0.999681,-0.006758,0.018937,-0.015225,2.46764,-0.036787,1.26123,-0.079102,0.374162,0.008339
1624165248212696314,256,1624165248212696314,4.358683,-0.291711,11.41414,0.999287,-0.007398,0.034306,-0.013867,2.413209,-0.030974,1.067605,0.041127,0.2267,0.020196
1624165248312693119,257,1624165248312693119,4.596323,-0.288475,11.512107,0.999073,-0.007708,0.040664,-0.011758,2.353469,-0.01454,0.942074,0.004175,0.20897,0.008211
1624165248412689924,258,1624165248412689924,4.832239,-0.294865,11.604871,0.997998,-0.007766,0.061844,-0.010667,2.270574,-0.014874,0.897649,-0.033632,0.403358,-0.001466
1624165248512686729,259,1624165248512686729,5.05607,-0.301103,11.680118,0.997486,-0.0081,0.069408,-0.011743,2.14351,-0.012783,0.695067,0.061815,-0.030743,0.013424
1624165248612683296,260,1624165248612683296,5.263681,-0.300409,11.751629,0.997818,-0.008498,0.064197,-0.012816,2.014244,-0.00738,0.603524,-0.058636,-0.201467,0.016487
1624165248712680101,261,1624165248712680101,5.462136,-0.302621,11.808869,0.998465,-0.008792,0.053035,-0.013305,1.91645,-0.007187,0.553179,0.00571,-0.210473,0.009287
1624165248812676907,262,1624165248812676907,5.654756,-0.298442,11.863654,0.998879,-0.008444,0.044209,-0.01465,1.847126,0.005489,0.522721,-0.00599,-0.17492,0.010016
1624165248912673712,263,1624165248912673712,5.842013,-0.313565,11.921388,0.999283,-0.00824,0.034269,-0.01381,1.784793,-0.022512,0.527179,-0.02157,-0.186233,0.003462
1624165249012670279,264,1624165249012670279,6.018838,-0.307473,11.976741,0.9995,-0.008477,0.028148,-0.011594,1.741838,-0.004236,0.543588,-0.043379,-0.045859,0.014418
1624165249112667084,265,1624165249112667084,6.193818,-0.309988,12.025966,0.999616,-0.008676,0.023337,-0.012116,1.701564,-0.001351,0.495092,0.011647,-0.11938,0.010379
1624165249212663889,266,1624165249212663889,6.367527,-0.322896,12.07175,0.999701,-0.008469,0.019828,-0.011497,1.691323,-0.024653,0.447985,-0.017687,-0.030638,0.007961
1624165249312660694,267,1624165249312660694,6.536628,-0.314966,12.114027,0.9997,-0.008751,0.020291,-0.01047,1.667943,-0.004259,0.408041,-0.078914,0.042677,0.016751
1624165249412657261,268,1624165249412657261,6.694495,-0.304309,12.151466,0.99967,-0.009282,0.02237,-0.008548,1.628928,0.018241,0.354572,-0.04084,0.067543,0.018405
1624165249512654066,269,1624165249512654066,6.857726,-0.308232,12.186746,0.999596,-0.009529,0.026055,-0.00617,1.58732,0.021022,0.311085,-0.053977,0.040402,0.010015
1624165249612650871,270,1624165249612650871,7.018081,-0.300614,12.213652,0.999507,-0.009378,0.029475,-0.005363,1.556464,0.047153,0.248992,-0.058087,0.071514,0.007404
1624165249712647438,271,1624165249712647438,7.171766,-0.291754,12.235351,0.999405,-0.009321,0.032814,-0.004978,1.511576,0.067147,0.191755,-0.043172,0.038998,0.013521
1624165249812644243,272,1624165249812644243,7.326803,-0.28258,12.254231,0.999335,-0.009176,0.034887,-0.005303,1.473304,0.085073,0.172648,0.057727,0.030839,0.018181
1624165249912641048,273,1624165249912641048,7.472166,-0.280124,12.274997,0.999244,-0.009529,0.037015,-0.007029,1.418896,0.080231,0.142589,0.032617,0.033463,0.021371
1624165250012637854,274,1624165250012637854,7.611541,-0.266645,12.284481,0.999147,-0.009599,0.039054,-0.00931,1.351986,0.096252,0.117712,0.002481,0.025092,0.017649
1624165250112634420,275,1624165250112634420,7.748013,-0.253319,12.295019,0.999086,-0.009854,0.040272,-0.010382,1.298447,0.112837,0.097176,-0.018751,0.029625,0.008271
1624165250212631226,276,1624165250212631226,7.879545,-0.250312,12.306815,0.999014,-0.010028,0.042172,-0.009563,1.236474,0.096818,0.099476,-0.007513,0.006964,0.017177
1624165250312628031,277,1624165250312628031,7.997216,-0.242947,12.315613,0.998947,-0.010369,0.043557,-0.00997,1.166159,0.095451,0.095028,0.010698,0.036926,0.007121
1624165250412624836,278,1624165250412624836,8.111335,-0.234232,12.325447,0.998882,-0.010238,0.044758,-0.011204,1.087856,0.099778,0.081123,0.028829,-0.0547,0.004488
1624165250512621403,279,1624165250512621403,8.219546,-0.224471,12.331463,0.99929,-0.010364,0.033178,-0.014497,1.032075,0.09096,0.048549,0.030401,-0.259428,0.025157
1624165250612618208,280,1624165250612618208,8.324618,-0.217506,12.343654,0.999513,-0.010379,0.025767,-0.014193,1.002694,0.081461,0.128793,-0.043162,-0.051049,0.002529
1624165250712615013,281,1624165250712615013,8.422252,-0.205751,12.358044,0.999561,-0.010357,0.024491,-0.013048,0.968349,0.08243,0.143484,-0.011609,-0.02488,0.006072
1624165250812611818,282,1624165250812611818,8.518487,-0.205825,12.373099,0.999528,-0.010276,0.026338,-0.012011,0.943028,0.063865,0.152511,-0.024075,0.079168,0.011564
1624165250912608385,283,1624165250912608385,8.610531,-0.19525,12.384585,0.99944,-0.010544,0.029858,-0.010772,0.904801,0.071155,0.154052,-0.006558,0.087057,0.016663
1624165251012605190,284,1624165251012605190,8.701914,-0.189435,12.400089,0.999289,-0.010346,0.034643,-0.010672,0.852891,0.083963,0.164922,-0.069526,0.091327,0.00846
1624165251112601995,285,1624165251112601995,8.785513,-0.179955,12.414524,0.999122,-0.010364,0.03911,-0.010816,0.803902,0.086323,0.143174,-0.008873,0.092879,0.000191
1624165251212598801,286,1624165251212598801,8.863809,-0.169111,12.427222,0.998964,-0.010433,0.043021,-0.010513,0.743825,0.085367,0.11957,-0.017874,0.066033,0.020075
1624165251312595367,287,1624165251312595367,8.937665,-0.161768,12.434975,0.99884,-0.010788,0.045895,-0.00974,0.684903,0.082816,0.080306,-0.016269,0.068752,0.017891
1624165251412592173,288,1624165251412592173,9.002903,-0.153779,12.444735,0.998728,-0.010993,0.048235,-0.009698,0.60396,0.094565,0.070521,0.011878,0.099737,0.015656
1624165251512588978,289,1624165251512588978,9.062537,-0.144237,12.45193,0.998615,-0.011437,0.050189,-0.01081,0.534351,0.09241,0.04986,0.010466,0.037385,0.013537
1624165251612585545,290,1624165251612585545,9.108621,-0.135112,12.457893,0.998508,-0.011612,0.052121,-0.011352,0.448385,0.088408,0.0329,0.047747,-0.001079,0.018471
1624165251712582350,291,1624165251712582350,9.152778,-0.130542,12.460096,0.998456,-0.011712,0.052313,-0.014538,0.366184,0.077177,-0.015873,0.082892,-0.097974,0.011913
1624165251812579155,292,1624165251812579155,9.190991,-0.117542,12.453828,0.998891,-0.011759,0.041959,-0.017824,0.308828,0.083863,-0.080959,0.063116,-0.215595,0.013553
1624165251912575960,293,1624165251912575960,9.22315,-0.120434,12.444915,0.999002,-0.012194,0.035702,-0.023872,0.267104,0.052468,-0.080515,0.217392,-0.114969,0.017385
1624165252012572527,294,1624165252012572527,9.249031,-0.119588,12.440375,0.998932,-0.012008,0.032793,-0.030227,0.230621,0.014923,-0.056398,0.209867,0.000809,0.015836
1624165252112569332,295,1624165252112569332,9.273558,-0.117936,12.431914,0.99851,-0.01235,0.032633,-0.041945,0.200699,-0.034762,-0.082847,0.188237,0.030809,0.015177
1624165252212566137,296,1624165252212566137,9.291958,-0.124991,12.424565,0.997904,-0.012093,0.034619,-0.053316,0.158263,-0.105412,-0.10343,0.197914,0.04368,0.017811
1624165252312562943,297,1624165252312562943,9.303079,-0.13376,12.410909,0.997414,-0.012241,0.035999,-0.060979,0.107421,-0.176483,-0.13037,0.137935,-0.004368,0.011182
1624165252412559509,298,1624165252412559509,9.314696,-0.160277,12.404739,0.997364,-0.012237,0.037214,-0.06107,0.066461,-0.290729,-0.135011,-0.173017,0.020552,0.006151
1624165252512556314,299,1624165252512556314,9.319263,-0.18872,12.390723,0.997877,-0.012572,0.036549,-0.052407,0.019422,-0.367262,-0.144998,-0.193487,0.007136,0.006076
1624165252612553120,300,1624165252612553120,9.322219,-0.230223,12.376051,0.998412,-0.012949,0.035535,-0.041734,-0.023617,-0.431251,-0.15544,-0.178647,-0.023802,0.009139
1624165252712549925,301,1624165252712549925,9.319736,-0.279862,12.360627,0.99884,-0.013165,0.034698,-0.030673,-0.06706,-0.483175,-0.14573,-0.17575,0.004959,0.01036
1624165252812546492,302,1624165252812546492,9.310819,-0.323557,12.343861,0.999097,-0.013995,0.033842,-0.021512,-0.108072,-0.499216,-0.166891,-0.267693,-0.013792,0.006401
1624165252912543297,303,1624165252912543297,9.301731,-0.378063,12.327893,0.999309,-0.014299,0.033221,-0.008521,-0.142546,-0.493367,-0.170699,-0.068664,-0.046289,-0.002797
1624165253012540102,304,1624165253012540102,9.289863,-0.425242,12.309,0.999309,-0.014103,0.033148,-0.009062,-0.166695,-0.483651,-0.179241,0.016262,-0.00137,0.016609
1624165253112536907,305,1624165253112536907,9.271738,-0.480015,12.29079,0.999251,-0.014068,0.033513,-0.013212,-0.205933,-0.483959,-0.199917,0.112667,0.014697,0.014756
1624165253212533474,306,1624165253212533474,9.250102,-0.527282,12.268055,0.999101,-0.014144,0.034648,-0.019908,-0.247775,-0.485438,-0.217716,0.122387,0.029732,0.011037
1624165253312530279,307,1624165253312530279,9.225212,-0.571165,12.242936,0.998877,-0.013707,0.036248,-0.027225,-0.290059,-0.485593,-0.222344,0.177061,0.026884,0.00151
1624165253412527084,308,1624165253412527084,9.194951,-0.620148,12.219853,0.998487,-0.013384,0.036438,-0.038941,-0.336268,-0.509812,-0.23398,0.364042,-0.006938,0.018399
1624165253512523651,309,1624165253512523651,9.159119,-0.676391,12.193039,0.99794,-0.012889,0.036246,-0.051331,-0.385999,-0.580502,-0.256104,0.174329,-0.035063,0.01911
1624165253612520456,310,1624165253612520456,9.121124,-0.737739,12.169792,0.997628,-0.012625,0.035933,-0.057322,-0.427794,-0.655896,-0.269902,0.032896,-0.051542,-0.006014
1624165253712517262,311,1624165253712517262,9.080246,-0.808981,12.142403,0.997685,-0.012335,0.033302,-0.057991,-0.463619,-0.738577,-0.283609,-0.034357,-0.053501,-0.000424
1624165253812514067,312,1624165253812514067,9.033254,-0.888205,12.115651,0.997832,-0.012448,0.029958,-0.057244,-0.498424,-0.818789,-0.280283,-0.027855,-0.057211,0.012969
1624165253912510633,313,1624165253912510633,8.983757,-0.968306,12.086459,0.997975,-0.012563,0.027447,-0.055978,-0.52178,-0.876258,-0.268362,-0.056773,0.011866,0.009267
1624165254012507439,314,1624165254012507439,8.929843,-1.059108,12.053057,0.998202,-0.012898,0.024945,-0.052949,-0.542309,-0.94942,-0.276508,-0.121218,-0.072545,0.019756
1624165254112504244,315,1624165254112504244,8.879788,-1.157077,12.02816,0.998381,-0.012943,0.023366,-0.05021,-0.551838,-1.015951,-0.244813,-0.04216,-0.028453,0.019014
1624165254212501049,316,1624165254212501049,8.827732,-1.270328,12.006846,0.998537,-0.012867,0.023904,-0.046745,-0.569421,-1.089928,-0.20625,-0.12492,0.018523,0.008569
1624165254312497616,317,1624165254312497616,8.770472,-1.378749,11.985536,0.998692,-0.013139,0.026542,-0.041673,-0.587308,-1.12742,-0.20806,-0.175984,0.025101,-0.002386
1624165254412494421,318,1624165254412494421,8.711972,-1.493752,11.968327,0.998926,-0.012725,0.028875,-0.03392,-0.61043,-1.156692,-0.187924,-0.101302,0.055627,-0.003002
1624165254512491226,319,1624165254512491226,8.646671,-1.60634,11.944046,0.999093,-0.012247,0.029431,-0.028213,-0.645283,-1.159627,-0.232198,-0.119003,-0.037624,-0.01181
1624165254612488031,320,1624165254612488031,8.582502,-1.721782,11.920183,0.999278,-0.011952,0.027503,-0.023293,-0.67279,-1.179869,-0.226373,-0.171149,-0.04161,-0.000644
1624165254712484598,321,1624165254712484598,8.516296,-1.84043,11.895429,0.999568,-0.011675,0.021667,-0.01602,-0.690982,-1.159188,-0.285517,-0.072204,-0.210562,-0.008966
1624165254812481403,322,1624165254812481403,8.453295,-1.957661,11.865448,0.999806,-0.011458,0.010198,-0.012318,-0.694602,-1.156002,-0.295565,-0.074691,-0.280594,0.018163
1624165254912478209,323,1624165254912478209,8.383468,-2.06479,11.831613,0.999864,-0.011364,-0.005772,-0.01038,-0.677606,-1.114477,-0.285522,-0.096367,-0.323601,0.006295
1624165255012475014,324,1624165255012475014,8.322513,-2.177516,11.807357,0.999755,-0.01156,-0.017198,-0.007661,-0.599068,-1.090847,-0.208401,-0.093518,-0.11523,0.006429
1624165255112471581,325,1624165255112471581,8.266448,-2.283119,11.786523,0.999691,-0.011213,-0.021056,-0.006945,-0.517931,-1.05376,-0.172653,-0.014974,-0.006134,0.005086
1624165255212468386,326,1624165255212468386,8.221327,-2.393051,11.768888,0.999631,-0.011588,-0.022429,-0.010008,-0.43591,-1.030096,-0.147621,0.053853,0.019533,-0.001688
1624165255312465191,327,1624165255312465191,8.18501,-2.498523,11.757198,0.999627,-0.011541,-0.020203,-0.014248,-0.347428,-1.018906,-0.102939,0.092871,0.138905,-0.015275
1624165255412461758,328,1624165255412461758,8.156518,-2.594313,11.750537,0.999625,-0.011538,-0.014953,-0.019819,-0.279327,-1.004819,-0.085373,0.127988,0.087624,0.005534
1624165255512458563,329,1624165255512458563,8.131353,-2.697547,11.744928,0.999535,-0.011451,-0.013031,-0.025075,-0.235523,-1.020599,-0.087803,0.085914,-0.007745,0.013235
1624165255612455368,330,1624165255612455368,8.103684,-2.798088,11.739851,0.999468,-0.011871,-0.013584,-0.027135,-0.20475,-1.035419,-0.07897,0.06497,-0.025631,0.017571
1624165255712452173,331,1624165255712452173,8.086144,-2.898566,11.732019,0.999429,-0.012085,-0.014599,-0.027951,-0.144675,-1.03046,-0.101269,-0.005814,-0.04586,7.3e-05
1624165255812448740,332,1624165255812448740,8.070988,-3.007356,11.722586,0.999372,-0.012193,-0.017178,-0.02846,-0.10455,-1.065819,-0.111044,0.013934,-0.073461,0.013563
1624165255912445545,333,1624165255912445545,8.066361,-3.114187,11.712678,0.99931,-0.012988,-0.022964,-0.02611,-0.046078,-1.083977,-0.128329,-0.124762,-0.161428,0.03521
1624165256012442350,334,1624165256012442350,8.06862,-3.22956,11.695188,0.999169,-0.01345,-0.030967,-0.022829,0.036783,-1.111867,-0.157215,-0.002057,-0.170881,0.029184
1624165256112439156,335,1624165256112439156,8.079948,-3.340079,11.688399,0.999007,-0.014241,-0.036136,-0.021823,0.139961,-1.113254,-0.132991,-0.054569,-0.049526,0.025803
1624165256212435722,336,1624165256212435722,8.101375,-3.447359,11.681371,0.99907,-0.014463,-0.036097,-0.018573,0.246083,-1.104077,-0.081396,-0.038144,0.085252,0.006072
1624165256312432528,337,1624165256312432528,8.129218,-3.556155,11.679241,0.999233,-0.014766,-0.031746,-0.017505,0.333369,-1.097139,-0.054676,0.002891,0.121256,0.016328
1624165256412429333,338,1624165256412429333,8.167772,-3.663097,11.677079,0.99944,-0.015087,-0.026156,-0.014405,0.411147,-1.077915,-0.033054,-0.083253,0.148934,-0.004093
1624165256512426138,339,1624165256512426138,8.21155,-3.769912,11.674917,0.999707,-0.015143,-0.014441,-0.012103,0.478058,-1.066295,0.003232,-0.058996,0.298553,0.009097
1624165256612422705,340,1624165256612422705,8.260587,-3.873795,11.676754,0.999827,-0.015408,0.001111,-0.010327,0.498538,-1.031978,0.004446,0.067038,0.247083,0.016142
1624165256712419510,341,1624165256712419510,8.303672,-3.967581,11.669552,0.999727,-0.0156,0.010317,-0.013963,0.47698,-0.990649,-0.030569,0.11353,0.131286,0.013986
1624165256812416315,342,1624165256812416315,8.35441,-4.065778,11.667796,0.999467,-0.015449,0.015014,-0.024526,0.469372,-0.967633,-0.032021,0.270497,0.074929,0.016963
1624165256912413120,343,1624165256912413120,8.403108,-4.165192,11.666196,0.999129,-0.01508,0.018381,-0.034263,0.460632,-0.998636,-0.028875,0.040021,0.06935,-0.012091
1624165257012409687,344,1624165257012409687,8.451787,-4.268365,11.668385,0.999077,-0.01508,0.023708,-0.032483,0.46099,-1.023571,-0.0289,-0.038868,0.087468,0.00242
1624165257112406492,345,1624165257112406492,8.500761,-4.376602,11.671561,0.999024,-0.015417,0.030579,-0.027867,0.444255,-1.047873,-0.015632,-0.137325,0.139808,-0.004627
1624165257212403297,346,1624165257212403297,8.548238,-4.479516,11.666481,0.99897,-0.015906,0.035218,-0.023745,0.413234,-1.03807,-0.06569,-0.145996,0.030338,-0.00368
1624165257312399864,347,1624165257312399864,8.587443,-4.583144,11.658607,0.998982,-0.016085,0.035906,-0.022028,0.373281,-1.028754,-0.080368,0.013697,0.037294,0.005562
1624165257412396669,348,1624165257412396669,8.622591,-4.694644,11.655933,0.999037,-0.015756,0.035038,-0.021169,0.332786,-1.040922,-0.059504,0.035246,0.055402,0.000657
1624165257512393475,349,1624165257512393475,8.655527,-4.799352,11.659829,0.998855,-0.015339,0.041595,-0.01794,0.29564,-1.042615,-0.016362,-0.157959,0.107687,-0.005727
1624165257612390280,350,1624165257612390280,8.686265,-4.907972,11.657798,0.99875,-0.015791,0.045248,-0.014131,0.246248,-1.033291,-0.061043,-0.048325,-0.03779,0.008574
1624165257712386847,351,1624165257712386847,8.707668,-5.010829,11.646415,0.99889,-0.01645,0.042503,-0.011897,0.193494,-1.010469,-0.102397,0.005112,-0.051276,0.01785
1624165257812383652,352,1624165257812383652,8.730713,-5.109687,11.631858,0.999115,-0.017026,0.036226,-0.012852,0.164137,-0.975704,-0.146578,0.05517,-0.151655,0.022034
1624165257912380457,353,1624165257912380457,8.744994,-5.205353,11.61727,0.999266,-0.017479,0.029643,-0.016791,0.132965,-0.94953,-0.156394,0.093649,-0.109996,0.020735
1624165258012377262,354,1624165258012377262,8.768543,-5.302095,11.606973,0.999168,-0.018107,0.025388,-0.026258,0.137426,-0.951553,-0.131095,0.155211,-0.004625,0.029453
1624165258112373829,355,1624165258112373829,8.784826,-5.397501,11.593875,0.998993,-0.01889,0.027289,-0.030169,0.136465,-0.973685,-0.136846,0.047589,0.046579,0.001872
1624165258212370634,356,1624165258212370634,8.791797,-5.494332,11.586512,0.998786,-0.019304,0.032682,-0.031377,0.085225,-0.989714,-0.107063,0.073343,0.142513,0.009235
1624165258312367439,357,1624165258312367439,8.795413,-5.591681,11.578518,0.998525,-0.019335,0.038039,-0.033557,0.035751,-1.003684,-0.138625,0.005437,0.053008,-0.000797
1624165258412364244,358,1624165258412364244,8.792023,-5.687209,11.563091,0.998193,-0.018878,0.040305,-0.040361,-0.038122,-1.013655,-0.173258,0.225459,-0.016959,0.008759
1624165258512360811,359,1624165258512360811,8.786588,-5.785854,11.543259,0.99777,-0.018441,0.038899,-0.050997,-0.101372,-1.047393,-0.193802,0.181939,-0.061104,0.031049
1624165258612357616,360,1624165258612357616,8.775289,-5.901623,11.526764,0.997366,-0.018402,0.035824,-0.060308,-0.154306,-1.127579,-0.19613,0.206393,-0.081329,0.017385
