time,field.header.seq,field.header.stamp,field.pose.pose.position.x,field.pose.pose.position.y,field.pose.pose.position.z,field.pose.pose.orientation.x,field.pose.pose.orientation.y,field.pose.pose.orientation.z,field.pose.pose.orientation.w,field.twist.twist.linear.x,field.twist.twist.linear.y,field.twist.twist.linear.z,field.twist.twist.angular.x,field.twist.twist.angular.y,field.twist.twist.angular.z
1624163944127675056,2,1624163944127675056,0.009977,-0.002085,-0.003081,0.999832,0.000133,0.018177,-0.001931,0.005211,-0.003745,0.003509,0.014662,0.003018,-0.000899
1624163944227673531,3,1624163944227673531,0.008845,-0.00194,-0.004422,0.999832,-8.2e-05,0.018209,-0.001943,-0.000875,-0.001141,-0.001326,0.013872,0.004646,-0.003164
1624163944327672243,4,1624163944327672243,0.009292,-0.002924,-0.002377,0.999831,0.000121,0.018262,-0.001824,-0.000357,-0.00398,0.004224,0.014672,0.003392,-0.004584
1624163944427670956,5,1624163944427670956,0.008893,-0.001219,-0.003175,0.99983,0.000127,0.01832,-0.001825,-0.000914,0.001524,0.000655,0.014489,0.003216,-0.001985
1624163944527669668,6,1624163944527669668,0.008615,-0.001089,-0.003741,0.999831,0.00019,0.01828,-0.001899,-0.001107,0.000321,-0.001474,0.013071,0.000545,-0.002819
1624163944627668381,7,1624163944627668381,0.008876,0.000615,-0.003988,0.999829,0.000132,0.018346,-0.001988,-0.001081,0.003252,-0.001659,0.013076,0.00018,-0.002736
1624163944727667093,8,1624163944727667093,0.0097,0.001502,-0.003485,0.999833,-1.7e-05,0.018126,-0.002005,0.001171,0.005184,0.000471,0.014205,0.001393,-0.001298
1624163944827665806,9,1624163944827665806,0.008803,-0.003064,-0.003093,0.999835,5.1e-05,0.018018,-0.001852,-0.001887,-0.00521,0.001115,0.014441,0.001466,-0.003344
1624163944927664280,10,1624163944927664280,0.009742,0.000954,-0.004987,0.999831,4.8e-05,0.01824,-0.002046,-0.000973,0.005145,-0.003614,0.012861,0.005676,-0.002104
1624163945027662992,11,1624163945027662992,0.009468,-0.000471,-0.003779,0.999832,7.5e-05,0.018203,-0.001929,-0.00171,0.001,-0.001089,0.012129,0.000252,-0.00145
1624163945127661705,12,1624163945127661705,0.009734,0.000153,-0.0039,0.999835,0.000129,0.018006,-0.001987,-0.000809,0.004186,-0.000721,0.014832,-0.001331,-0.003277
1624163945227660418,13,1624163945227660418,0.009145,0.002545,-0.005306,0.999835,8.9e-05,0.018051,-0.002001,-0.000948,0.008696,-0.003157,0.012283,0.003887,-0.002881
1624163945327659130,14,1624163945327659130,0.008806,0.003593,-0.004844,0.999835,5e-06,0.018056,-0.001889,-0.003483,0.011611,-0.000166,0.014381,0.004679,-0.001219
1624163945427657843,15,1624163945427657843,0.00957,0.002904,-0.005085,0.999836,0.000132,0.017981,-0.001963,0.000272,0.008264,-0.001493,0.013946,0.001904,-0.004129
1624163945527656555,16,1624163945527656555,0.007855,0.002509,-0.004585,0.999834,0.000112,0.018082,-0.001843,-0.004026,0.005305,-0.000225,0.0138,0.00344,-0.002041
1624163945627655029,17,1624163945627655029,0.009222,0.003068,-0.005185,0.999831,0.0,0.01825,-0.002092,-0.000704,0.002525,-0.002177,0.012821,7.6e-05,-0.001111
1624163945727653742,18,1624163945727653742,0.009179,-0.001556,-0.003419,0.999835,-7e-06,0.018038,-0.001995,-0.001847,-0.00697,0.002406,0.014431,-0.000424,-0.003085
1624163945827652454,19,1624163945827652454,0.008649,-0.007017,-0.00431,0.999837,8.8e-05,0.017934,-0.001993,-0.003286,-0.016944,-0.000528,0.011861,-4e-05,-0.001278
1624163945927651167,20,1624163945927651167,0.008923,-0.001,-0.003859,0.999837,0.000139,0.017929,-0.001888,-0.002949,5.8e-05,0.001067,0.013286,0.00497,-0.002082
1624163946027649879,21,1624163946027649879,0.008176,-0.003385,-0.004625,0.999834,8.1e-05,0.018077,-0.001985,-0.004517,-0.00394,-0.000255,0.011893,0.005042,-0.004066
1624163946127648592,22,1624163946127648592,0.007964,0.000348,-0.003291,0.999834,0.0001,0.018088,-0.001987,-0.00312,0.006192,0.001823,0.012963,0.00279,-0.002107
1624163946227647305,23,1624163946227647305,0.008966,-0.002784,-0.002766,0.999833,0.000174,0.018165,-0.001796,-0.000377,-0.000922,0.003229,0.014877,0.002349,-0.002166
1624163946327645779,24,1624163946327645779,0.00924,-0.005247,-0.002943,0.999835,0.000103,0.018027,-0.00177,0.000199,-0.00514,0.002324,0.01298,0.000614,-0.003687
1624163946427644491,25,1624163946427644491,0.008457,-0.005093,-0.003583,0.999835,0.00012,0.018005,-0.001941,-0.002248,-0.003066,0.001774,0.013403,0.000265,-0.001752
1624163946527643204,26,1624163946527643204,0.008407,-0.004845,-0.003117,0.999837,1.5e-05,0.017941,-0.001929,-0.002723,-0.000886,0.00333,0.01512,0.002491,-0.001613
1624163946627641916,27,1624163946627641916,0.008622,-0.000476,-0.002955,0.999836,0.000161,0.017987,-0.001884,-0.002279,0.010088,0.001966,0.013596,0.002959,-0.004337
1624163946727640629,28,1624163946727640629,0.008655,-0.001578,-0.003435,0.999835,0.000339,0.018047,-0.001923,-0.001764,0.005302,0.000151,0.012788,0.003185,-0.001306
1624163946827639341,29,1624163946827639341,0.008054,-0.001613,-0.00451,0.999835,0.000116,0.017995,-0.00206,-0.002652,0.004286,-0.001412,0.01425,0.000495,-0.001708
1624163946927638054,30,1624163946927638054,0.006866,-0.000272,-0.005735,0.999836,6.4e-05,0.01798,-0.001926,-0.004895,0.007431,-0.003763,0.014256,0.00076,-0.004435
1624163947027636528,31,1624163947027636528,0.008405,0.001097,-0.005893,0.999834,0.000119,0.018066,-0.002143,-0.002146,0.008905,-0.00319,0.014075,0.001172,-0.002344
1624163947127635241,32,1624163947127635241,0.009364,0.003175,-0.005432,0.999835,0.000137,0.01801,-0.001978,-0.000106,0.011567,-0.00056,0.013118,0.004036,-0.001094
1624163947227633953,33,1624163947227633953,0.009391,0.005709,-0.004566,0.999835,0.000214,0.018026,-0.002103,-0.000866,0.013188,0.001361,0.011415,0.003436,-0.003706
1624163947327632666,34,1624163947327632666,0.010469,0.007507,-0.00453,0.999834,0.000227,0.018062,-0.002153,0.001532,0.013545,0.000286,0.013511,0.001708,-0.001182
1624163947427631378,35,1624163947427631378,0.010372,0.007156,-0.003129,0.999837,0.000122,0.017909,-0.001986,-0.000201,0.010048,0.003291,0.01433,0.001795,-0.002801
1624163947527630091,36,1624163947527630091,0.010195,0.005219,-0.004668,0.999835,4e-05,0.017993,-0.002105,-0.001458,0.004066,-0.000318,0.014685,0.002497,-0.003707
1624163947627628803,37,1624163947627628803,0.011173,0.001821,-0.002632,0.999834,0.000132,0.018068,-0.001957,0.000282,-0.005998,0.004713,0.013787,0.005575,-0.000413
1624163947727627277,38,1624163947727627277,0.009968,-0.00064,-0.003994,0.999835,7.1e-05,0.018013,-0.001964,-0.002292,-0.01001,-0.000257,0.013958,0.002321,-0.00254
1624163947827625990,39,1624163947827625990,0.007788,-0.000652,-0.004596,0.999836,8.6e-05,0.017959,-0.002051,-0.006696,-0.008696,-0.000187,0.013287,0.000823,-0.003462
1624163947927624702,40,1624163947927624702,0.006463,0.001073,-0.00529,0.999837,4e-06,0.017929,-0.002088,-0.008095,-0.004115,-0.002212,0.014541,0.0006,-0.00067
1624163948027623415,41,1624163948027623415,0.006206,-0.000624,-0.004507,0.999836,-7.2e-05,0.017964,-0.002067,-0.007408,-0.007316,-0.001943,0.013456,0.002345,-0.003365
1624163948127622128,42,1624163948127622128,0.007929,0.000997,-0.004675,0.999836,7.8e-05,0.01797,-0.001945,-0.002583,-0.001995,-0.001244,0.013075,0.002571,-0.002974
1624163948227620840,43,1624163948227620840,0.009389,-0.000793,-0.003831,0.999833,0.000256,0.01813,-0.002031,0.000181,-0.004931,0.000427,0.013056,0.002991,-0.001429
1624163948327619553,44,1624163948327619553,0.007664,-0.001324,-0.0046,0.999834,4.5e-05,0.018085,-0.001948,-0.004005,-0.004993,-0.001486,0.014032,0.00263,-0.004124
1624163948427618027,45,1624163948427618027,0.007352,-0.003927,-0.005045,0.999835,7.8e-05,0.018016,-0.001876,-0.002119,-0.007697,-0.002536,0.014834,0.003088,-0.001707
1624163948527616739,46,1624163948527616739,0.00865,-0.001437,-0.005172,0.999834,4.8e-05,0.018087,-0.001956,0.001014,-0.000826,-0.001827,0.014099,0.002592,-0.001456
1624163948627615452,47,1624163948627615452,0.009691,0.001812,-0.004513,0.999833,5.5e-05,0.018165,-0.001917,0.002891,0.008198,0.000146,0.015059,0.001557,-0.002071
1624163948727614164,48,1624163948727614164,0.009415,-0.000153,-0.004214,0.999832,0.000134,0.018184,-0.001976,0.000746,0.002073,0.001895,0.013721,0.002619,-0.001566
1624163948827612877,49,1624163948827612877,0.008046,-0.006762,-0.003382,0.999833,0.000218,0.018137,-0.001856,-0.00352,-0.012701,0.004298,0.014797,0.002558,-0.002651
1624163948927611589,50,1624163948927611589,0.008648,-0.003249,-0.003159,0.999833,0.000202,0.018118,-0.001965,-0.0011,-0.001396,0.003306,0.012039,0.003218,-0.002428
1624163949027610302,51,1624163949027610302,0.008529,-0.002684,-0.002953,0.999832,0.000187,0.018209,-0.002002,-0.001394,0.000633,0.003634,0.013178,0.002995,-0.001613
1624163949127608776,52,1624163949127608776,0.009343,-0.002195,-0.003126,0.999836,0.00018,0.017999,-0.001928,0.001567,0.003142,0.002905,0.014966,0.003905,-0.001477
1624163949227607489,53,1624163949227607489,0.008107,-0.002464,-0.002313,0.999836,0.000107,0.018002,-0.001905,-0.001435,0.002778,0.00464,0.012249,0.003002,-0.002532
1624163949327606201,54,1624163949327606201,0.009299,-0.001415,-0.004185,0.999837,0.000257,0.017945,-0.001956,0.001081,0.003565,-0.001141,0.013763,0.001388,-0.00134
1624163949427604914,55,1624163949427604914,0.008854,-0.000332,-0.004334,0.999835,8.7e-05,0.018061,-0.001933,-0.002251,0.005745,-0.001732,0.013556,0.002266,-0.003051
1624163949527603626,56,1624163949527603626,0.009578,-0.003047,-0.005612,0.999831,-7.7e-05,0.018249,-0.001984,-5.3e-05,-0.000325,-0.004937,0.014818,0.004241,-0.003013
1624163949627602339,57,1624163949627602339,0.009597,-0.00101,-0.003988,0.999832,8e-06,0.018197,-0.00202,0.000128,0.005788,-0.000359,0.014414,0.00226,-0.001145
1624163949727601051,58,1624163949727601051,0.008984,0.006092,-0.003295,0.999833,0.000143,0.018157,-0.00199,-0.002192,0.021482,0.00176,0.013302,0.000726,-0.002923
1624163949827599525,59,1624163949827599525,0.00949,0.00525,-0.00438,0.999832,3.4e-05,0.018215,-0.00193,-0.001721,0.014512,-0.001312,0.013716,0.003418,-0.004384
1624163949927598238,60,1624163949927598238,0.006875,-0.001429,-0.005077,0.999833,0.000206,0.018165,-0.001953,-0.007907,-0.002832,-0.002195,0.013097,0.003538,-0.000668
1624163950027596951,61,1624163950027596951,0.007821,-0.000195,-0.00447,0.999831,0.000253,0.018236,-0.002058,-0.005165,0.001304,8.3e-05,0.012841,0.00278,-0.004142
1624163950127595663,62,1624163950127595663,0.008162,0.002046,-0.004876,0.999834,0.000218,0.018057,-0.002026,-0.001529,0.00465,-0.001757,0.013005,0.001146,-0.001922
1624163950227594376,63,1624163950227594376,0.008059,0.005708,-0.005394,0.999833,0.000198,0.018141,-0.002068,-0.000749,0.011907,-0.003076,0.013419,0.003259,-0.000391
1624163950327593088,64,1624163950327593088,0.009047,0.002886,-0.005183,0.999832,0.000205,0.018201,-0.002057,0.001056,0.003871,-0.001604,0.013769,0.003693,-0.003619
1624163950427591562,65,1624163950427591562,0.009376,0.002351,-0.004581,0.999831,0.000256,0.018274,-0.001865,0.000357,0.002723,-0.000433,0.012721,0.002548,-0.002731
1624163950527590275,66,1624163950527590275,0.009593,0.001282,-0.005906,0.999827,0.000141,0.018445,-0.002216,-0.000334,-0.001436,-0.003963,0.015567,0.002626,-0.002589
1624163950627588987,67,1624163950627588987,0.009709,-0.002924,-0.004735,0.999834,0.000157,0.018093,-0.002052,-0.000384,-0.009122,-0.000338,0.014817,0.002305,-0.005845
1624163950727587700,68,1624163950727587700,0.01007,-0.000667,-0.003593,0.999831,0.00017,0.018275,-0.001878,0.000563,-0.003351,0.002514,0.011632,0.002444,-0.002665
1624163950827586412,69,1624163950827586412,0.010133,-0.003199,-0.002848,0.999831,0.000106,0.018237,-0.001913,0.000954,-0.008211,0.003869,0.014196,-0.001954,-0.002788
1624163950927585125,70,1624163950927585125,0.009948,-0.000931,-0.002972,0.999835,1.2e-05,0.018037,-0.001874,-0.000255,0.000241,0.003461,0.011962,0.000297,-0.002961
1624163951027583838,71,1624163951027583838,0.009905,0.002857,-0.004783,0.999835,1.9e-05,0.018014,-0.002079,-0.000825,0.008243,-0.001822,0.01186,0.000125,-0.001203
1624163951127582312,72,1624163951127582312,0.010003,-7.5e-05,-0.004317,0.999836,0.000277,0.017998,-0.001814,-0.001312,0.000408,0.000216,0.012665,0.00534,-0.003135
1624163951227581024,73,1624163951227581024,0.008693,0.003597,-0.004589,0.999836,0.000175,0.018004,-0.001893,-0.004662,0.007964,7.5e-05,0.015169,0.003139,-0.002898
1624163951327579737,74,1624163951327579737,0.008712,0.002064,-0.005352,0.999834,0.000135,0.018079,-0.001926,-0.002823,0.003454,-0.000953,0.011127,0.001969,-0.00153
1624163951427578449,75,1624163951427578449,0.008461,0.006704,-0.005593,0.999832,7e-05,0.018199,-0.001999,-0.00202,0.014287,-0.002434,0.014828,0.003934,-0.003573
1624163951527577162,76,1624163951527577162,0.009473,0.007064,-0.004998,0.99983,2e-06,0.018306,-0.002153,0.000265,0.010633,-0.001276,0.014758,0.003104,-0.003318
1624163951627575874,77,1624163951627575874,0.010519,0.002563,-0.003988,0.999834,3.8e-05,0.018082,-0.002135,0.002727,-0.002085,0.001351,0.013445,0.001119,-0.002962
1624163951727574587,78,1624163951727574587,0.010141,0.006855,-0.005933,0.999833,-0.000147,0.01815,-0.0021,0.001164,0.007687,-0.003533,0.015135,-0.000261,-0.003314
1624163951827573061,79,1624163951827573061,0.009398,0.006875,-0.006113,0.999832,8e-06,0.018144,-0.002222,-0.001081,0.004636,-0.002344,0.012963,0.001747,-0.002395
1624163951927571774,80,1624163951927571774,0.010208,0.00519,-0.005441,0.999834,-3.7e-05,0.01804,-0.002203,-0.000303,-0.000981,0.000198,0.012465,0.002668,-0.002916
1624163952027570486,81,1624163952027570486,0.011477,0.009235,-0.004513,0.999832,7.2e-05,0.018176,-0.002147,0.002612,0.008468,0.002376,0.016393,0.002086,-0.00405
1624163952127569199,82,1624163952127569199,0.011009,0.004019,-0.003272,0.99983,0.000126,0.018305,-0.001986,0.000629,-0.004095,0.005415,0.011886,0.00194,-0.004033
1624163952227567911,83,1624163952227567911,0.009926,0.001874,-0.003564,0.999831,0.000251,0.018257,-0.002052,-0.001798,-0.00984,0.003453,0.012936,0.001276,-0.000635
1624163952327566624,84,1624163952327566624,0.009034,0.00075,-0.004694,0.999835,0.000214,0.018027,-0.001937,-0.002986,-0.009629,-0.001125,0.014123,0.002025,-0.001754
1624163952427565336,85,1624163952427565336,0.008943,-0.000266,-0.004992,0.999837,0.000155,0.017925,-0.001935,-0.002381,-0.009731,-0.001612,0.013351,0.002252,-0.002858
1624163952527563810,86,1624163952527563810,0.009524,-0.005208,-0.006775,0.999832,6.6e-05,0.018193,-0.002011,-0.002479,-0.018635,-0.005375,0.013139,0.003247,-0.002911
1624163952627562523,87,1624163952627562523,0.008443,-0.001824,-0.005164,0.999833,5.9e-05,0.018104,-0.002074,-0.004435,-0.006078,-0.000245,0.01336,0.0033,-0.003036
1624163952727561235,88,1624163952727561235,0.008707,0.00014,-0.00545,0.999832,1e-06,0.018162,-0.002044,-0.00295,1.4e-05,-0.002045,0.014406,0.005191,-0.00364
1624163952827559948,89,1624163952827559948,0.0095,0.001503,-0.005213,0.999831,5.4e-05,0.018256,-0.001915,-0.000384,0.004396,-0.0016,0.012539,0.002775,-0.003129
1624163952927558661,90,1624163952927558661,0.010332,0.00395,-0.003595,0.99983,-3.3e-05,0.018278,-0.002036,0.000693,0.008369,0.002462,0.013719,0.000794,-0.002681
1624163953027557373,91,1624163953027557373,0.01027,-0.001217,-0.003375,0.999832,0.000217,0.018221,-0.001882,0.000777,-0.004682,0.002787,0.013305,0.002025,-0.003019
1624163953127556086,92,1624163953127556086,0.008927,-0.001947,-0.002699,0.999831,0.000245,0.018228,-0.001921,-0.003773,-0.005457,0.003355,0.012459,-0.000533,-0.003206
1624163953227554560,93,1624163953227554560,0.00948,-0.004628,-0.003585,0.999833,0.000207,0.018133,-0.001822,-0.001613,-0.010797,0.001645,0.014318,0.000977,-0.002237
1624163953327553272,94,1624163953327553272,0.009798,-0.002299,-0.003767,0.999834,0.000112,0.018071,-0.001964,-0.001378,-0.002318,0.001398,0.011965,0.004723,-0.003477
1624163953427551985,95,1624163953427551985,0.010303,-0.005603,-0.003504,0.999834,4.5e-05,0.018065,-0.001931,0.000301,-0.009801,0.002433,0.01292,0.002363,-0.001618
1624163953527550697,96,1624163953527550697,0.008939,-0.003521,-0.003369,0.999834,5.2e-05,0.018112,-0.001911,-0.003391,-0.00227,0.002041,0.013138,0.004772,-0.001791
1624163953627549410,97,1624163953627549410,0.008742,-0.001922,-0.004107,0.999833,9e-06,0.01817,-0.001859,-0.003037,0.002772,0.000177,0.012944,-1e-06,-0.003311
1624163953727548122,98,1624163953727548122,0.010345,0.002161,-0.004676,0.999834,0.000111,0.018058,-0.002032,3.2e-05,0.011718,-0.001333,0.014446,0.001126,-0.003503
1624163953827546835,99,1624163953827546835,0.008457,-0.000115,-0.003912,0.999836,0.00015,0.017992,-0.00186,-0.004275,0.003793,0.000392,0.013698,0.001652,-0.00046
1624163953927545309,100,1624163953927545309,0.008332,-0.001174,-0.005973,0.999835,0.000199,0.017998,-0.002028,-0.004108,0.001336,-0.004099,0.013003,0.001115,-0.005388
1624163954027544022,101,1624163954027544022,0.008955,0.00072,-0.006111,0.999831,0.000332,0.018211,-0.002057,-0.00256,0.002262,-0.003001,0.011504,0.003983,0.005659
1624163954127542734,102,1624163954127542734,0.00771,0.001825,-0.008108,0.999834,0.000167,0.018078,-0.001851,-0.004255,0.006517,-0.007064,0.011185,0.003897,-0.001239
1624163954227541447,103,1624163954227541447,0.00898,-0.00087,-0.007633,0.999835,5e-05,0.018005,-0.002102,0.001954,-0.000539,-0.006353,0.005669,-0.004567,0.000349
1624163954327540159,104,1624163954327540159,0.007895,-0.002599,-0.006729,0.999834,0.000216,0.018096,-0.001869,-0.00494,-0.006564,0.000967,0.003097,0.005766,0.007806
1624163954427538872,105,1624163954427538872,0.009225,-0.003974,-0.006877,0.999837,-4.2e-05,0.017912,-0.00197,-0.000411,-0.003872,-5.4e-05,0.01148,-0.000147,-0.003533
1624163954527537584,106,1624163954527537584,0.009789,-0.000857,-0.004401,0.999835,3.4e-05,0.018042,-0.002096,0.001094,0.003987,0.004409,0.008167,-0.000564,-0.003152
1624163954627536058,107,1624163954627536058,0.009848,0.000738,-0.004363,0.999832,-8.4e-05,0.018189,-0.002058,0.000179,0.008324,0.004515,0.01357,0.003495,-0.001319
1624163954727534771,108,1624163954727534771,0.010605,0.004771,-0.004495,0.999829,0.000145,0.01834,-0.002134,0.001074,0.016918,0.004313,0.026502,0.007412,-0.008637
1624163954827533484,109,1624163954827533484,0.008807,0.006273,-0.004629,0.999829,-0.000178,0.018344,-0.001952,-0.002764,0.013656,0.002403,0.007305,0.005712,0.004357
1624163954927532196,110,1624163954927532196,0.008466,0.003863,-0.004767,0.999829,2.7e-05,0.018332,-0.002106,-0.003219,0.006333,0.002096,0.044182,0.007016,-0.001396
1624163955027530909,111,1624163955027530909,0.0075,0.015941,-0.006988,0.999828,3.4e-05,0.018381,-0.002464,-0.0057,0.034494,-0.003341,0.038127,0.008362,-0.011349
1624163955127529621,112,1624163955127529621,0.006845,0.015737,-0.006279,0.999827,4.5e-05,0.018453,-0.002038,-0.00854,0.027248,-0.003983,-0.028568,0.004751,-0.012949
1624163955227528334,113,1624163955227528334,0.007792,0.008133,-0.004542,0.999826,-0.000104,0.018513,-0.001942,-0.006438,0.004381,0.005066,-0.019272,0.013741,0.004597
1624163955327526808,114,1624163955327526808,0.007778,0.003497,-0.003682,0.999827,0.0,0.018512,-0.00156,-0.002307,-0.007931,-0.000748,-0.06216,-0.017779,0.001579
1624163955427525520,115,1624163955427525520,0.00911,-0.00983,-0.00239,0.999837,0.000176,0.017997,-0.00078,0.003317,-0.02808,0.001328,-0.102174,-0.018862,-0.004788
1624163955527524233,116,1624163955527524233,0.008969,-0.019069,-0.000509,0.999848,4e-06,0.01737,-0.000777,0.005363,-0.054663,0.007937,0.062033,-0.011532,0.015411
1624163955627522945,117,1624163955627522945,0.010087,-0.007341,-0.004494,0.999832,-0.000346,0.018179,-0.001979,-0.004743,0.000969,0.009115,-0.064352,0.037081,-0.01169
1624163955727521658,118,1624163955727521658,0.009091,-0.019602,-0.003214,0.999824,0.000272,0.01872,-0.001148,-0.00553,-0.040213,5.1e-05,0.068533,-0.003424,0.02034
1624163955827520370,119,1624163955827520370,0.009179,-0.008608,-0.005382,0.999808,0.00028,0.019526,-0.001074,0.001589,-0.001162,-0.004746,0.002045,0.010508,0.009405
1624163955927519083,120,1624163955927519083,0.008504,0.009426,-0.007755,0.999802,-9.7e-05,0.019785,-0.001597,0.011726,0.05082,-0.019182,-0.092805,-0.024884,0.005192
1624163956027517557,121,1624163956027517557,0.009865,0.013219,-0.010039,0.999807,0.000569,0.019538,-0.001918,0.000226,0.032222,-0.024775,-0.022388,-0.037741,-0.006763
1624163956127516270,122,1624163956127516270,0.009764,0.001983,-0.013397,0.999831,0.000397,0.018205,-0.002095,0.024827,0.00951,-0.031051,-0.025353,-0.031335,-0.001141
1624163956227514982,123,1624163956227514982,0.010764,-0.003887,-0.011355,0.999847,0.000222,0.017359,-0.002077,0.009214,-0.007214,-0.013293,-0.001986,-0.006463,0.008706
1624163956327513695,124,1624163956327513695,0.013376,-0.009297,-0.006949,0.999855,4.3e-05,0.016924,-0.001431,0.018867,-0.015729,0.00061,0.023309,-0.004381,0.002276
1624163956427512407,125,1624163956427512407,0.014479,-0.016356,-0.005356,0.999846,0.000365,0.017439,-0.001343,0.023344,-0.01382,-0.001631,-0.028503,0.001948,-0.007246
1624163956527511120,126,1624163956527511120,0.012432,-0.021647,-0.005652,0.999829,0.00031,0.018365,-0.001686,-0.007765,-0.046897,0.011454,0.008925,0.043033,0.020307
1624163956627509832,127,1624163956627509832,0.011289,-0.020522,-0.006682,0.99982,0.000244,0.018891,-0.001567,0.002337,-0.032291,0.000969,0.032109,-0.013554,0.009233
1624163956727508307,128,1624163956727508307,0.008733,-0.012901,-0.009426,0.999812,0.000231,0.01924,-0.002085,-0.004041,0.010458,-0.010836,-0.042217,0.007699,-0.001217
1624163956827507019,129,1624163956827507019,0.007662,-0.006581,-0.013312,0.999808,0.000261,0.01944,-0.002188,-0.012011,0.004475,-0.010267,0.033905,0.009738,0.01556
1624163956927505732,130,1624163956927505732,0.008577,0.003161,-0.013619,0.999815,0.000508,0.019079,-0.001999,0.01104,0.040539,-0.020244,0.010008,-0.025046,-0.002204
1624163957027504444,131,1624163957027504444,0.009609,-0.000911,-0.012291,0.999823,0.000603,0.018663,-0.002224,0.008967,0.027085,-0.010737,-0.020704,-0.018249,0.003583
1624163957127503157,132,1624163957127503157,0.009487,-0.003351,-0.01136,0.999831,0.000187,0.018248,-0.00206,0.001583,-0.005015,0.000963,0.054051,-0.008664,0.018596
1624163957227501869,133,1624163957227501869,0.010752,-0.006609,-0.009167,0.999838,0.000197,0.017861,-0.001926,0.007279,-0.000528,0.004306,-0.009201,-0.006749,-0.002472
1624163957327500582,134,1624163957327500582,0.009911,-0.010648,-0.006521,0.999832,7.2e-05,0.018207,-0.002072,-0.013773,-0.027376,0.020935,-0.007102,0.022731,0.002503
1624163957427499056,135,1624163957427499056,0.008507,-0.013532,-0.004666,0.999835,0.000336,0.018027,-0.001823,-0.008131,-0.037859,0.015694,0.057615,-0.021201,0.008117
1624163957527497768,136,1624163957527497768,0.010342,-0.004382,-0.007044,0.999848,0.000274,0.017275,-0.00213,0.015479,0.005868,-0.003521,0.008641,-0.022435,-0.003408
1624163957627496481,137,1624163957627496481,0.010617,-0.00239,-0.006832,0.999885,0.000404,0.015028,-0.001549,0.016657,0.006426,-0.012804,-0.013782,-0.086535,0.002418
1624163957727495193,138,1624163957727495193,0.01199,-0.01675,-0.006638,0.999923,0.000614,0.012293,-0.000858,0.024243,-0.029113,-0.016784,-0.019191,-0.084098,0.005505
1624163957827493906,139,1624163957827493906,0.015543,-0.038807,-0.008877,0.999962,0.000736,0.008606,0.000328,0.020393,-0.064285,-0.005498,-0.011294,-0.041343,0.008292
1624163957927492619,140,1624163957927492619,0.017293,-0.045534,-0.011242,0.999973,0.000955,0.007237,0.000257,0.00767,-0.052813,0.008919,0.049468,0.003193,0.014757
1624163958027491331,141,1624163958027491331,0.01723,-0.045409,-0.011603,0.99997,0.00104,0.007493,0.000971,0.000269,-0.014021,0.043545,0.012609,0.078967,0.00967
1624163958127489805,142,1624163958127489805,0.018721,-0.033572,-0.004531,0.999944,0.000123,0.010008,0.003147,0.006976,0.059869,0.136206,0.060605,0.065054,0.025856
1624163958227488518,143,1624163958227488518,0.021309,-0.025114,0.022231,0.999924,-0.001403,0.011896,0.002747,0.003499,0.120053,0.290931,0.111774,-0.022968,0.032624
1624163958327487230,144,1624163958327487230,0.018482,-0.012199,0.057165,0.999916,-0.001829,0.012648,-0.001717,-0.018133,0.188764,0.425427,0.084353,-0.00675,-0.008958
1624163958427485943,145,1624163958427485943,0.019576,0.045263,0.103012,0.999855,-0.001857,0.012035,-0.011887,-0.016327,0.29327,0.532579,0.068172,-0.080364,0.005916
1624163958527484655,146,1624163958527484655,0.013211,0.062346,0.16683,0.999855,-0.002331,0.009383,-0.013961,-0.029034,0.287966,0.699825,0.033812,0.02192,-0.019439
1624163958627483368,147,1624163958627483368,0.011851,0.076841,0.250163,0.999845,-0.002017,0.012006,-0.012676,-0.025795,0.272446,0.85948,-0.025941,0.065669,-0.019122
1624163958727482080,148,1624163958727482080,0.005148,0.099505,0.35035,0.999839,-0.001496,0.014149,-0.01091,-0.045204,0.2956,0.997258,0.005897,0.054868,-0.02749
1624163958827480555,149,1624163958827480555,0.001062,0.129007,0.451928,0.999802,-0.00099,0.01582,-0.011989,-0.058983,0.313924,1.095645,0.002258,0.009987,-0.03573
1624163958927479267,150,1624163958927479267,-0.008957,0.169819,0.559536,0.999817,-0.000667,0.016032,-0.010364,-0.083396,0.345065,1.176072,-0.016471,-0.025542,-0.005126
1624163959027477980,151,1624163959027477980,-0.018899,0.214865,0.67671,0.999796,-0.000521,0.017258,-0.010403,-0.110026,0.392633,1.254557,0.012289,0.057977,-0.010024
1624163959127476692,152,1624163959127476692,-0.035978,0.269339,0.800445,0.999629,-0.000978,0.019719,-0.018718,-0.155423,0.449827,1.281225,0.219254,0.008684,0.002524
1624163959227475405,153,1624163959227475405,-0.052819,0.292018,0.926057,0.999546,-0.000373,0.019311,-0.023086,-0.188548,0.389818,1.255387,0.017334,-0.058735,0.011515
1624163959327474117,154,1624163959327474117,-0.074638,0.309052,1.055934,0.999582,-0.00027,0.017606,-0.022897,-0.219443,0.354532,1.242222,0.099197,-0.038544,0.004942
1624163959427472830,155,1624163959427472830,-0.099329,0.328375,1.175453,0.999466,-0.000798,0.009886,-0.031133,-0.254504,0.29497,1.109947,-0.072302,-0.274253,0.009526
1624163959527471304,156,1624163959527471304,-0.124991,0.36407,1.275319,0.999445,-0.000581,-0.010307,-0.031667,-0.255124,0.305822,0.983731,0.085165,-0.419482,0.003435
1624163959627470016,157,1624163959627470016,-0.145386,0.396068,1.367162,0.998982,0.000352,-0.030043,-0.033624,-0.200449,0.298613,0.897255,0.054303,-0.422899,-0.000448
1624163959727468729,158,1624163959727468729,-0.158139,0.425845,1.456232,0.998274,0.000729,-0.048748,-0.032729,-0.110839,0.286302,0.865188,-0.044156,-0.292152,-0.01073
1624163959827467442,159,1624163959827467442,-0.154808,0.463667,1.541707,0.997896,0.002205,-0.057381,-0.030101,0.047657,0.285861,0.894464,0.0694,-0.011967,-0.0014
1624163959927466154,160,1624163959927466154,-0.141399,0.492443,1.627976,0.998039,0.002476,-0.055216,-0.029357,0.183664,0.263698,0.880037,0.023977,0.109183,0.019427
1624163960027464867,161,1624163960027464867,-0.112531,0.512104,1.710775,0.998398,0.001871,-0.049846,-0.026695,0.31189,0.242477,0.845051,-0.072955,0.084222,0.000211
1624163960127463579,162,1624163960127463579,-0.073746,0.544058,1.793432,0.99866,0.000891,-0.043961,-0.027287,0.42778,0.250849,0.828683,-0.020807,0.196439,0.013127
1624163960227462053,163,1624163960227462053,-0.033277,0.572858,1.871088,0.998996,0.001222,-0.036917,-0.025324,0.497353,0.253446,0.786443,0.019582,0.113931,0.000484
1624163960327460766,164,1624163960327460766,0.018903,0.598389,1.944507,0.99908,0.001158,-0.033505,-0.026722,0.56471,0.255643,0.713728,0.062056,0.030682,0.021541
1624163960427459478,165,1624163960427459478,0.074288,0.611474,2.018361,0.998913,0.000806,-0.034661,-0.031145,0.626725,0.21628,0.680239,0.062969,-0.029705,0.020276
1624163960527458191,166,1624163960527458191,0.141336,0.619343,2.081789,0.998724,0.001053,-0.036006,-0.035372,0.710312,0.173029,0.623822,0.020707,-0.005541,0.005457
1624163960627456903,167,1624163960627456903,0.213631,0.625391,2.145166,0.998774,0.001326,-0.033311,-0.036588,0.776381,0.121266,0.554484,-0.00797,0.000664,-0.014985
1624163960727455616,168,1624163960727455616,0.292183,0.625289,2.202179,0.99865,0.001143,-0.036231,-0.037193,0.839546,0.069158,0.500314,-0.028958,-0.088237,0.001753
1624163960827454329,169,1624163960827454329,0.384747,0.644395,2.256177,0.998781,0.001183,-0.037477,-0.032085,0.938897,0.067098,0.521158,-0.143706,0.061878,-0.009588
1624163960927452803,170,1624163960927452803,0.485881,0.64945,2.306461,0.999177,0.001382,-0.028905,-0.028415,1.024102,0.063188,0.451777,-0.053857,0.238517,-0.00787
1624163961027451515,171,1624163961027451515,0.591978,0.65828,2.350799,0.999547,0.000925,-0.011353,-0.027825,1.067615,0.064602,0.310835,0.057343,0.336345,0.013225
1624163961127450228,172,1624163961127450228,0.695736,0.663151,2.372199,0.999487,-0.000228,0.002426,-0.03191,1.064366,0.040409,0.163727,0.002843,0.269681,0.018618
1624163961227448940,173,1624163961227448940,0.800707,0.667426,2.381207,0.999344,-0.002221,0.015219,-0.032767,1.044964,0.006953,0.07533,-0.093077,0.198529,0.055835
1624163961327447653,174,1624163961327447653,0.896731,0.685966,2.383799,0.999258,-0.005159,0.023221,-0.030277,0.993576,0.023387,-0.032254,-0.071304,0.148164,0.058779
1624163961427446365,175,1624163961427446365,0.994114,0.700075,2.377801,0.999271,-0.006015,0.029451,-0.023511,0.951476,0.051891,-0.076463,-0.192579,0.103958,0.00599
1624163961527445078,176,1624163961527445078,1.091645,0.694838,2.36464,0.9992,-0.007407,0.033598,-0.020346,0.901287,0.033698,-0.140781,-0.034305,-0.007783,0.03455
1624163961627443552,177,1624163961627443552,1.180417,0.681492,2.350443,0.999296,-0.007864,0.032041,-0.017825,0.847724,0.013308,-0.020765,0.00628,0.002763,0.004657
1624163961727442265,178,1624163961727442265,1.263859,0.672894,2.359553,0.999344,-0.0086,0.030394,-0.017703,0.786692,0.005307,0.171157,0.02847,-0.148724,0.019782
1624163961827440977,179,1624163961827440977,1.341333,0.674683,2.380309,0.999415,-0.009159,0.023363,-0.023234,0.741153,0.027274,0.2978,0.081173,-0.136074,-0.024761
1624163961927439690,180,1624163961927439690,1.415054,0.681614,2.410099,0.999527,-0.008907,0.014671,-0.025508,0.725092,0.038371,0.366791,0.1614,-0.116863,0.015138
1624163962027438402,181,1624163962027438402,1.486867,0.702308,2.44615,0.999497,-0.007938,0.008401,-0.029501,0.718752,0.072468,0.371317,0.115428,-0.128913,-0.020491
1624163962127437115,182,1624163962127437115,1.561922,0.713486,2.491005,0.999376,-0.006584,0.002092,-0.034633,0.734908,0.070835,0.478501,0.014598,-0.101094,-0.040515
1624163962227435827,183,1624163962227435827,1.635017,0.714625,2.546458,0.999451,-0.005715,-0.000433,-0.032625,0.759293,0.027968,0.621481,0.049125,0.006189,-0.012011
1624163962327434301,184,1624163962327434301,1.714797,0.726122,2.611945,0.999416,-0.006019,0.006629,-0.032957,0.793919,0.002583,0.80516,0.054312,0.319428,0.016232
1624163962427433014,185,1624163962427433014,1.788036,0.725178,2.702157,0.999239,-0.007518,0.025573,-0.028455,0.759212,-0.019527,0.952418,-0.098025,0.462389,0.014368
1624163962527431726,186,1624163962527431726,1.860464,0.721239,2.7922,0.998851,-0.009032,0.042053,-0.021128,0.685466,-0.009571,0.955216,-0.103129,0.196176,0.003616
1624163962627430439,187,1624163962627430439,1.921851,0.711197,2.890853,0.99861,-0.009135,0.04788,-0.02003,0.582389,0.002723,1.050265,-0.009747,0.059198,0.006845
1624163962727429152,188,1624163962727429152,1.978991,0.708985,2.989858,0.998666,-0.008215,0.04243,-0.028238,0.505665,0.011027,1.046073,0.165408,-0.26306,0.029321
1624163962827427864,189,1624163962827427864,2.022634,0.724119,3.097584,0.99903,-0.007404,0.02826,-0.032942,0.447941,0.036892,1.056571,0.053432,-0.324866,0.024908
1624163962927426577,190,1624163962927426577,2.070218,0.737516,3.205651,0.999517,-0.007729,0.008898,-0.028723,0.433998,0.057228,1.092674,-0.183518,-0.372905,0.00745
1624163963027425051,191,1624163963027425051,2.120985,0.734104,3.317564,0.99967,-0.007581,-0.006721,-0.02359,0.48326,0.055128,1.22815,-0.07156,-0.191885,0.026562
1624163963127423763,192,1624163963127423763,2.177458,0.736337,3.452282,0.999573,-0.007734,-0.014279,-0.024261,0.548335,0.059115,1.367268,0.111724,-0.096327,0.017706
1624163963227422476,193,1624163963227422476,2.237159,0.736759,3.591912,0.999456,-0.007279,-0.016799,-0.027412,0.612719,0.061603,1.401401,0.088115,-0.029029,-0.012095
1624163963327421188,194,1624163963327421188,2.300915,0.732418,3.736609,0.999294,-0.007531,-0.014949,-0.033624,0.672223,0.035647,1.427166,0.095823,0.036588,0.016293
1624163963427419901,195,1624163963427419901,2.367895,0.738961,3.875677,0.999202,-0.00807,-0.009925,-0.037817,0.716522,0.015667,1.453816,-0.012838,0.095429,-0.004901
1624163963527418613,196,1624163963527418613,2.437584,0.740195,4.026396,0.999139,-0.00795,-0.003848,-0.040517,0.734226,-0.005645,1.505459,-0.026601,0.101878,0.016745
1624163963627417326,197,1624163963627417326,2.507191,0.739103,4.171722,0.999245,-0.00756,0.001029,-0.038074,0.734344,-0.022721,1.515099,-0.032946,0.07696,-0.018609
1624163963727415800,198,1624163963727415800,2.580836,0.738131,4.320369,0.999333,-0.007214,0.003855,-0.035572,0.742159,-0.041924,1.521785,-0.095129,0.08732,0.00706
1624163963827414513,199,1624163963827414513,2.654144,0.744966,4.466755,0.999405,-0.00727,0.007188,-0.03293,0.748371,-0.01965,1.527118,0.001698,0.085355,0.001811
1624163963927413225,200,1624163963927413225,2.729586,0.743673,4.616327,0.999327,-0.007465,0.010061,-0.034447,0.740419,-0.033713,1.519163,0.029099,0.018458,0.015329
1624163964027411938,201,1624163964027411938,2.802479,0.735998,4.765307,0.999314,-0.008091,0.011216,-0.034336,0.72734,-0.056988,1.49128,0.002206,-0.002014,0.012991
1624163964127410650,202,1624163964127410650,2.883395,0.708291,4.914974,0.999208,-0.008203,0.015567,-0.035681,0.739423,-0.121807,1.550969,-0.073344,0.218023,-0.014089
1624163964227409363,203,1624163964227409363,2.961704,0.694738,5.070894,0.998798,-0.008326,0.030317,-0.037601,0.719959,-0.146763,1.586274,0.069724,0.353047,0.011399
1624163964327407837,204,1624163964327407837,3.025796,0.690785,5.225079,0.99831,-0.008954,0.043376,-0.037607,0.644304,-0.142827,1.452422,-0.003434,0.151856,0.018214
1624163964427406549,205,1624163964427406549,3.085838,0.679958,5.363693,0.998148,-0.009307,0.04722,-0.037179,0.568783,-0.152364,1.365732,-0.010214,0.07692,0.026207
1624163964527405262,206,1624163964527405262,3.139231,0.669065,5.49489,0.998095,-0.010018,0.050378,-0.034149,0.486661,-0.147843,1.288758,-0.10383,0.025907,0.010381
1624163964627403975,207,1624163964627403975,3.1871,0.654389,5.611425,0.998238,-0.010367,0.047892,-0.033455,0.411069,-0.149121,1.126669,0.034005,-0.141461,0.011382
1624163964727402687,208,1624163964727402687,3.227595,0.63748,5.723287,0.99871,-0.010009,0.037212,-0.033058,0.345331,-0.174133,1.059829,-0.000453,-0.202929,0.028331
1624163964827401400,209,1624163964827401400,3.260587,0.623522,5.830863,0.999012,-0.009054,0.02942,-0.032042,0.301882,-0.183274,1.091431,0.01787,-0.088292,0.023969
1624163964927400112,210,1624163964927400112,3.289584,0.618958,5.938374,0.999028,-0.009655,0.029071,-0.031672,0.27722,-0.165208,1.178805,-0.032618,0.147132,0.000911
1624163965027398586,211,1624163965027398586,3.314716,0.608791,6.046149,0.998505,-0.010624,0.042834,-0.032247,0.225106,-0.16217,1.215342,0.059208,0.345529,0.01147
1624163965127397299,212,1624163965127397299,3.336582,0.580669,6.166351,0.997351,-0.01095,0.063937,-0.032906,0.142274,-0.204535,1.277314,0.015175,0.519938,-0.015537
1624163965227396011,213,1624163965227396011,3.343609,0.564913,6.294823,0.995308,-0.012082,0.090888,-0.030879,-0.008289,-0.199264,1.254791,-0.124423,0.421141,-0.031162
1624163965327394724,214,1624163965327394724,3.331662,0.534665,6.408488,0.994912,-0.012218,0.09566,-0.029145,-0.196127,-0.208627,1.023612,0.007791,-0.341532,-0.001604
1624163965427393436,215,1624163965427393436,3.302686,0.51547,6.509596,0.996905,-0.010853,0.07269,-0.027883,-0.353611,-0.204241,0.981982,-0.026846,-0.54773,-0.017063
1624163965527392149,216,1624163965527392149,3.261121,0.494891,6.59692,0.998866,-0.010337,0.036929,-0.028209,-0.473895,-0.205762,0.913336,-0.014757,-0.778659,0.009044
1624163965627390862,217,1624163965627390862,3.218699,0.461077,6.701238,0.99965,-0.008486,0.001677,-0.024968,-0.466103,-0.242636,1.041875,-0.069563,-0.564933,0.002243
1624163965727389336,218,1624163965727389336,3.180138,0.429216,6.80721,0.999447,-0.006812,-0.019979,-0.025678,-0.385596,-0.269089,1.14444,-0.015535,-0.270482,-0.005102
1624163965827388048,219,1624163965827388048,3.148961,0.402378,6.929116,0.999308,-0.006253,-0.030765,-0.019916,-0.27752,-0.269416,1.25093,-0.071072,-0.07931,-0.007614
1624163965927386761,220,1624163965927386761,3.127887,0.375749,7.061059,0.999404,-0.006807,-0.029068,-0.017301,-0.158603,-0.259804,1.351156,0.054442,0.084959,0.037324
1624163966027385473,221,1624163966027385473,3.121244,0.353766,7.202114,0.99951,-0.008402,-0.023212,-0.019241,-0.052676,-0.245728,1.389299,0.0064,0.113351,0.0285
1624163966127384186,222,1624163966127384186,3.119768,0.33118,7.34185,0.999484,-0.010329,-0.017534,-0.024814,0.018621,-0.229566,1.359171,0.148929,0.09328,0.044
1624163966227382898,223,1624163966227382898,3.119593,0.324281,7.474979,0.999338,-0.011282,-0.010929,-0.032806,0.076559,-0.200365,1.340809,0.139914,0.121505,0.00089
1624163966327381611,224,1624163966327381611,3.127967,0.302691,7.600808,0.999154,-0.011912,-0.001453,-0.039326,0.118932,-0.224055,1.304534,0.096192,0.169391,0.005451
1624163966427380085,225,1624163966427380085,3.138751,0.282265,7.729336,0.999088,-0.01179,0.006639,-0.040485,0.137029,-0.258967,1.281105,-0.040345,0.156076,0.00248
1624163966527378798,226,1624163966527378798,3.152473,0.249827,7.857175,0.99911,-0.011769,0.014411,-0.037851,0.144268,-0.299378,1.261129,-0.055216,0.154868,-0.019642
1624163966627377510,227,1624163966627377510,3.171594,0.21705,7.97873,0.999179,-0.011485,0.02048,-0.032984,0.152703,-0.335819,1.200325,-0.148138,0.130573,0.000186
1624163966727376223,228,1624163966727376223,3.186537,0.174723,8.089427,0.999177,-0.011818,0.02736,-0.02751,0.140701,-0.377927,1.175449,-0.161569,0.125575,-0.000247
1624163966827374935,229,1624163966827374935,3.203429,0.138074,8.205634,0.99913,-0.012473,0.033283,-0.021794,0.117424,-0.366941,1.149422,-0.076249,0.089744,0.011316
1624163966927373648,230,1624163966927373648,3.21524,0.104664,8.320676,0.999065,-0.012648,0.036578,-0.01926,0.077627,-0.356936,1.127732,-0.025754,0.040137,-0.002347
1624163967027372360,231,1624163967027372360,3.22534,0.068426,8.429277,0.999095,-0.012478,0.036056,-0.018797,0.03625,-0.36027,1.07651,0.014805,-0.073868,0.016948
1624163967127370834,232,1624163967127370834,3.227914,0.029092,8.536494,0.999251,-0.012516,0.031682,-0.01831,-0.004913,-0.360317,1.082315,-0.012244,-0.091403,0.016795
1624163967227369547,233,1624163967227369547,3.228454,-0.013579,8.647721,0.999461,-0.012899,0.026514,-0.014415,-0.035057,-0.373457,1.094441,-0.146449,-0.085686,0.000275
1624163967327368259,234,1624163967327368259,3.228905,-0.046941,8.763777,0.999583,-0.012952,0.024072,-0.009256,-0.04881,-0.337204,1.132723,-0.032494,-0.049273,0.006081
1624163967427366972,235,1624163967427366972,3.227567,-0.081638,8.874375,0.999619,-0.013257,0.022444,-0.009035,-0.063194,-0.302542,1.138147,0.063293,-0.016566,0.029157
1624163967527365685,236,1624163967527365685,3.220469,-0.108252,8.988068,0.999633,-0.01315,0.021759,-0.00925,-0.082641,-0.269229,1.129334,0.034853,-0.014054,-0.010227
1624163967627364397,237,1624163967627364397,3.213236,-0.127194,9.102551,0.999655,-0.013305,0.019035,-0.012253,-0.102371,-0.2293,1.097458,0.033123,-0.056273,0.005481
1624163967727363110,238,1624163967727363110,3.20569,-0.159947,9.212385,0.999676,-0.012865,0.016775,-0.014172,-0.108956,-0.227053,1.072201,0.045416,-0.047268,-0.011009
1624163967827361584,239,1624163967827361584,3.195373,-0.183623,9.317487,0.999678,-0.012324,0.015082,-0.016218,-0.120869,-0.210028,1.058103,0.121345,-0.056625,-0.01335
1624163967927360296,240,1624163967927360296,3.190014,-0.203699,9.420417,0.999671,-0.012084,0.011978,-0.019151,-0.110512,-0.206094,1.028034,0.001116,-0.052893,0.008991
1624163968027359009,241,1624163968027359009,3.176626,-0.216615,9.520952,0.999658,-0.012118,0.013022,-0.01912,-0.121119,-0.175177,1.020869,0.024005,-0.033374,0.000461
1624163968127357721,242,1624163968127357721,3.16481,-0.231677,9.624638,0.99963,-0.012341,0.01326,-0.020245,-0.128992,-0.162079,1.014746,-0.049145,-0.027225,-0.029571
1624163968227356434,243,1624163968227356434,3.152914,-0.258315,9.726574,0.999603,-0.012078,0.012441,-0.022168,-0.13202,-0.184767,0.98818,0.057432,-0.029556,-0.006486
1624163968327355146,244,1624163968327355146,3.141427,-0.285767,9.819203,0.999576,-0.012627,0.012282,-0.023158,-0.140197,-0.213053,0.906416,-0.019657,-0.040416,0.01829
1624163968427353859,245,1624163968427353859,3.13064,-0.31036,9.908224,0.999644,-0.012735,0.012755,-0.019625,-0.130614,-0.214666,0.912446,-0.059019,0.011009,-0.020724
1624163968527352333,246,1624163968527352333,3.124347,-0.337206,9.99629,0.99967,-0.013104,0.014194,-0.016919,-0.120178,-0.217317,0.910781,-0.018107,-0.004853,-0.009004
1624163968627351046,247,1624163968627351046,3.11449,-0.354882,10.08159,0.999701,-0.012709,0.012328,-0.016818,-0.119842,-0.200711,0.778677,0.018691,-0.035897,0.006283
1624163968727349758,248,1624163968727349758,3.102863,-0.370105,10.16676,0.999719,-0.0123,0.012693,-0.015787,-0.121355,-0.180234,0.868081,-0.01916,0.03976,-0.00424
1624163968827348471,249,1624163968827348471,3.091491,-0.382217,10.257868,0.999702,-0.013155,0.013637,-0.015374,-0.121429,-0.164512,0.949791,0.072474,0.001334,0.050694
1624163968927347183,250,1624163968927347183,3.079309,-0.394041,10.353904,0.999654,-0.014855,0.012718,-0.017549,-0.123089,-0.1482,0.942918,0.004308,-0.017856,0.019794
1624163969027345896,251,1624163969027345896,3.06638,-0.404229,10.441978,0.999626,-0.015999,0.012966,-0.01794,-0.129729,-0.131136,0.912101,0.01973,-0.006816,0.012819
1624163969127344608,252,1624163969127344608,3.055539,-0.421724,10.530036,0.999519,-0.017588,0.014646,-0.020882,-0.130007,-0.155932,0.889163,-0.022041,0.048398,0.042623
1624163969227343082,253,1624163969227343082,3.044792,-0.43232,10.616573,0.999463,-0.019208,0.015892,-0.021264,-0.139746,-0.132547,0.802857,-0.019463,-0.017855,0.0093
1624163969327341795,254,1624163969327341795,3.032551,-0.45318,10.700744,0.999463,-0.019222,0.017977,-0.01948,-0.151085,-0.150202,0.798019,-0.033658,0.059436,-0.003613
1624163969427340508,255,1624163969427340508,3.013434,-0.474622,10.790939,0.99939,-0.020109,0.022521,-0.017536,-0.187783,-0.172143,0.874812,-0.070222,0.047871,0.030808
1624163969527339220,256,1624163969527339220,2.991166,-0.478994,10.872291,0.999421,-0.020386,0.021509,-0.016697,-0.223357,-0.128349,0.738048,-0.035557,-0.040251,-0.009906
1624163969627337933,257,1624163969627337933,2.967538,-0.489184,10.943773,0.999495,-0.02026,0.018993,-0.015425,-0.251666,-0.119572,0.723818,-0.01198,-0.062679,-0.006607
1624163969727336645,258,1624163969727336645,2.949524,-0.495381,11.020829,0.999479,-0.020401,0.019395,-0.015762,-0.255047,-0.114885,0.871412,-0.046742,0.088488,0.010501
1624163969827335358,259,1624163969827335358,2.926923,-0.506876,11.107753,0.999492,-0.020423,0.021241,-0.012098,-0.271856,-0.108764,0.904442,-0.03282,0.037284,0.013587
1624163969927333832,260,1624163969927333832,2.901387,-0.520531,11.188331,0.999526,-0.020337,0.019514,-0.012347,-0.296204,-0.100456,0.791716,0.033,-0.086991,0.012809
1624163970027332544,261,1624163970027332544,2.872519,-0.534161,11.273185,0.999609,-0.019895,0.016012,-0.011348,-0.315023,-0.101584,0.842702,-0.031679,-0.036262,0.00322
1624163970127331257,262,1624163970127331257,2.841452,-0.542185,11.361419,0.999665,-0.019617,0.012879,-0.010869,-0.325841,-0.086584,0.89224,0.027892,-0.061209,0.015926
1624163970227329969,263,1624163970227329969,2.80697,-0.542818,11.445058,0.999707,-0.020099,0.008741,-0.010193,-0.33464,-0.064038,0.781725,-0.015461,-0.064751,0.013971
1624163970327328682,264,1624163970327328682,2.774153,-0.547737,11.514322,0.999668,-0.020451,0.009323,-0.012533,-0.331318,-0.046886,0.744953,0.059091,-0.00212,0.009792
1624163970427327394,265,1624163970427327394,2.739075,-0.552012,11.581841,0.999574,-0.021558,0.011751,-0.015754,-0.340602,-0.048529,0.692832,0.079726,0.008885,0.031091
1624163970527326107,266,1624163970527326107,2.705437,-0.550537,11.644623,0.999523,-0.021648,0.012345,-0.018236,-0.355933,-0.027436,0.69687,0.075249,-0.018576,-0.008309
1624163970627324581,267,1624163970627324581,2.669655,-0.550394,11.704303,0.999544,-0.020879,0.010123,-0.019294,-0.368685,-0.022694,0.638801,-0.019352,-0.045289,-0.021636
1624163970727323294,268,1624163970727323294,2.632334,-0.551213,11.772415,0.999634,-0.020175,0.006733,-0.016701,-0.377127,-0.022951,0.661598,0.007885,-0.109763,-0.007662
1624163970827322006,269,1624163970827322006,2.598626,-0.561468,11.845804,0.999715,-0.020212,0.00178,-0.012558,-0.359088,-0.047658,0.767334,-0.179535,-0.134599,-0.002537
1624163970927320719,270,1624163970927320719,2.566105,-0.558224,11.924477,0.999776,-0.019754,-0.000256,-0.007525,-0.329547,-0.014788,0.863247,-0.092836,-0.027115,-0.002014
1624163971027319431,271,1624163971027319431,2.538251,-0.555154,12.014454,0.999806,-0.019218,-0.000145,-0.004215,-0.29128,0.014174,0.941292,-0.036995,0.025894,0.007177
1624163971127318144,272,1624163971127318144,2.51115,-0.555936,12.112788,0.999788,-0.019654,-0.000247,-0.006122,-0.262536,0.014381,0.94767,0.079955,0.014531,0.062805
1624163971227316856,273,1624163971227316856,2.48662,-0.560468,12.197932,0.999702,-0.022752,0.000168,-0.008786,-0.231511,0.02631,0.913753,0.044311,0.027184,0.026966
1624163971327315331,274,1624163971327315331,2.461639,-0.555024,12.279378,0.999666,-0.023083,-0.001129,-0.011478,-0.224288,0.051824,0.837321,0.125289,-0.213189,-0.008315
1624163971427314043,275,1624163971427314043,2.440705,-0.547493,12.358964,0.999465,-0.021581,-0.015261,-0.01923,-0.175531,0.050992,0.790717,0.092962,-0.240544,-0.010267
1624163971527312756,276,1624163971527312756,2.434427,-0.547165,12.431223,0.99925,-0.019736,-0.024299,-0.022788,-0.080161,0.033798,0.735797,0.037182,-0.177602,-0.041769
1624163971627311468,277,1624163971627311468,2.435756,-0.552515,12.508212,0.999039,-0.016928,-0.032981,-0.023377,0.01883,-0.018241,0.676117,-0.030224,-0.209611,-0.034273
1624163971727310181,278,1624163971727310181,2.448512,-0.556456,12.582924,0.998978,-0.015914,-0.03536,-0.023193,0.146961,-0.044624,0.640219,-0.031696,0.030527,-0.010272
1624163971827308893,279,1624163971827308893,2.473217,-0.573012,12.649113,0.99918,-0.015333,-0.030449,-0.021822,0.269989,-0.089304,0.591421,-0.032649,0.13964,-0.011505
1624163971927307606,280,1624163971927307606,2.50085,-0.57794,12.699912,0.999495,-0.014952,-0.020417,-0.019176,0.350975,-0.101602,0.513665,-0.048131,0.208046,0.00629
1624163972027306080,281,1624163972027306080,2.538929,-0.57912,12.739955,0.999754,-0.016006,-0.007128,-0.013588,0.416664,-0.09695,0.367532,-0.195034,0.191345,0.030179
1624163972127304792,282,1624163972127304792,2.584543,-0.586627,12.774079,0.999751,-0.020709,0.00148,-0.008092,0.470285,-0.103574,0.202606,-0.005813,0.141239,0.107494
1624163972227303505,283,1624163972227303505,2.632686,-0.593731,12.781719,0.999549,-0.028448,0.008048,-0.005178,0.502313,-0.104832,0.054181,0.025513,0.068941,0.185653
1624163972327302217,284,1624163972327302217,2.681224,-0.596655,12.779665,0.999056,-0.041522,0.01114,-0.006102,0.522034,-0.128462,-0.103644,0.047952,0.07933,0.378868
1624163972427300930,285,1624163972427300930,2.734697,-0.605585,12.764273,0.997888,-0.062441,0.016595,-0.006665,0.541503,-0.132083,-0.229433,0.025424,0.12137,0.459889
1624163972527299643,286,1624163972527299643,2.7938,-0.619912,12.740754,0.995982,-0.085896,0.022764,-0.011023,0.560368,-0.133501,-0.297509,0.036454,0.155925,0.492855
1624163972627298355,287,1624163972627298355,2.85174,-0.635311,12.714715,0.993148,-0.111448,0.032038,-0.014481,0.559573,-0.151794,-0.343242,0.115267,0.206494,0.560569
1624163972727296829,288,1624163972727296829,2.912956,-0.659146,12.673793,0.989169,-0.139905,0.040484,-0.018197,0.548524,-0.184517,-0.412103,0.048519,0.181531,0.586856
1624163972827295542,289,1624163972827295542,2.967479,-0.675617,12.631673,0.984087,-0.169368,0.05006,-0.019469,0.504069,-0.174575,-0.427724,-0.034753,0.184736,0.587156
1624163972927294254,290,1624163972927294254,3.020718,-0.701033,12.581598,0.978354,-0.198948,0.053907,-0.018309,0.448428,-0.201763,-0.449618,-0.067758,0.135135,0.623747
1624163973027292967,291,1624163973027292967,3.06131,-0.707722,12.538862,0.971637,-0.229047,0.056443,-0.016493,0.382324,-0.145995,-0.446885,-0.009834,-0.010091,0.602386
1624163973127291679,292,1624163973127291679,3.096309,-0.709684,12.502754,0.964838,-0.255947,0.057316,-0.017115,0.31521,-0.077438,-0.32821,-0.107097,0.037295,0.510638
1624163973227290392,293,1624163973227290392,3.13121,-0.712963,12.489173,0.958796,-0.277827,0.058014,-0.01251,0.265462,-0.021507,-0.151959,-0.071365,0.050545,0.422134
1624163973327289104,294,1624163973327289104,3.156645,-0.713854,12.478164,0.953455,-0.29647,0.053864,-0.011207,0.204003,0.03185,0.014364,-0.004502,-0.105758,0.367985
1624163973427287579,295,1624163973427287579,3.176329,-0.70685,12.481963,0.949414,-0.310009,0.047905,-0.014552,0.160923,0.101163,0.217061,0.01641,-0.178383,0.253373
1624163973527286291,296,1624163973527286291,3.186434,-0.692129,12.518273,0.946365,-0.320026,0.038802,-0.021671,0.109805,0.135101,0.481697,0.011549,-0.174655,0.193725
1624163973627285004,297,1624163973627285004,3.198212,-0.670812,12.570415,0.944121,-0.327224,0.029864,-0.025813,0.091308,0.151049,0.717915,-0.000849,-0.213947,0.152137
1624163973727283716,298,1624163973727283716,3.207177,-0.650271,12.647553,0.942215,-0.332998,0.021123,-0.029926,0.083161,0.137038,0.963369,-0.01573,-0.163984,0.122415
1624163973827282429,299,1624163973827282429,3.218094,-0.636517,12.7598,0.940779,-0.337257,0.012191,-0.03229,0.102057,0.097764,1.242989,-0.076443,-0.12206,0.081524
1624163973927281141,300,1624163973927281141,3.228827,-0.623357,12.899173,0.939778,-0.339926,0.007726,-0.034736,0.126742,0.056381,1.533522,0.020604,-0.110624,0.042615
1624163974027279854,301,1624163974027279854,3.240241,-0.621798,13.063427,0.939288,-0.341115,0.007884,-0.036255,0.152517,-0.013048,1.778361,0.103379,0.072522,0.018367
1624163974127278328,302,1624163974127278328,3.260051,-0.618477,13.246857,0.938974,-0.34214,0.015286,-0.032125,0.181385,-0.052315,1.916528,0.022398,0.204676,0.007782
1624163974227277040,303,1624163974227277040,3.281937,-0.618766,13.430559,0.938534,-0.34345,0.021855,-0.02677,0.178337,-0.064294,1.930769,-0.025275,0.102695,0.02109
1624163974327275753,304,1624163974327275753,3.299708,-0.621599,13.617001,0.938021,-0.345166,0.020893,-0.023202,0.162718,-0.068109,1.843452,-0.118891,-0.028733,0.049704
1624163974427274466,305,1624163974427274466,3.315175,-0.620501,13.793183,0.936954,-0.348312,0.018474,-0.0213,0.161675,-0.053188,1.773038,-0.062408,-0.075381,0.068392
1624163974527273178,306,1624163974527273178,3.330247,-0.618534,13.959585,0.935961,-0.35108,0.014024,-0.022865,0.161341,-0.047001,1.677735,0.025213,-0.136788,0.05623
1624163974627271891,307,1624163974627271891,3.351825,-0.624137,14.117102,0.934762,-0.354188,0.007786,-0.026626,0.181687,-0.064362,1.441293,0.02242,-0.168699,0.06998
1624163974727270603,308,1624163974727270603,3.369589,-0.62697,14.261284,0.933611,-0.357092,0.004061,-0.028954,0.200474,-0.083797,1.303449,0.017148,-0.042566,0.055674
1624163974827269077,309,1624163974827269077,3.391414,-0.635023,14.399237,0.932817,-0.359385,0.00363,-0.026083,0.222933,-0.121182,1.467023,-0.054534,0.051193,0.042844
1624163974927267790,310,1624163974927267790,3.41503,-0.643515,14.55206,0.931531,-0.362522,0.006804,-0.027939,0.238512,-0.146428,1.60917,0.019347,0.002924,0.071311
1624163975027266502,311,1624163975027266502,3.442028,-0.65129,14.70994,0.930101,-0.366185,0.006775,-0.027817,0.239915,-0.169649,1.590816,0.025563,-0.007459,0.09034
1624163975127265215,312,1624163975127265215,3.469235,-0.661608,14.857437,0.928342,-0.370528,0.001585,-0.029791,0.243958,-0.174511,1.428672,0.075802,-0.229906,0.128729
1624163975227263927,313,1624163975227263927,3.501932,-0.670703,14.995181,0.926587,-0.37422,-0.011338,-0.035577,0.278736,-0.178795,1.234501,-0.06556,-0.298474,0.076739
1624163975327262640,314,1624163975327262640,3.537506,-0.693409,15.122349,0.925332,-0.376557,-0.023475,-0.037601,0.340618,-0.230766,1.132068,-0.022215,-0.218731,0.045862
1624163975427261353,315,1624163975427261353,3.580198,-0.715637,15.231062,0.924204,-0.378874,-0.028329,-0.038706,0.419562,-0.299099,1.073575,0.018883,0.020392,0.056601
1624163975527259827,316,1624163975527259827,3.623418,-0.741494,15.338166,0.923797,-0.380681,-0.023677,-0.03345,0.478238,-0.355695,1.067588,-0.188458,0.263597,0.00863
1624163975627258539,317,1624163975627258539,3.678037,-0.775089,15.439067,0.924518,-0.380456,-0.012107,-0.019299,0.543081,-0.370674,1.008421,-0.11267,0.334307,-0.023913
1624163975727257252,318,1624163975727257252,3.738496,-0.812007,15.53277,0.925093,-0.379586,8.2e-05,-0.010819,0.579831,-0.3619,0.891587,0.071092,0.287864,-0.002514
1624163975827255964,319,1624163975827255964,3.799396,-0.844632,15.619794,0.924987,-0.379633,0.012908,-0.0105,0.59012,-0.346317,0.774428,0.049822,0.232108,0.002624
1624163975927254677,320,1624163975927254677,3.863192,-0.87183,15.685033,0.924584,-0.380226,0.023108,-0.006028,0.581219,-0.309013,0.633464,0.054783,0.132111,0.04205
1624163976027253389,321,1624163976027253389,3.915152,-0.897861,15.744138,0.920379,-0.389908,0.029182,-0.004619,0.479663,-0.334599,0.524614,-0.017889,0.091441,0.36769
1624163976127252102,322,1624163976127252102,3.964133,-0.924841,15.793325,0.910846,-0.411554,0.031184,-0.003015,0.418072,-0.301226,0.435342,-0.074146,0.018388,0.533413
1624163976227250576,323,1624163976227250576,4.010069,-0.949474,15.833617,0.898141,-0.438541,0.0316,-0.004914,0.372026,-0.264486,0.400616,0.014753,-0.034689,0.647645
1624163976327249289,324,1624163976327249289,4.051254,-0.97576,15.873202,0.882133,-0.46985,0.032215,-0.006571,0.307516,-0.24456,0.422671,-0.015214,0.029831,0.77201
1624163976427248001,325,1624163976427248001,4.088115,-0.99005,15.918437,0.86321,-0.503667,0.033974,-0.005725,0.274879,-0.169447,0.416316,0.00795,0.043339,0.80033
1624163976527246714,326,1624163976527246714,4.112418,-0.995017,15.960475,0.84255,-0.537472,0.034513,-0.006408,0.215284,-0.08108,0.38682,-0.018313,-0.009099,0.773781
1624163976627245426,327,1624163976627245426,4.131177,-0.985025,16.003574,0.822953,-0.56726,0.029991,-0.007988,0.194395,0.029308,0.376121,-0.036644,-0.075707,0.628685
1624163976727244139,328,1624163976727244139,4.150207,-0.974565,16.046882,0.804605,-0.593126,0.02588,-0.011874,0.155617,0.093211,0.388675,-0.001345,-0.155437,0.601113
1624163976827242851,329,1624163976827242851,4.16966,-0.958446,16.078153,0.790102,-0.612376,0.016527,-0.021436,0.205488,0.155591,0.327602,0.118761,-0.318517,0.357281
1624163976927241325,330,1624163976927241325,4.194963,-0.93195,16.113171,0.784292,-0.619341,0.005207,-0.035707,0.249018,0.18846,0.296478,-0.009037,-0.352173,0.079265
1624163977027240038,331,1624163977027240038,4.219454,-0.912822,16.143231,0.783015,-0.620086,-0.008789,-0.04799,0.230748,0.155283,0.284156,0.042158,-0.411006,0.031388
1624163977127238750,332,1624163977127238750,4.242793,-0.897489,16.170875,0.783164,-0.618749,-0.022197,-0.057535,0.211638,0.082566,0.282439,-0.080412,-0.342243,-0.017473
1624163977227237463,333,1624163977227237463,4.264949,-0.888144,16.194926,0.783864,-0.616644,-0.034418,-0.064201,0.201107,-0.023845,0.275399,-0.021831,-0.228014,-0.016004
1624163977327236176,334,1624163977327236176,4.289667,-0.889874,16.230483,0.784334,-0.615409,-0.039236,-0.067456,0.209217,-0.153459,0.29459,-0.032999,-0.085326,-0.002516
1624163977427234888,335,1624163977427234888,4.322143,-0.909271,16.257612,0.784184,-0.615506,-0.039918,-0.067926,0.247643,-0.284329,0.261807,-0.030167,0.020508,0.006297
1624163977527233601,336,1624163977527233601,4.351803,-0.934395,16.284397,0.784078,-0.615675,-0.037741,-0.068846,0.265508,-0.402119,0.221603,0.016092,-0.003307,0.004856
1624163977627232075,337,1624163977627232075,4.383765,-0.97614,16.30406,0.783131,-0.616665,-0.036705,-0.071275,0.277724,-0.523233,0.146727,-0.035556,-0.046572,0.02733
1624163977727230787,338,1624163977727230787,4.415266,-1.024847,16.309849,0.782783,-0.616845,-0.040257,-0.071627,0.293012,-0.630371,0.039937,-0.03076,-0.110988,-0.000829
1624163977827229500,339,1624163977827229500,4.453646,-1.090109,16.304792,0.782299,-0.616695,-0.045936,-0.074722,0.333365,-0.752864,-0.056672,-0.03621,-0.117942,0.021353
1624163977927228212,340,1624163977927228212,4.490143,-1.1696,16.30372,0.782284,-0.616263,-0.05006,-0.075791,0.373397,-0.904062,-0.071987,0.002067,0.017092,-0.009275
1624163978027226925,341,1624163978027226925,4.536539,-1.260848,16.297792,0.782113,-0.617145,-0.04493,-0.073555,0.414424,-1.057692,-0.0279,0.056747,0.15761,0.017545
1624163978127225637,342,1624163978127225637,4.578296,-1.358687,16.301445,0.782078,-0.618313,-0.036181,-0.068797,0.427997,-1.153029,0.027086,-0.003805,0.20194,-0.006838
1624163978227224112,343,1624163978227224112,4.630498,-1.473739,16.300743,0.782512,-0.618796,-0.030398,-0.061981,0.448526,-1.233447,-0.03291,-0.039787,0.134765,-0.01555
1624163978327222824,344,1624163978327222824,4.681666,-1.598949,16.304288,0.782735,-0.619477,-0.026518,-0.053573,0.459651,-1.31315,-0.029425,-0.047687,0.156401,0.015822
1624163978427221537,345,1624163978427221537,4.731331,-1.727621,16.306124,0.783096,-0.620038,-0.022476,-0.042505,0.479092,-1.379251,0.012758,-0.183439,0.259359,-0.010005
1624163978527220249,346,1624163978527220249,4.785975,-1.862828,16.31425,0.783176,-0.621088,-0.011621,-0.027355,0.512201,-1.419594,0.124843,-0.104404,0.466382,0.021288
1624163978627218962,347,1624163978627218962,4.843611,-2.003815,16.326667,0.782909,-0.62201,0.003848,-0.011843,0.544944,-1.393316,0.111841,0.009831,0.330302,0.01961
1624163978727217674,348,1624163978727217674,4.904473,-2.133289,16.345943,0.782269,-0.622582,0.021032,-0.001738,0.572858,-1.311974,0.143272,0.227246,0.28401,0.004736
1624163978827216387,349,1624163978827216387,4.965069,-2.256597,16.35399,0.781324,-0.622647,0.04195,-0.009021,0.567103,-1.215379,0.138273,0.450292,0.216082,0.041445
1624163978927214861,350,1624163978927214861,5.019376,-2.367527,16.363003,0.77977,-0.622513,0.062533,-0.02288,0.486991,-1.106817,0.116007,0.415241,0.108384,0.043786
1624163979027213573,351,1624163979027213573,5.05927,-2.4587,16.37333,0.777937,-0.622228,0.078976,-0.037521,0.352283,-0.979497,0.134525,0.412227,0.016032,0.053275
1624163979127212286,352,1624163979127212286,5.086538,-2.548029,16.392419,0.776571,-0.622038,0.087521,-0.048414,0.17345,-0.884992,0.206858,0.155832,0.045911,0.026315
1624163979227210999,353,1624163979227210999,5.09702,-2.623285,16.415602,0.775853,-0.62195,0.090317,-0.055423,0.005825,-0.778701,0.232265,0.120714,-0.090662,0.01958
1624163979327209711,354,1624163979327209711,5.084074,-2.685265,16.451592,0.776572,-0.622135,0.083175,-0.054449,-0.216812,-0.686844,0.335051,-0.492237,-0.034513,-0.01857
1624163979427208424,355,1624163979427208424,5.060274,-2.747984,16.491972,0.777692,-0.623726,0.067088,-0.04073,-0.351304,-0.606081,0.375076,-0.365985,-0.113464,-0.009928
1624163979527207136,356,1624163979527207136,5.029118,-2.80063,16.519162,0.779354,-0.624252,0.046406,-0.027613,-0.413943,-0.530045,0.353295,-0.374468,-0.174145,-0.031979
1624163979627205610,357,1624163979627205610,4.994824,-2.842477,16.551556,0.78089,-0.623741,0.026452,-0.021397,-0.443808,-0.462178,0.338014,-0.341782,-0.260314,-0.027961
1624163979727204323,358,1624163979727204323,4.957111,-2.884631,16.578464,0.782185,-0.6229,0.005655,-0.012208,-0.423944,-0.43296,0.319656,-0.372759,-0.17773,-0.05899
1624163979827203035,359,1624163979827203035,4.917735,-2.925151,16.612945,0.782853,-0.622148,-0.008223,-0.001958,-0.398205,-0.420081,0.374309,-0.31465,-0.000506,-0.039887
1624163979927201748,360,1624163979927201748,4.891527,-2.96174,16.647123,0.78291,-0.621917,-0.013635,0.009159,-0.304284,-0.380346,0.353462,-0.086582,0.013533,-0.023125
