time,field.header.seq,field.header.stamp,field.pose.pose.position.x,field.pose.pose.position.y,field.pose.pose.position.z,field.pose.pose.orientation.x,field.pose.pose.orientation.y,field.pose.pose.orientation.z,field.pose.pose.orientation.w,field.twist.twist.linear.x,field.twist.twist.linear.y,field.twist.twist.linear.z,field.twist.twist.angular.x,field.twist.twist.angular.y,field.twist.twist.angular.z
1624165695301837683,2,1624165695301837683,0.005328,0.002176,0.001826,0.999799,-6e-06,0.019896,-0.002391,0.001839,-0.001854,0.008226,0.012316,0.004355,0.00423
1624165695401833773,3,1624165695401833773,0.004057,-0.000208,0.001364,0.999798,-1.2e-05,0.019926,-0.002369,-0.002079,-0.008789,0.004862,0.013016,0.005904,0.003087
1624165695501829624,4,1624165695501829624,0.003328,-0.000445,0.0005,0.999798,-0.000178,0.0199,-0.002433,-0.001866,-0.006786,0.001416,0.009177,0.00396,0.003062
1624165695601825714,5,1624165695601825714,0.003228,0.003929,0.001235,0.9998,-0.000134,0.019831,-0.002416,-0.000774,0.00243,0.002802,0.010227,0.004458,0.003325
1624165695701821804,6,1624165695701821804,0.005852,0.008433,-1.9e-05,0.999799,-0.000112,0.019846,-0.002761,0.005302,0.010899,-0.001389,0.012638,0.008568,0.002535
1624165695801817894,7,1624165695801817894,0.003418,0.007888,-0.001616,0.999799,-0.000245,0.019881,-0.002488,-0.001979,0.005395,-0.003896,0.011275,0.006071,0.002429
1624165695901813745,8,1624165695901813745,0.001725,0.005064,-0.00068,0.9998,-0.000136,0.019827,-0.002531,-0.003711,-0.00225,-0.002479,0.011296,0.003861,0.001613
1624165696001809835,9,1624165696001809835,0.002714,0.006188,-0.001506,0.999803,-0.000218,0.019675,-0.002484,0.001114,-0.000932,-0.002664,0.011731,0.004877,0.003023
1624165696101805925,10,1624165696101805925,0.003544,0.005602,-0.002673,0.999798,-9.6e-05,0.019894,-0.002646,0.00185,-0.003722,-0.003612,0.012671,0.005872,0.003523
1624165696201802015,11,1624165696201802015,0.00494,0.003276,-0.002695,0.999799,-0.000153,0.019828,-0.002616,0.003394,-0.011458,-0.001502,0.012156,0.007483,0.002648
1624165696301798105,12,1624165696301798105,0.003234,0.004191,-0.001306,0.999798,-0.000212,0.019891,-0.002658,-0.000552,-0.007304,0.0025,0.010736,0.004872,0.005146
1624165696401793957,13,1624165696401793957,0.004084,0.00333,-0.002229,0.999796,-0.000174,0.020026,-0.002556,0.001097,-0.007603,-0.000207,0.009814,0.004872,0.004216
1624165696501790047,14,1624165696501790047,0.004493,0.005926,-0.000198,0.999797,-0.000192,0.019955,-0.00277,0.002063,-0.003785,0.00342,0.013024,0.00594,0.003881
1624165696601786137,15,1624165696601786137,0.004525,0.004473,0.000218,0.999801,-0.000146,0.019743,-0.002523,0.002546,-0.007538,0.002876,0.011411,0.00609,0.003017
1624165696701782227,16,1624165696701782227,0.005127,0.005889,-2.7e-05,0.9998,-7.8e-05,0.019783,-0.002691,0.002751,-0.003172,0.000479,0.010445,0.004969,0.003788
1624165696801778078,17,1624165696801778078,0.003214,0.006318,-0.001977,0.999799,-0.000102,0.019835,-0.002802,-0.000831,-0.000636,-0.003768,0.014415,0.006265,0.000949
1624165696901774168,18,1624165696901774168,0.004339,0.008836,-0.000667,0.9998,-6.1e-05,0.01981,-0.002605,0.002365,0.00483,-0.001556,0.01188,0.004418,0.00621
1624165697001770258,19,1624165697001770258,0.00326,0.005514,-0.000986,0.999796,-5e-06,0.020005,-0.002504,-0.000838,-0.004872,-0.002255,0.011947,0.00543,0.003785
1624165697101766348,20,1624165697101766348,0.001867,0.003111,0.000259,0.9998,-0.000108,0.019793,-0.002656,-0.002913,-0.012021,0.000536,0.010655,0.005276,0.000881
1624165697201762438,21,1624165697201762438,0.001508,0.006713,-0.000767,0.999799,-0.000117,0.019796,-0.002977,-0.001657,-0.003196,-0.001109,0.012378,0.003758,0.002377
1624165697301758289,22,1624165697301758289,0.001397,0.006984,0.000396,0.9998,-0.000132,0.01974,-0.002995,-0.000904,-0.002904,0.000324,0.012393,0.006196,0.003892
1624165697401754379,23,1624165697401754379,0.001462,0.003425,0.000159,0.999804,-0.000275,0.019583,-0.002705,-0.000423,-0.011559,-0.000803,0.011144,0.005002,0.002518
1624165697501750469,24,1624165697501750469,0.00257,0.002777,-0.000583,0.9998,-0.000292,0.0198,-0.002592,0.001707,-0.009388,-0.001618,0.011447,0.006499,0.001857
1624165697601746559,25,1624165697601746559,0.005922,0.003028,-0.000912,0.999801,-2.2e-05,0.019759,-0.002575,0.010978,-0.009693,-0.00132,0.010652,0.005871,0.004193
1624165697701742411,26,1624165697701742411,0.003582,0.0048,-0.001707,0.999799,-0.000156,0.01984,-0.002686,0.004289,-0.003773,-0.003814,0.012245,0.003858,0.001444
1624165697801738501,27,1624165697801738501,0.00271,0.005268,-0.002985,0.999799,7.5e-05,0.019823,-0.002694,0.001783,-0.002494,-0.005736,0.011985,0.006671,0.003564
1624165697901734591,28,1624165697901734591,0.00272,0.006436,-0.000809,0.999801,-0.000283,0.019723,-0.002631,0.0022,0.000735,-0.000262,0.011804,0.006765,0.003135
1624165698001730680,29,1624165698001730680,0.001746,0.006029,-0.001669,0.999802,-0.000134,0.01969,-0.002839,0.000229,-0.000343,-0.002624,0.013198,0.005996,0.0018
1624165698101726770,30,1624165698101726770,0.002787,0.003575,-0.001071,0.999802,3.1e-05,0.019692,-0.00252,0.0008,-0.006771,-0.000802,0.011776,0.005652,0.001881
1624165698201722622,31,1624165698201722622,0.004393,0.002732,-0.001685,0.999799,-0.000113,0.019846,-0.002758,0.004402,-0.008268,-0.002115,0.012031,0.002294,0.000281
1624165698301718712,32,1624165698301718712,0.003946,0.005591,-0.001431,0.9998,-0.000131,0.019776,-0.002736,0.003616,-0.001309,-0.000389,0.009448,0.005642,0.002535
1624165698401714802,33,1624165698401714802,0.003663,0.004062,-0.001587,0.999803,-0.000104,0.019651,-0.002447,0.002579,-0.005683,0.000208,0.010158,0.003689,0.002992
1624165698501710892,34,1624165698501710892,0.003368,0.001136,-0.001099,0.999799,-0.000137,0.019902,-0.002226,0.00132,-0.011689,0.0035,0.011198,0.007404,0.003693
1624165698601706743,35,1624165698601706743,0.005875,0.000574,-0.000245,0.999798,-0.000134,0.019909,-0.00243,0.007398,-0.01164,0.005159,0.012075,0.004513,0.002727
1624165698701702833,36,1624165698701702833,0.002028,-0.001051,-1e-05,0.9998,-0.00028,0.019858,-0.002209,-0.002827,-0.013378,0.003833,0.009714,0.006704,0.004192
1624165698801698923,37,1624165698801698923,0.002309,-0.001566,-6e-06,0.999799,-0.000234,0.019882,-0.002433,-0.001568,-0.013106,0.002889,0.013383,0.006911,0.001889
1624165698901695013,38,1624165698901695013,0.002043,0.001747,-0.000382,0.999801,-0.000262,0.019766,-0.002425,-0.001673,-0.003303,0.000355,0.010622,0.006509,0.003351
1624165699001691103,39,1624165699001691103,0.001495,-0.001283,-0.000681,0.999799,-0.00028,0.019887,-0.002342,-0.002229,-0.008575,0.00136,0.011974,0.005134,0.003425
1624165699101686954,40,1624165699101686954,0.005471,0.002578,-0.000178,0.999799,-0.000215,0.019839,-0.002623,0.008197,-0.000561,0.003842,0.010845,0.00519,0.003445
1624165699201683044,41,1624165699201683044,0.004986,0.003543,-0.000306,0.9998,-0.00017,0.019784,-0.00278,0.007175,-0.000118,0.003056,0.013484,0.008583,0.003405
1624165699301679134,42,1624165699301679134,0.004688,0.003752,-0.000322,0.999797,-0.000145,0.019938,-0.002635,0.005189,0.000212,0.000128,0.010738,0.006565,0.001867
1624165699401675224,43,1624165699401675224,0.003231,0.004862,-0.000489,0.9998,-0.00011,0.019844,-0.00245,0.002055,0.00148,-0.000911,0.012503,0.004212,0.001874
1624165699501671076,44,1624165699501671076,0.002259,0.005373,-0.001221,0.999802,-0.000169,0.019661,-0.002816,0.001582,0.000217,-0.002308,0.011485,0.005383,0.001738
1624165699601667166,45,1624165699601667166,0.004161,0.004761,-5.2e-05,0.999798,-0.000251,0.019914,-0.002604,0.004055,-0.002806,0.001092,0.012113,0.005749,0.002575
1624165699701663256,46,1624165699701663256,0.003307,0.004146,-0.000213,0.999798,-0.00013,0.019929,-0.002414,0.002564,-0.004399,0.00296,0.01059,0.005429,0.003972
1624165699801659346,47,1624165699801659346,0.005619,0.002175,-0.001311,0.999797,-0.000126,0.019927,-0.002644,0.007242,-0.007821,-0.001095,0.011307,0.004496,0.0021
1624165699901655436,48,1624165699901655436,0.002894,0.001139,0.000809,0.9998,-6.6e-05,0.019791,-0.002766,0.000525,-0.012639,0.004338,0.010245,0.007031,0.00345
1624165700001651287,49,1624165700001651287,0.003333,0.004773,0.000424,0.999797,8e-06,0.01996,-0.002427,0.000631,-0.000295,0.002877,0.010072,0.007675,0.004167
1624165700101647377,50,1624165700101647377,0.005046,0.003787,0.000795,0.999798,-0.000259,0.019921,-0.002645,0.005234,-0.002612,0.002129,0.012076,0.004286,0.002622
1624165700201643467,51,1624165700201643467,0.007574,0.007354,0.000537,0.999798,-0.000163,0.019908,-0.0027,0.011296,0.00395,-0.000696,0.010986,0.005013,0.003519
1624165700301639557,52,1624165700301639557,0.003614,0.000401,-0.000252,0.999799,-0.0001,0.019879,-0.002516,-9.9e-05,-0.014824,-0.002235,0.009173,0.004839,0.003023
1624165700401635408,53,1624165700401635408,0.004552,0.000368,-0.001659,0.999798,-4.6e-05,0.019902,-0.002561,0.00319,-0.010403,-0.005595,0.013876,0.006035,0.002865
1624165700501631498,54,1624165700501631498,0.002569,-0.003492,-0.002352,0.999801,-0.000109,0.019743,-0.00266,-0.001089,-0.017099,-0.005085,0.010405,0.006498,0.002815
1624165700601627588,55,1624165700601627588,0.003615,0.000592,-0.001406,0.999802,-0.000142,0.019731,-0.002513,0.003777,-0.004074,-0.002683,0.01175,0.004983,0.002303
1624165700701623678,56,1624165700701623678,0.003245,0.004865,-0.001798,0.999798,-8e-05,0.019893,-0.002599,0.002099,0.005546,-0.004271,0.01201,0.006719,0.003355
1624165700801619768,57,1624165700801619768,0.004267,0.007613,-0.00053,0.999796,-0.000156,0.019984,-0.002672,0.00335,0.008055,-0.000317,0.012399,0.004894,0.00243
1624165700901615620,58,1624165700901615620,0.003561,0.009016,-0.002646,0.999799,-7.5e-05,0.01984,-0.002635,0.002309,0.007718,-0.006306,0.0128,0.00573,0.002792
1624165701001611710,59,1624165701001611710,0.00499,0.010464,-0.002678,0.999796,-9.2e-05,0.020006,-0.002746,0.004465,0.008221,-0.005259,0.010574,0.006198,0.00194
1624165701101607800,60,1624165701101607800,0.005483,0.005502,-0.001608,0.999796,-0.000133,0.019968,-0.002775,0.004177,-0.006599,-0.002411,0.012929,0.007603,0.003207
1624165701201603889,61,1624165701201603889,0.006109,0.006526,-0.0017,0.999795,7e-06,0.020014,-0.002822,0.004796,-0.00741,-0.002039,0.011277,0.005791,0.003561
1624165701301599741,62,1624165701301599741,0.005081,0.00159,-0.001614,0.999795,-0.000146,0.020018,-0.002771,0.002043,-0.016457,-0.000869,0.01276,0.007132,0.002671
1624165701401595831,63,1624165701401595831,0.004221,0.000412,-0.002631,0.999798,-4.2e-05,0.019886,-0.002555,-0.000324,-0.015657,-0.003818,0.010669,0.004466,0.001721
1624165701501591921,64,1624165701501591921,0.00165,-0.001044,-0.002278,0.9998,-0.000288,0.019795,-0.002508,-0.008495,-0.018287,-0.002267,0.010014,0.005189,0.002976
1624165701601588011,65,1624165701601588011,0.002452,-0.001984,-0.001879,0.999798,-0.000129,0.0199,-0.002495,-0.004481,-0.016677,-0.001388,0.011428,0.007179,0.001375
1624165701701583862,66,1624165701701583862,0.001356,-0.002473,-0.000375,0.999799,-0.000249,0.01988,-0.002457,-0.005058,-0.016266,0.002331,0.011513,0.007497,0.00404
1624165701801579952,67,1624165701801579952,0.003403,-0.000502,-0.003168,0.999799,-3.3e-05,0.019869,-0.00243,0.001621,-0.008808,-0.00518,0.010608,0.003243,0.003806
1624165701901576042,68,1624165701901576042,0.004593,-0.00045,-0.002513,0.999798,-0.000149,0.019897,-0.002458,0.005156,-0.009034,-0.004983,0.007525,0.003069,0.005885
1624165702001572132,69,1624165702001572132,0.004951,-0.002598,-0.001911,0.9998,-8.7e-05,0.019795,-0.002552,0.005795,-0.012322,-0.000858,0.011033,0.00685,0.003395
1624165702101568222,70,1624165702101568222,0.006976,0.000338,-0.002894,0.999802,-0.00022,0.019713,-0.002434,0.010241,-0.003944,-0.004749,0.013093,0.005359,0.002764
1624165702201564074,71,1624165702201564074,0.005765,0.004196,-0.001817,0.999798,7.6e-05,0.019888,-0.002577,0.00487,0.002841,0.000686,0.011863,0.006357,0.001772
1624165702301560163,72,1624165702301560163,0.004123,0.004312,-0.002154,0.999797,-0.000102,0.019929,-0.002731,-0.000325,0.002479,0.000109,0.012969,0.008767,0.002569
1624165702401556253,73,1624165702401556253,0.002896,0.005099,-0.001094,0.999797,-0.00012,0.019935,-0.00256,-0.00332,0.001969,0.002268,0.012386,0.005158,0.003193
1624165702501552343,74,1624165702501552343,0.003081,0.002382,0.001095,0.999796,-0.000111,0.019991,-0.002541,-0.002299,-0.003995,0.006972,0.012679,0.004152,0.00152
1624165702601548195,75,1624165702601548195,0.00277,0.000707,-0.002104,0.999802,-0.000302,0.019691,-0.002597,-0.001428,-0.007131,-0.001719,0.008618,0.001549,0.005523
1624165702701544285,76,1624165702701544285,0.0029,-0.001882,-0.000223,0.999801,-0.000172,0.019761,-0.002418,-0.001332,-0.013028,0.002405,0.012942,0.006403,0.003609
1624165702801540375,77,1624165702801540375,0.00245,-0.001775,-0.001244,0.9998,-0.000182,0.019841,-0.002497,-0.001611,-0.009649,0.000924,0.012034,0.006287,0.002339
1624165702901536465,78,1624165702901536465,0.003793,0.000238,-0.001955,0.999799,-3e-06,0.019846,-0.002497,0.00246,-0.003234,-0.00102,0.011228,0.004902,0.003024
1624165703001532555,79,1624165703001532555,0.003871,0.002868,-0.002271,0.999801,-8.7e-05,0.019779,-0.002398,0.003544,0.002786,-0.002216,0.012607,0.007978,0.003354
1624165703101528406,80,1624165703101528406,0.005438,0.000935,-0.002331,0.999799,-5.7e-05,0.01989,-0.002414,0.007349,-0.000981,-0.001267,0.011983,0.00611,0.004486
1624165703201524496,81,1624165703201524496,0.005232,0.0014,-0.002757,0.999799,-0.00013,0.019845,-0.002745,0.004658,-0.000427,-0.00193,0.01213,0.004555,0.002292
1624165703301520586,82,1624165703301520586,0.005221,-0.000718,-0.001466,0.9998,-0.000195,0.019812,-0.002556,0.003912,-0.008018,0.001697,0.012052,0.005435,0.001918
1624165703401516676,83,1624165703401516676,0.006278,-0.000207,-0.002383,0.999797,-3.6e-05,0.019925,-0.002657,0.005083,-0.005464,-0.000788,0.010064,0.005924,0.004288
1624165703501512527,84,1624165703501512527,0.006264,-0.001137,-0.002036,0.999798,0.000125,0.019912,-0.002609,0.006093,-0.007445,-0.000519,0.012202,0.005661,0.002794
1624165703601508617,85,1624165703601508617,0.005449,0.001392,-0.002832,0.999799,-7.8e-05,0.019867,-0.002668,0.003648,-0.002378,-0.002469,0.01058,0.007263,0.003542
1624165703701504707,86,1624165703701504707,0.005328,0.00123,-0.003467,0.999798,-0.000356,0.019883,-0.002812,0.00403,-0.004019,-0.003366,0.010981,0.007359,0.001603
1624165703801500797,87,1624165703801500797,0.005791,-0.002005,-0.003456,0.999799,1.3e-05,0.019814,-0.002884,0.005679,-0.011341,-0.00472,0.013701,0.006912,0.002074
1624165703901496887,88,1624165703901496887,0.004119,-0.006721,-0.001223,0.999801,-7.2e-05,0.019793,-0.002459,0.000741,-0.019473,0.001115,0.011091,0.004703,0.003595
1624165704001492739,89,1624165704001492739,0.004707,5e-05,-0.002786,0.999801,-5.8e-05,0.019719,-0.002698,0.003666,-0.003144,-0.002793,0.013509,0.006452,0.001923
1624165704101488829,90,1624165704101488829,0.00425,0.000943,-0.003826,0.999799,-0.000289,0.019834,-0.002679,0.002955,0.000222,-0.005114,0.012244,0.005756,0.00191
1624165704201484919,91,1624165704201484919,0.005576,0.004016,-0.002763,0.999797,-7.8e-05,0.019932,-0.002797,0.005426,0.004394,-0.00137,0.013389,0.008148,0.002112
1624165704301481009,92,1624165704301481009,0.005983,0.006064,-0.003362,0.999799,-3.1e-05,0.019835,-0.002811,0.007377,0.006189,-0.002675,0.011391,0.008482,0.001393
1624165704401476860,93,1624165704401476860,0.006054,0.003474,-0.003018,0.999798,-5e-05,0.019854,-0.002846,0.006001,-0.002787,-0.001956,0.011499,0.003875,0.003651
1624165704501472950,94,1624165704501472950,0.005067,0.000689,-0.003085,0.999799,-4.6e-05,0.019851,-0.002574,0.002646,-0.010526,-0.002327,0.010861,0.005341,0.004149
1624165704601469040,95,1624165704601469040,0.005077,-0.001698,-0.003092,0.9998,-2.5e-05,0.019835,-0.002509,0.002518,-0.01418,-0.000155,0.011904,0.005522,0.001389
1624165704701465130,96,1624165704701465130,0.007963,-0.003247,-0.004582,0.999797,4.3e-05,0.019958,-0.002506,0.009443,-0.016073,-0.004234,0.013352,0.007697,0.002094
1624165704801461220,97,1624165704801461220,0.004834,-0.004696,-0.006174,0.9998,2.4e-05,0.019818,-0.002542,0.001751,-0.015166,-0.007359,0.01073,0.006428,0.001772
1624165704901457071,98,1624165704901457071,0.005434,-0.000624,-0.005458,0.999796,-0.000139,0.019963,-0.002753,0.004123,-0.005079,-0.005491,0.011594,0.006014,0.003908
1624165705001453161,99,1624165705001453161,0.005443,-0.002162,-0.004161,0.999798,-7.1e-05,0.019871,-0.00267,0.003922,-0.004525,-0.0014,0.012016,0.006055,0.002156
1624165705101449251,100,1624165705101449251,0.005056,-0.004309,-0.002267,0.9998,2e-06,0.019776,-0.002726,0.003503,-0.010358,0.002355,0.013432,0.004755,0.001299
1624165705201445341,101,1624165705201445341,0.005834,-0.001809,-0.002632,0.999799,-0.00028,0.019858,-0.002648,0.005136,-0.006589,0.001224,0.01007,0.005057,0.003739
1624165705301441193,102,1624165705301441193,0.00416,-0.001033,-0.002387,0.999801,-0.000254,0.019777,-0.002476,0.000761,-0.005522,0.002314,0.011714,0.00801,0.003265
1624165705401437283,103,1624165705401437283,0.00343,-0.001685,-0.00353,0.999799,-0.000243,0.019844,-0.00251,-0.000555,-0.008413,0.000151,0.010303,0.005692,0.003918
1624165705501433372,104,1624165705501433372,0.005589,-0.00124,-0.002005,0.999799,-9.4e-05,0.019855,-0.002682,0.00527,-0.009195,0.003162,0.011723,0.005487,0.003371
1624165705601429462,105,1624165705601429462,0.002469,0.001419,-0.000969,0.999801,-0.000187,0.01975,-0.002793,-0.002648,-0.001537,0.004924,0.01042,0.005869,0.002821
1624165705701425552,106,1624165705701425552,0.003541,-0.002192,-0.002884,0.9998,-0.000132,0.019839,-0.002319,0.000832,-0.009127,-3.9e-05,0.011044,0.004963,0.003065
1624165705801421404,107,1624165705801421404,0.003685,-2.8e-05,-0.001534,0.999798,-6.9e-05,0.019873,-0.002728,-0.00013,-0.005415,0.001563,0.010862,0.00593,0.001515
1624165705901417494,108,1624165705901417494,0.000931,-0.001873,-0.000951,0.999798,-0.00031,0.019915,-0.002562,-0.005782,-0.006688,0.001859,0.011658,0.006501,0.00311
1624165706001413584,109,1624165706001413584,0.001079,7.1e-05,-0.002218,0.999798,-0.00018,0.019912,-0.002491,-0.002654,-0.002887,-0.001244,0.010725,0.007386,0.00362
1624165706101409674,110,1624165706101409674,0.002007,0.001525,-0.00367,0.999798,-0.00011,0.019901,-0.002798,0.001539,-0.00249,-0.0054,0.013627,0.009039,0.002942
1624165706201405525,111,1624165706201405525,0.000255,-0.002268,-0.002718,0.999799,-0.000253,0.019822,-0.002851,-0.001546,-0.00974,-0.00182,0.013349,0.007688,0.00199
1624165706301401615,112,1624165706301401615,0.001507,-0.003263,-0.003762,0.999797,-0.000246,0.019933,-0.002614,0.001089,-0.009372,-0.003639,0.01189,0.005019,0.001271
1624165706401397705,113,1624165706401397705,0.000713,-0.003034,-0.003225,0.999803,-0.000263,0.019689,-0.002363,0.000486,-0.007519,-0.002355,0.01258,0.008001,0.00129
1624165706501393795,114,1624165706501393795,0.002793,-0.001914,-0.002737,0.9998,-0.000226,0.019809,-0.00236,0.005616,-0.006319,0.000379,0.011766,0.006696,0.003226
1624165706601389885,115,1624165706601389885,0.002338,0.005333,-0.002803,0.999799,-0.000201,0.019815,-0.002695,0.002619,0.008383,-0.001246,0.011716,0.005407,0.002321
1624165706701385736,116,1624165706701385736,0.00229,0.000714,-0.002121,0.999799,-0.000296,0.019851,-0.002521,0.003266,-0.002706,-4.6e-05,0.011709,0.004604,0.002647
1624165706801381826,117,1624165706801381826,0.000983,0.004762,-0.004245,0.999799,-0.000185,0.019827,-0.002694,0.000226,0.004171,-0.005509,0.010064,0.005332,0.004308
1624165706901377916,118,1624165706901377916,-0.000686,0.0037,-0.0038,0.999799,-0.000185,0.019851,-0.002682,-0.004655,0.00015,-0.002071,0.013358,0.007336,0.000899
1624165707001374006,119,1624165707001374006,-0.000429,0.004485,-0.002748,0.9998,-0.000205,0.019787,-0.002665,-0.001744,8e-06,0.000278,0.01159,0.004393,0.004596
1624165707101369858,120,1624165707101369858,-0.000749,0.004628,-0.002827,0.999799,-0.000202,0.019848,-0.002691,-0.000924,-0.001397,0.000878,0.012162,0.007737,0.001467
1624165707201365948,121,1624165707201365948,0.001386,0.002323,-0.001756,0.999798,-0.000131,0.019896,-0.002717,0.005323,-0.008055,0.004659,0.010701,0.006346,0.002179
1624165707301362038,122,1624165707301362038,0.001991,-0.002151,-0.001174,0.999798,-0.000127,0.019918,-0.002557,0.004456,-0.016346,0.005872,0.014159,0.006726,0.002503
1624165707401358128,123,1624165707401358128,0.002293,-0.002794,-0.001979,0.999796,-0.000201,0.01999,-0.002553,0.004866,-0.015102,0.001956,0.011439,0.007103,0.003316
1624165707501354218,124,1624165707501354218,0.002291,-0.001712,-0.000573,0.999795,-3.2e-05,0.020063,-0.002523,0.004562,-0.009609,0.004637,0.011406,0.005501,-0.000261
1624165707601350069,125,1624165707601350069,0.002706,-0.000835,-0.002052,0.999796,-0.000279,0.019971,-0.002657,0.006262,-0.005019,-0.000427,0.011574,0.005203,0.002865
1624165707701346159,126,1624165707701346159,0.003153,-0.000969,-0.00172,0.999799,-0.000185,0.019841,-0.0027,0.006468,-0.003172,-0.000575,0.012338,0.005982,0.000726
1624165707801342249,127,1624165707801342249,0.000418,-0.000926,-0.00338,0.999801,-0.0003,0.019772,-0.002437,-2.5e-05,-0.002981,-0.003739,0.011293,0.009157,0.001741
1624165707901338339,128,1624165707901338339,0.003881,-0.00228,-0.002979,0.9998,1.2e-05,0.019853,-0.002339,0.008857,-0.007062,-0.002331,0.0101,0.003927,0.003266
1624165708001334190,129,1624165708001334190,0.003304,-0.000229,-0.005085,0.999798,-9.5e-05,0.019877,-0.002787,0.006743,0.000308,-0.005799,0.014819,0.005781,0.001971
1624165708101330280,130,1624165708101330280,0.00212,-1.1e-05,-0.005405,0.999799,-0.000289,0.019859,-0.002532,0.002407,-0.001611,-0.005484,0.010726,0.006542,0.0037
1624165708201326370,131,1624165708201326370,0.002622,0.000172,-0.005582,0.999802,-0.000279,0.01969,-0.002582,0.003642,-0.002034,-0.004659,0.013893,0.004077,0.003261
1624165708301322460,132,1624165708301322460,0.004119,-0.002413,-0.00563,0.999799,-0.000216,0.019865,-0.00251,0.006608,-0.00717,-0.003,0.010114,0.005798,0.002172
1624165708401318550,133,1624165708401318550,0.001395,-0.002175,-0.002302,0.999801,-0.000372,0.019761,-0.002677,-0.000608,-0.006192,0.005389,0.013588,0.008434,0.002967
1624165708501314402,134,1624165708501314402,0.000441,-0.002374,-0.002877,0.999801,-0.000333,0.019757,-0.002556,-0.002165,-0.004601,0.002157,0.010451,0.006562,0.003936
1624165708601310492,135,1624165708601310492,0.000212,-0.002444,-0.002746,0.999797,-0.000297,0.019962,-0.002594,-0.001362,-0.003944,0.000709,0.011824,0.005534,0.001393
1624165708701306581,136,1624165708701306581,-0.000462,0.000609,-0.002945,0.9998,-0.000144,0.019792,-0.002644,-0.00045,-0.000143,-0.00123,0.010845,0.004904,0.002486
1624165708801302671,137,1624165708801302671,0.000961,-0.002372,-0.003095,0.999801,-0.000178,0.019771,-0.00253,0.003734,-0.005945,-0.000828,0.014525,0.007476,0.002419
1624165708901298523,138,1624165708901298523,-0.001538,-0.000875,-0.003407,0.9998,-0.000265,0.019818,-0.002548,-0.003229,-0.005868,1.2e-05,0.010425,0.004292,0.002057
1624165709001294613,139,1624165709001294613,-0.002312,-8.9e-05,-0.004786,0.9998,-0.000289,0.019807,-0.002453,-0.00315,-0.000829,-0.003204,0.012552,0.004929,0.002212
1624165709101290703,140,1624165709101290703,-0.001005,-0.001051,-0.004566,0.999802,-0.000209,0.019717,-0.002622,-7.8e-05,-0.002089,-0.001729,0.011264,0.007572,0.002197
1624165709201286793,141,1624165709201286793,-0.000397,-0.002778,-0.003934,0.999801,-0.000273,0.019741,-0.002557,0.002002,-0.004742,0.000557,0.014678,0.007816,0.000611
1624165709301282883,142,1624165709301282883,-0.00014,0.000269,-0.002596,0.9998,-0.000299,0.019816,-0.002459,0.002942,0.002904,0.0026,0.010852,0.006898,0.002487
1624165709401278734,143,1624165709401278734,0.002368,0.0017,-0.004022,0.999798,-0.000227,0.019887,-0.002532,0.008939,0.005338,-0.001619,0.014193,0.006823,0.001762
1624165709501274824,144,1624165709501274824,0.001896,-0.004794,-0.003248,0.999797,-0.000149,0.019986,-0.002517,0.004624,-0.011574,5.6e-05,0.010501,0.005368,0.002482
1624165709601270914,145,1624165709601270914,0.001139,-0.003349,-0.004641,0.999799,-0.000335,0.019869,-0.002502,0.002171,-0.005682,-0.002914,0.013973,0.00694,0.001256
1624165709701267004,146,1624165709701267004,-0.000225,-0.006099,-0.004182,0.999803,-0.000124,0.019679,-0.002404,-0.000676,-0.009439,-0.001725,0.014,0.005373,0.00164
1624165709801262856,147,1624165709801262856,0.002783,-0.001743,-0.00406,0.9998,-7.9e-05,0.01983,-0.002554,0.00585,0.001512,-0.002655,0.01173,0.005497,0.001349
1624165709901258945,148,1624165709901258945,0.001222,0.001519,-0.002943,0.999798,-0.000278,0.019893,-0.002513,0.002401,0.007032,0.000835,0.015101,0.008569,0.001921
1624165710001255035,149,1624165710001255035,0.000472,-0.002533,-0.003901,0.999798,-0.000416,0.019928,-0.002471,-0.000495,-0.003191,-0.001451,0.010707,0.005798,0.001599
1624165710101251125,150,1624165710101251125,0.001334,-0.000809,-0.005424,0.999798,-0.000253,0.019862,-0.002743,0.001897,-0.00024,-0.005712,0.014668,0.0043,0.001031
1624165710201247215,151,1624165710201247215,0.001517,-0.000527,-0.003918,0.999798,-0.000205,0.019892,-0.002589,0.002488,-0.001866,-0.001837,0.010011,0.007219,0.001366
1624165710301243067,152,1624165710301243067,0.001674,0.002692,-0.00412,0.999801,-0.000137,0.019768,-0.002609,0.002432,0.005689,-0.001092,0.012784,0.00654,0.002111
1624165710401239157,153,1624165710401239157,0.004039,0.002558,-0.004101,0.999798,-0.000108,0.019881,-0.002716,0.007543,0.004095,-0.000867,0.012236,0.005148,0.001193
1624165710501235247,154,1624165710501235247,0.004377,0.006616,-0.003814,0.9998,-0.000172,0.019801,-0.002788,0.00706,0.009175,-5.7e-05,0.011179,0.007542,0.002417
1624165710601231337,155,1624165710601231337,0.004803,0.001161,-0.003344,0.999802,-0.000273,0.019705,-0.002727,0.006915,-0.004229,0.002274,0.012695,0.006988,0.001289
1624165710701227188,156,1624165710701227188,0.003342,0.004582,-0.002378,0.9998,-0.00015,0.019798,-0.002724,0.001328,0.000102,0.003817,0.014047,0.00786,0.003216
1624165710801223278,157,1624165710801223278,0.00207,0.003211,-0.003445,0.999799,-0.000283,0.019821,-0.002714,-0.002738,-0.004969,0.001319,0.012584,0.00497,0.001238
1624165710901219368,158,1624165710901219368,0.001846,0.002012,-0.004096,0.999801,-5.3e-05,0.019753,-0.002715,-0.001556,-0.007821,-0.000354,0.014085,0.005079,0.000419
1624165711001215458,159,1624165711001215458,0.001182,-0.000711,-0.00608,0.9998,-0.000111,0.019819,-0.002562,-0.000471,-0.011651,-0.004562,0.01218,0.006993,0.002533
1624165711101211548,160,1624165711101211548,0.002665,0.000196,-0.005399,0.999799,-0.000251,0.019816,-0.002737,0.003839,-0.00915,-0.002738,0.014524,0.00711,0.00206
1624165711201207399,161,1624165711201207399,0.002336,-0.003072,-0.004466,0.999801,-6.9e-05,0.019719,-0.002723,0.004689,-0.017795,0.00013,0.009922,0.006468,0.002067
1624165711301203489,162,1624165711301203489,0.001933,-0.002595,-0.005033,0.999797,-0.000127,0.019974,-0.002573,0.001599,-0.013858,0.000141,0.010086,0.003362,0.003161
1624165711401199579,163,1624165711401199579,0.001663,-0.003306,-0.004282,0.999796,-0.000316,0.019967,-0.002704,0.002611,-0.013473,0.000436,0.007809,0.005859,0.00295
1624165711501195669,164,1624165711501195669,0.002342,-0.003903,-0.002243,0.999799,-0.000256,0.019856,-0.002644,0.0038,-0.011444,0.005582,0.01357,0.006609,0.000809
1624165711601191521,165,1624165711601191521,0.001801,-0.001809,-0.004112,0.999802,-0.000349,0.019733,-0.002531,0.003822,-0.006533,0.000544,0.009834,0.005726,0.005715
1624165711701187611,166,1624165711701187611,0.002099,-0.003589,-0.003145,0.999801,-0.000475,0.019718,-0.002634,0.005754,-0.015377,-5e-05,0.007356,0.000431,0.019564
1624165711801183701,167,1624165711801183701,0.001548,-0.003507,-0.003326,0.999802,-8.2e-05,0.019698,-0.002626,0.002873,0.002514,-0.000546,0.006584,0.000774,-0.025851
1624165711901179790,168,1624165711901179790,0.00121,-0.002922,-0.002701,0.999799,0.000431,0.019831,-0.002759,0.003468,-0.010236,0.001906,0.014101,0.006135,0.022322
1624165712001175880,169,1624165712001175880,0.00284,-0.004665,-0.004923,0.999803,-0.000829,0.019631,-0.002564,0.008973,-0.010498,-0.004592,-0.00379,0.001011,0.02514
1624165712101171732,170,1624165712101171732,0.002318,-0.007561,-0.002377,0.999801,-0.000511,0.01973,-0.002651,0.002744,-0.001465,0.003403,0.008087,0.002568,-0.022736
1624165712201167822,171,1624165712201167822,0.001084,-0.003152,-0.002087,0.999799,0.000405,0.019864,-0.002548,0.003701,0.001679,0.007298,0.014571,0.017439,0.003402
1624165712301163912,172,1624165712301163912,0.002515,0.001449,-0.001725,0.999797,-0.000301,0.019959,-0.002729,0.004583,0.002006,0.003171,0.007527,0.009744,0.024041
1624165712401160002,173,1624165712401160002,0.000274,-0.001617,-0.002298,0.999797,-0.000923,0.019941,-0.002598,-0.000668,0.00313,-0.000651,0.025758,0.007298,-0.003352
1624165712501155853,174,1624165712501155853,0.001486,0.000305,-0.004202,0.999797,-2.2e-05,0.019927,-0.002831,0.00364,0.005846,-0.005907,0.030919,0.008988,-0.012347
1624165712601151943,175,1624165712601151943,0.001748,-0.000125,-0.00528,0.999792,0.000166,0.020174,-0.002661,0.001416,-0.001975,-0.011347,0.006689,-0.000211,0.008975
1624165712701148033,176,1624165712701148033,0.002253,-0.001412,-0.006858,0.999788,-0.000468,0.020378,-0.002588,0.002788,-0.004895,-0.009151,0.010061,0.011892,0.00284
1624165712801144123,177,1624165712801144123,0.002002,-0.000936,-0.007353,0.999791,-0.000396,0.020244,-0.002537,0.001681,0.003309,-0.011811,-0.001815,0.00067,-0.015447
1624165712901140213,178,1624165712901140213,0.00123,-0.001121,-0.006461,0.999783,0.000114,0.020668,-0.002483,-0.000837,-0.000391,-0.004584,0.009199,0.006334,-0.003836
1624165713001136065,179,1624165713001136065,0.002947,0.002286,-0.007464,0.999777,-0.000306,0.020874,-0.002873,0.002338,-0.001426,-0.002908,0.041775,0.023825,0.013895
1624165713101132154,180,1624165713101132154,0.003202,0.008054,-0.006348,0.999767,-0.000417,0.021384,-0.002778,0.004638,0.021855,-0.002093,-0.016609,0.010932,-0.008443
1624165713201128244,181,1624165713201128244,0.005027,0.008708,-0.004344,0.999762,0.000383,0.021566,-0.00295,0.007385,0.012671,0.003642,0.026556,0.010959,0.001036
1624165713301124334,182,1624165713301124334,0.005281,0.014915,-0.005427,0.999767,0.000218,0.021373,-0.002945,0.010526,0.014417,-0.006766,0.02095,-0.00564,0.015446
1624165713401120186,183,1624165713401120186,0.005603,0.017159,-0.006503,0.99978,-0.000276,0.020731,-0.00295,0.017627,0.01629,-0.013479,-0.002513,-0.037178,0.017745
1624165713501116276,184,1624165713501116276,0.00504,0.00719,-0.005355,0.999798,-0.000255,0.019943,-0.002299,0.003251,-0.015802,0.002865,0.015495,0.001591,0.018815
1624165713601112366,185,1624165713601112366,0.005563,0.003422,-0.005691,0.999809,-0.000294,0.019345,-0.002745,0.010876,-0.015796,-0.008999,-0.013366,-0.039166,0.006828
1624165713701108456,186,1624165713701108456,0.004162,0.002071,-0.003338,0.999805,-0.00042,0.019447,-0.003123,-0.016715,-0.025359,0.021012,0.017038,0.030648,0.014561
1624165713801104546,187,1624165713801104546,0.004539,-0.002937,-0.001907,0.999789,-0.000186,0.020394,-0.002247,-0.003751,-0.027991,0.009613,-0.012814,-0.006203,0.002882
1624165713901100397,188,1624165713901100397,0.00232,-0.003639,-0.002868,0.99976,-0.000231,0.021707,-0.002754,-0.020257,-0.025338,0.021172,0.013027,0.061004,-0.002219
1624165714001096487,189,1624165714001096487,-0.000461,0.002782,-0.004069,0.999739,0.000204,0.022666,-0.002528,-0.011351,0.001659,0.000226,0.008279,0.02352,-0.017706
1624165714101092577,190,1624165714101092577,-0.001942,0.011108,-0.006786,0.999701,0.001135,0.024252,-0.002843,-0.001028,0.016107,-0.010514,-0.00276,0.015043,-0.005157
1624165714201088667,191,1624165714201088667,-0.005573,0.015702,-0.012167,0.999743,0.000944,0.022396,-0.003248,-0.007022,0.012291,-0.028189,0.007417,-0.027392,0.010906
1624165714301084518,192,1624165714301084518,-0.002587,0.018085,-0.013777,0.999782,0.000514,0.020564,-0.003318,0.025115,0.015243,-0.039398,0.015426,-0.0694,0.020286
1624165714401080608,193,1624165714401080608,0.001769,0.019163,-0.01438,0.999829,-0.000237,0.018194,-0.003236,0.018736,0.009285,-0.025087,-0.029152,-0.045844,0.0163
1624165714501076698,194,1624165714501076698,0.005618,0.003862,-0.008981,0.999863,-0.000382,0.016254,-0.002791,0.013447,-0.019437,0.004066,-0.00793,-0.008829,0.004356
1624165714601072788,195,1624165714601072788,0.006731,-0.004598,-0.008311,0.999857,-0.000285,0.016653,-0.002659,0.002934,-0.036137,0.010045,0.004061,0.024642,0.009939
1624165714701068878,196,1624165714701068878,0.008918,-0.005007,-0.006081,0.999823,-0.000969,0.018495,-0.003037,0.002793,-0.036509,0.050546,0.005461,0.063684,0.023978
1624165714801064730,197,1624165714801064730,0.006241,0.000835,0.002869,0.999744,-0.001998,0.022073,-0.004489,-0.009738,-0.019441,0.191696,0.054242,0.099488,0.032685
1624165714901060820,198,1624165714901060820,0.000436,-0.018589,0.03531,0.999627,-0.00306,0.025243,-0.009898,-0.043542,-0.068283,0.35625,0.088904,-0.028362,0.020105
1624165715001056910,199,1624165715001056910,-0.00679,-0.045125,0.083057,0.999619,-0.003223,0.022914,-0.015022,-0.074518,-0.131143,0.539697,0.053114,-0.070048,0.019853
1624165715101052999,200,1624165715101052999,-0.015264,-0.08569,0.148096,0.99967,-0.002864,0.019637,-0.016261,-0.086398,-0.212218,0.748505,0.082234,-0.076258,0.019972
1624165715201048851,201,1624165715201048851,-0.024029,-0.118838,0.238274,0.999764,-0.002903,0.014974,-0.015439,-0.093001,-0.267633,0.958636,0.06455,-0.152636,0.040892
1624165715301044941,202,1624165715301044941,-0.03256,-0.107142,0.350864,0.999814,-0.00341,0.00999,-0.016115,-0.088883,-0.212759,1.17502,0.006025,-0.116927,0.009354
1624165715401041031,203,1624165715401041031,-0.034723,-0.121792,0.469048,0.999809,-0.003413,0.003436,-0.018882,-0.05634,-0.22161,1.339271,0.030492,-0.096937,-0.006898
1624165715501037121,204,1624165715501037121,-0.039837,-0.141102,0.607902,0.999766,-0.003286,-0.001613,-0.021293,-0.020942,-0.251425,1.494466,0.054224,-0.083192,0.008643
1624165715601033211,205,1624165715601033211,-0.039339,-0.150391,0.758022,0.999767,-0.003239,-0.001868,-0.021236,0.029781,-0.25247,1.636957,-0.030737,0.037178,-0.005273
1624165715701029062,206,1624165715701029062,-0.040129,-0.163346,0.924701,0.999837,-0.003489,0.002969,-0.017448,0.055212,-0.257729,1.750118,-0.07063,0.129236,0.002497
1624165715801025152,207,1624165715801025152,-0.039387,-0.183443,1.090636,0.999848,-0.003862,0.009553,-0.014006,0.060676,-0.279335,1.806219,-0.160812,0.175916,0.010218
1624165715901021242,208,1624165715901021242,-0.035245,-0.220476,1.276179,0.999825,-0.004233,0.017577,-0.0048,0.05127,-0.296114,1.857732,-0.130121,0.145095,0.011985
1624165716001017332,209,1624165716001017332,-0.030763,-0.237917,1.459426,0.999735,-0.004177,0.02258,0.001231,0.036444,-0.260172,1.848039,-0.143288,0.071533,0.008714
1624165716101013184,210,1624165716101013184,-0.028493,-0.272253,1.649058,0.999672,-0.003583,0.024891,0.004718,0.010737,-0.249038,1.798539,0.055876,-0.066355,0.001384
1624165716201009274,211,1624165716201009274,-0.030186,-0.3025,1.829001,0.99983,-0.004089,0.017973,0.000267,-0.018818,-0.240935,1.754101,0.141182,-0.171312,0.014556
1624165716301005363,212,1624165716301005363,-0.031976,-0.322001,2.000082,0.999911,-0.003946,0.010855,-0.006556,-0.017856,-0.227898,1.703884,0.063988,-0.139693,0.004662
1624165716401001453,213,1624165716401001453,-0.027667,-0.328843,2.156968,0.999958,-0.003606,0.003672,-0.007516,0.007648,-0.198385,1.547482,0.01629,-0.154228,0.013415
1624165716500997305,214,1624165716500997305,-0.025332,-0.366957,2.309042,0.999967,-0.003754,-0.000954,-0.007102,0.036975,-0.242992,1.473518,-0.007573,0.026345,0.005356
1624165716600993395,215,1624165716600993395,-0.023012,-0.386196,2.456369,0.999987,-0.003779,0.002011,-0.002476,0.058685,-0.236556,1.350486,-0.085677,0.046036,0.000102
1624165716700989485,216,1624165716700989485,-0.010557,-0.418371,2.585466,0.999984,-0.004048,0.003661,0.001203,0.084945,-0.246597,1.186197,-0.093644,0.039261,-0.007009
1624165716800985575,217,1624165716800985575,0.005709,-0.446891,2.696077,0.999964,-0.003732,0.005295,0.005431,0.114319,-0.243161,1.048481,-0.091571,0.035252,-0.004137
1624165716900981665,218,1624165716900981665,0.01935,-0.47787,2.797245,0.999938,-0.003963,0.007017,0.007653,0.132416,-0.245821,0.995107,0.002403,0.023868,0.017932
1624165717000977516,219,1624165717000977516,0.037451,-0.505981,2.898802,0.999859,-0.00393,0.00858,0.013852,0.151499,-0.224201,0.986567,-0.158404,0.014523,0.000449
1624165717100973606,220,1624165717100973606,0.05171,-0.51871,2.993573,0.999791,-0.003861,0.009457,0.017702,0.152031,-0.16749,0.930776,0.029341,0.023773,0.024365
1624165717200969696,221,1624165717200969696,0.068627,-0.527764,3.08374,0.999826,-0.004163,0.009456,0.015522,0.159067,-0.1074,0.890722,-0.001645,0.014508,-0.01115
1624165717300965786,222,1624165717300965786,0.090572,-0.550408,3.167656,0.999859,-0.001181,0.008761,0.014246,0.177788,-0.077846,0.808637,0.001807,-0.015176,-0.100752
1624165717400961637,223,1624165717400961637,0.108867,-0.552325,3.248069,0.999835,0.005859,0.007746,0.015347,0.184462,-0.03184,0.774706,-0.061874,-0.024317,-0.137231
1624165717500957727,224,1624165717500957727,0.125549,-0.549995,3.325165,0.999683,0.014128,0.006851,0.019673,0.186165,0.026598,0.723472,-0.090377,-0.036258,-0.176009
1624165717600953817,225,1624165717600953817,0.143337,-0.542424,3.390932,0.99945,0.023364,0.005757,0.022782,0.194631,0.081839,0.615753,-0.064514,-0.02768,-0.184069
1624165717700949907,226,1624165717700949907,0.163127,-0.524493,3.447345,0.999208,0.03349,0.005608,0.020725,0.208207,0.150153,0.560924,0.053275,-0.003744,-0.186651
1624165717800945997,227,1624165717800945997,0.182013,-0.517833,3.504034,0.998859,0.043483,0.005056,0.01906,0.212247,0.170365,0.559898,-0.002535,0.022345,-0.189254
1624165717900941849,228,1624165717900941849,0.206511,-0.50077,3.557869,0.998367,0.05396,0.004899,0.018062,0.227427,0.207202,0.517476,0.024948,0.014889,-0.205285
1624165718000937939,229,1624165718000937939,0.232052,-0.48119,3.609874,0.9978,0.063698,0.004833,0.017706,0.247024,0.237063,0.503024,-0.035741,-0.013689,-0.194287
1624165718100934029,230,1624165718100934029,0.260719,-0.453607,3.656344,0.997016,0.073697,0.006112,0.022113,0.262126,0.288213,0.463307,-0.077628,0.020553,-0.210696
1624165718200930119,231,1624165718200930119,0.2843,-0.41678,3.703031,0.996092,0.084011,0.007362,0.026231,0.263279,0.344985,0.408357,-0.030478,0.035835,-0.180102
1624165718300925970,232,1624165718300925970,0.309268,-0.371345,3.740585,0.995238,0.093393,0.008367,0.026593,0.263013,0.422239,0.362558,0.068888,0.011543,-0.171991
1624165718400922060,233,1624165718400922060,0.337959,-0.338518,3.777798,0.994147,0.104195,0.009833,0.02679,0.264389,0.451387,0.332633,-0.083005,0.035601,-0.214339
1624165718500918150,234,1624165718500918150,0.362098,-0.264603,3.803176,0.992901,0.115266,0.010101,0.027551,0.259769,0.553782,0.198717,0.005952,0.025886,-0.219024
1624165718600914240,235,1624165718600914240,0.384786,-0.198484,3.819866,0.991694,0.125447,0.011344,0.025987,0.249215,0.616392,0.123077,0.082911,0.015822,-0.180921
1624165718700910330,236,1624165718700910330,0.412162,-0.138479,3.832461,0.990709,0.134085,0.013081,0.018582,0.248225,0.659071,0.110797,0.199735,0.076089,-0.16594
1624165718800906181,237,1624165718800906181,0.444848,-0.086711,3.851099,0.989591,0.142952,0.014113,0.008601,0.260121,0.656168,0.101519,0.21958,0.051236,-0.160969
1624165718900902271,238,1624165718900902271,0.465541,-0.014739,3.855453,0.988171,0.152465,0.015686,-0.005073,0.239149,0.684215,0.038903,0.194732,0.047431,-0.211611
1624165719000898361,239,1624165719000898361,0.490387,0.058607,3.859127,0.986015,0.165171,0.017942,-0.013057,0.229565,0.689758,0.009416,0.099486,0.059345,-0.285615
1624165719100894451,240,1624165719100894451,0.515413,0.123325,3.862112,0.983135,0.18096,0.020799,-0.016264,0.220453,0.663683,-0.004605,0.032629,0.038596,-0.31856
1624165719200890303,241,1624165719200890303,0.537413,0.172758,3.871475,0.979871,0.197486,0.023582,-0.017158,0.195742,0.614733,0.022749,0.083335,0.030579,-0.332597
1624165719300886393,242,1624165719300886393,0.558427,0.222929,3.871403,0.976377,0.213703,0.026597,-0.017597,0.169994,0.560854,0.020158,0.005941,0.060089,-0.352434
1624165719400882483,243,1624165719400882483,0.574842,0.268497,3.875313,0.972569,0.230282,0.028294,-0.016653,0.134948,0.510711,0.01953,-0.060767,0.028755,-0.369277
1624165719500878572,244,1624165719500878572,0.588383,0.32042,3.874943,0.967786,0.249528,0.03001,-0.014944,0.09641,0.487454,0.017745,-0.010845,0.01798,-0.406282
1624165719600874662,245,1624165719600874662,0.598206,0.356152,3.874665,0.963013,0.267263,0.031782,-0.012835,0.06476,0.421488,0.0256,-0.029003,0.005418,-0.362583
1624165719700870514,246,1624165719700870514,0.597195,0.408682,3.880399,0.957731,0.285606,0.032798,-0.010196,0.000294,0.432543,0.044015,-0.009231,-0.009305,-0.405774
1624165719800866604,247,1624165719800866604,0.602081,0.453435,3.878902,0.952061,0.304046,0.032644,-0.008331,-0.02121,0.403411,0.035848,-0.027739,-0.027549,-0.346647
1624165719900862694,248,1624165719900862694,0.60025,0.500193,3.880334,0.947537,0.317959,0.032032,-0.006899,-0.044432,0.376683,0.037565,0.022476,-0.017878,-0.257099
1624165720000858784,249,1624165720000858784,0.604076,0.527214,3.884259,0.94331,0.330365,0.031355,-0.006344,-0.065952,0.343204,0.050576,-0.020354,0.000549,-0.23863
1624165720100854635,250,1624165720100854635,0.600362,0.556242,3.887945,0.938881,0.342744,0.031491,-0.005948,-0.106486,0.330244,0.057048,-0.007872,-0.031503,-0.267555
1624165720200850725,251,1624165720200850725,0.591512,0.594609,3.886886,0.933906,0.356075,0.031327,-0.006842,-0.137709,0.325957,0.055702,0.056145,-0.013483,-0.24857
1624165720300846815,252,1624165720300846815,0.582633,0.619589,3.89452,0.929437,0.367619,0.030772,-0.007334,-0.156212,0.28883,0.099724,-0.022436,0.050569,-0.235162
1624165720400842905,253,1624165720400842905,0.568501,0.641993,3.902559,0.92499,0.378532,0.032253,-0.008032,-0.189552,0.25862,0.102973,-0.031788,0.027534,-0.228566
1624165720500838995,254,1624165720500838995,0.552626,0.659844,3.918781,0.920782,0.388501,0.034219,-0.007389,-0.220095,0.213567,0.118966,-0.021445,-0.001901,-0.207258
1624165720600834846,255,1624165720600834846,0.530179,0.676638,3.925496,0.916775,0.398474,0.026541,-0.005999,-0.259366,0.180786,0.028263,0.039039,-0.237001,-0.181108
1624165720700830936,256,1624165720700830936,0.509627,0.677929,3.929318,0.912411,0.408785,0.01976,-0.0032,-0.277546,0.154757,0.068677,0.021641,-0.094107,-0.219186
1624165720800827026,257,1624165720800827026,0.48325,0.686426,3.936077,0.907387,0.419965,0.016455,-0.002341,-0.297209,0.137744,0.045686,-0.033155,-0.12756,-0.239272
1624165720900823116,258,1624165720900823116,0.45611,0.701742,3.943698,0.901926,0.431725,0.011873,9e-06,-0.316323,0.156847,0.051681,-0.004038,-0.013585,-0.300105
1624165721000818968,259,1624165721000818968,0.427958,0.720749,3.948719,0.895291,0.445346,0.010891,2e-05,-0.316194,0.172476,0.032633,0.014575,-0.021211,-0.285653
1624165721100815058,260,1624165721100815058,0.401477,0.740372,3.949298,0.889008,0.457721,0.012417,-0.000959,-0.309218,0.190128,0.043644,0.005815,0.131685,-0.260199
1624165721200811148,261,1624165721200811148,0.369705,0.752123,3.953267,0.882605,0.469811,0.016577,-0.003076,-0.331556,0.175511,0.033981,0.027161,0.084895,-0.246288
1624165721300807238,262,1624165721300807238,0.343761,0.762812,3.956431,0.875211,0.483301,0.019846,-0.00543,-0.359124,0.170194,0.026398,0.093489,0.068223,-0.345848
1624165721400803328,263,1624165721400803328,0.312209,0.777546,3.956669,0.867894,0.496202,0.02217,-0.007159,-0.347386,0.146644,0.002493,-0.028355,0.040666,-0.269187
1624165721500799179,264,1624165721500799179,0.278783,0.795662,3.953695,0.86142,0.507247,0.024211,-0.00832,-0.364239,0.131395,-0.012663,0.016156,0.042811,-0.247572
1624165721600795269,265,1624165721600795269,0.249493,0.807543,3.952191,0.855478,0.517182,0.02468,-0.008301,-0.367101,0.109271,-0.032488,-0.009803,-0.036312,-0.210326
1624165721700791359,266,1624165721700791359,0.222114,0.803126,3.945049,0.850374,0.525531,0.024637,-0.008522,-0.358323,0.060032,-0.045581,0.031716,-0.01633,-0.165641
1624165721800787449,267,1624165721800787449,0.193153,0.804549,3.939733,0.845689,0.533047,0.024159,-0.009253,-0.365779,0.043038,-0.06245,0.023715,-0.043591,-0.170387
1624165721900783300,268,1624165721900783300,0.161783,0.80612,3.930945,0.840446,0.541334,0.022815,-0.009254,-0.375937,0.032095,-0.08639,0.025379,-0.045928,-0.193537
1624165722000779390,269,1624165722000779390,0.132212,0.804335,3.926692,0.834692,0.550206,0.021442,-0.010079,-0.38564,0.015243,-0.076584,0.042003,-0.036989,-0.203897
1624165722100775480,270,1624165722100775480,0.094242,0.809121,3.921542,0.827894,0.560472,0.019415,-0.009183,-0.421541,0.012192,-0.071806,0.046804,-0.046358,-0.262205
1624165722200771570,271,1624165722200771570,0.060659,0.793973,3.91853,0.821716,0.569623,0.010618,-0.01409,-0.412219,-0.038505,-0.0492,0.308392,-0.084226,-0.178517
1624165722300767660,272,1624165722300767660,0.026774,0.78953,3.917912,0.816533,0.576561,-0.003793,-0.028899,-0.380123,-0.0542,-0.013194,0.45229,-0.047459,-0.159157
1624165722400763512,273,1624165722400763512,-0.001699,0.781078,3.916089,0.810593,0.584095,-0.013434,-0.03987,-0.298117,-0.081466,-0.01042,0.235181,-0.039148,-0.163161
1624165722500759602,274,1624165722500759602,-0.021869,0.76181,3.914724,0.804477,0.592382,-0.015643,-0.040687,-0.202401,-0.131143,-0.010875,-0.22546,-0.03649,-0.222775
1624165722600755692,275,1624165722600755692,-0.027586,0.740168,3.911442,0.798554,0.601002,-0.009425,-0.031901,-0.115749,-0.160031,-0.016313,-0.217227,-0.017485,-0.208933
1624165722700751781,276,1624165722700751781,-0.026784,0.717924,3.906561,0.793168,0.608626,-0.002685,-0.021223,-0.051631,-0.181622,-0.024756,-0.265256,0.004464,-0.186253
1624165722800747633,277,1624165722800747633,-0.022317,0.695394,3.900101,0.787156,0.616619,0.002909,-0.012514,-0.027448,-0.19557,-0.035168,-0.073773,-0.022738,-0.175059
1624165722900743723,278,1624165722900743723,-0.017454,0.668962,3.897092,0.781249,0.624201,0.003113,-0.003397,-0.02174,-0.214289,-0.083694,-0.174669,-0.230655,-0.200415
1624165723000739813,279,1624165723000739813,-0.005048,0.64874,3.881065,0.77561,0.631153,-0.00304,0.008059,0.003894,-0.185247,-0.111464,-0.046875,-0.265373,-0.157797
1624165723100735903,280,1624165723100735903,0.004622,0.636453,3.869974,0.770859,0.63684,-0.005414,0.013406,0.019729,-0.117596,-0.062129,0.014327,-0.065828,-0.119629
1624165723200731993,281,1624165723200731993,0.016346,0.628888,3.864269,0.766217,0.642265,-0.009717,0.017633,0.015077,-0.053379,-0.076548,-0.010183,-0.082996,-0.167754
1624165723300727844,282,1624165723300727844,0.024493,0.626145,3.855213,0.759794,0.649829,-0.011338,0.017487,0.018634,0.001485,-0.103683,0.0213,-0.12712,-0.160731
1624165723400723934,283,1624165723400723934,0.038511,0.612509,3.845228,0.755038,0.655002,-0.018375,0.023465,0.049146,0.024194,-0.124365,0.032512,-0.207028,-0.099121
1624165723500720024,284,1624165723500720024,0.054557,0.624522,3.837094,0.75203,0.658123,-0.025409,0.026029,0.075811,0.14265,-0.035183,0.072493,0.023849,-0.077474
1624165723600716114,285,1624165723600716114,0.067997,0.652703,3.838572,0.750534,0.660193,-0.023786,0.016648,0.097537,0.262493,0.055374,0.05484,0.25877,-0.060508
1624165723700711966,286,1624165723700711966,0.09252,0.671619,3.850587,0.748342,0.663181,-0.011747,0.005999,0.143496,0.306258,0.109458,-0.063747,0.357839,-0.059791
1624165723800708055,287,1624165723800708055,0.107788,0.695102,3.862549,0.745699,0.666246,0.005607,-0.004,0.127247,0.308223,0.131346,-0.118776,0.381829,-0.117537
1624165723900704145,288,1624165723900704145,0.125786,0.713842,3.880349,0.741473,0.670575,0.020733,-0.010749,0.118933,0.255279,0.128803,-0.099793,0.256441,-0.099287
1624165724000700235,289,1624165724000700235,0.146824,0.727081,3.893781,0.737686,0.674329,0.029999,-0.014119,0.115838,0.185841,0.109466,-0.032044,0.123353,-0.094208
1624165724100696325,290,1624165724100696325,0.159673,0.744643,3.898838,0.733694,0.678424,0.034131,-0.016345,0.077882,0.132333,0.082753,-0.01644,0.038145,-0.106294
1624165724200692177,291,1624165724200692177,0.184039,0.756337,3.900224,0.729443,0.683015,0.033717,-0.016275,0.082278,0.076416,0.05547,-0.006349,-0.052768,-0.104866
1624165724300688267,292,1624165724300688267,0.195649,0.7608,3.903812,0.724939,0.6879,0.031842,-0.015526,0.048607,0.030572,0.044294,0.05741,-0.048296,-0.150316
1624165724400684357,293,1624165724400684357,0.203981,0.763475,3.905008,0.718912,0.694316,0.029936,-0.013919,0.02225,-0.014648,0.025292,0.022231,-0.048794,-0.177871
1624165724500680447,294,1624165724500680447,0.218407,0.752937,3.903514,0.713085,0.700445,0.027229,-0.012006,0.017924,-0.066873,0.002737,0.053129,-0.063585,-0.157888
1624165724600676298,295,1624165724600676298,0.228637,0.749449,3.901968,0.707221,0.706477,0.025398,-0.009042,7.3e-05,-0.091691,-0.011017,0.026719,-0.03056,-0.190631
1624165724700672388,296,1624165724700672388,0.239271,0.732871,3.899997,0.700648,0.713104,0.022718,-0.007582,0.000142,-0.132515,-0.035669,-0.001896,-0.066587,-0.177805
1624165724800668478,297,1624165724800668478,0.250582,0.723931,3.893387,0.694071,0.719582,0.020987,-0.005014,-0.008891,-0.150709,-0.040031,-0.032329,-0.038039,-0.193583
1624165724900664568,298,1624165724900664568,0.255505,0.705894,3.88497,0.68705,0.726367,0.018451,-0.003326,-0.025543,-0.173509,-0.043683,-0.014868,-0.066798,-0.197872
1624165725000660658,299,1624165725000660658,0.267867,0.678355,3.877742,0.680097,0.732917,0.017307,0.000391,-0.019476,-0.207614,-0.03653,-0.060402,-0.06765,-0.188389
1624165725100656509,300,1624165725100656509,0.274892,0.657526,3.871238,0.672873,0.73957,0.016169,0.003829,-0.035803,-0.210584,-0.034452,0.009121,-0.036255,-0.182799
1624165725200652599,301,1624165725200652599,0.277481,0.63027,3.868742,0.666361,0.745471,0.01424,0.005642,-0.061027,-0.227882,0.000586,0.007028,-0.011417,-0.170946
1624165725300648689,302,1624165725300648689,0.281184,0.614229,3.869158,0.659935,0.751184,0.012923,0.006284,-0.072196,-0.212645,0.015714,0.034176,-0.041727,-0.168552
1624165725400644779,303,1624165725400644779,0.276264,0.59857,3.869609,0.652851,0.757376,0.011378,0.00602,-0.095706,-0.20097,0.026228,0.057766,-0.017691,-0.187386
1624165725500640631,304,1624165725500640631,0.284193,0.569,3.869962,0.645954,0.763303,0.009406,0.004664,-0.091647,-0.212435,0.037542,0.01174,0.018978,-0.191803
1624165725600636721,305,1624165725600636721,0.280617,0.548015,3.869516,0.638987,0.769149,0.008871,0.005099,-0.117417,-0.211086,0.033583,-0.033476,-0.004522,-0.196455
1624165725700632811,306,1624165725700632811,0.279412,0.534646,3.874971,0.630684,0.775977,0.008468,0.004868,-0.119572,-0.193689,0.044839,0.005005,-0.020888,-0.204507
1624165725800628901,307,1624165725800628901,0.281782,0.513536,3.87366,0.622722,0.782365,0.008859,0.006544,-0.096184,-0.186227,0.029726,-0.052011,-0.056588,-0.168548
1624165725900624990,308,1624165725900624990,0.285873,0.499713,3.870472,0.616465,0.787301,0.008586,0.007246,-0.093504,-0.169934,0.037598,-0.054727,0.001727,-0.145349
1624165726000620842,309,1624165726000620842,0.286582,0.48004,3.872246,0.60945,0.792703,0.010019,0.009473,-0.110713,-0.167322,0.049254,-0.056011,-0.024621,-0.182812
1624165726100616932,310,1624165726100616932,0.282626,0.454877,3.877455,0.601829,0.798516,0.009369,0.009232,-0.13689,-0.181807,0.057641,0.030261,-0.005334,-0.212507
1624165726200613022,311,1624165726200613022,0.28047,0.432696,3.879667,0.593134,0.804973,0.010647,0.00978,-0.136704,-0.185034,0.04498,-0.064142,-0.018864,-0.2102
1624165726300609112,312,1624165726300609112,0.272336,0.414669,3.880584,0.584435,0.81128,0.011935,0.010794,-0.163178,-0.184174,0.012259,-0.015912,-0.022724,-0.22559
1624165726400604963,313,1624165726400604963,0.267293,0.392067,3.882679,0.575453,0.817686,0.011694,0.010267,-0.170325,-0.192321,-0.011395,0.011034,-0.010067,-0.212901
1624165726500601053,314,1624165726500601053,0.255756,0.371355,3.87924,0.565494,0.824603,0.011809,0.01027,-0.203446,-0.202072,-0.028221,0.017651,0.002451,-0.25047
1624165726600597143,315,1624165726600597143,0.245861,0.349513,3.873867,0.555319,0.831509,0.010882,0.009695,-0.210404,-0.207052,-0.045161,0.014992,0.00075,-0.235428
1624165726700593233,316,1624165726700593233,0.237439,0.327375,3.871272,0.545551,0.837957,0.009999,0.010032,-0.19898,-0.203368,-0.048237,0.028519,0.020975,-0.181213
1624165726800589323,317,1624165726800589323,0.222422,0.314296,3.858888,0.538374,0.842605,0.009281,0.00911,-0.213478,-0.184525,-0.086679,0.017431,-0.027734,-0.186479
1624165726900585175,318,1624165726900585175,0.218526,0.290144,3.848316,0.531759,0.846815,0.009239,0.00705,-0.195397,-0.175724,-0.041236,0.078451,0.172518,-0.103499
1624165727000581264,319,1624165727000581264,0.206017,0.271652,3.846443,0.527228,0.849597,0.013926,-0.004555,-0.194951,-0.181004,-0.006836,0.044594,0.300031,-0.077202
1624165727100577354,320,1624165727100577354,0.198453,0.250196,3.842382,0.523921,0.85152,0.01653,-0.012051,-0.166168,-0.226064,-0.106395,-0.007146,-0.007992,-0.066215
1624165727200573444,321,1624165727200573444,0.191618,0.229523,3.832045,0.521069,0.8534,0.011575,-0.007726,-0.142944,-0.246936,-0.144295,-0.002418,-0.164054,-0.047465
1624165727300569296,322,1624165727300569296,0.192032,0.195183,3.81403,0.520473,0.853853,0.00539,-0.003554,-0.115886,-0.268936,-0.165833,0.070927,-0.154667,0.005021
1624165727400565386,323,1624165727400565386,0.188694,0.176921,3.792721,0.52106,0.853483,-0.005449,-0.005655,-0.124158,-0.256341,-0.150411,0.458608,0.020954,0.023359
1624165727500561476,324,1624165727500561476,0.19116,0.144017,3.772572,0.52086,0.853114,-0.0252,-0.016295,-0.076852,-0.246117,-0.152691,0.445249,-0.009697,0.018848
1624165727600557566,325,1624165727600557566,0.20013,0.123538,3.755928,0.519733,0.853217,-0.037029,-0.022921,0.022644,-0.193424,-0.143911,0.007134,-0.022548,-0.047649
1624165727700553656,326,1624165727700553656,0.214121,0.101611,3.740701,0.517331,0.854695,-0.036295,-0.023383,0.106119,-0.163933,-0.116046,-0.099583,0.025881,-0.082867
1624165727800549507,327,1624165727800549507,0.236196,0.088708,3.727581,0.51322,0.857572,-0.027653,-0.020237,0.177315,-0.12454,-0.100567,-0.164798,0.00723,-0.120153
1624165727900545597,328,1624165727900545597,0.267572,0.078448,3.716193,0.507174,0.861428,-0.020861,-0.016706,0.229205,-0.102786,-0.093951,-0.111382,-0.007042,-0.182396
1624165728000541687,329,1624165728000541687,0.301246,0.070491,3.69848,0.498492,0.866681,-0.014117,-0.012991,0.264782,-0.094287,-0.112828,-0.103219,-0.034337,-0.220902
1624165728100537777,330,1624165728100537777,0.337437,0.05499,3.699784,0.489396,0.87194,-0.011009,-0.009434,0.301295,-0.102696,-0.05515,-0.109792,-0.007761,-0.220213
1624165728200533628,331,1624165728200533628,0.37691,0.046143,3.693933,0.478847,0.877835,-0.008433,-0.006268,0.31767,-0.08916,-0.027714,-0.059804,-0.003354,-0.256581
1624165728300529718,332,1624165728300529718,0.419828,0.036762,3.694798,0.467698,0.883872,-0.004399,-0.002801,0.349507,-0.079384,-0.016911,-0.106464,-0.032179,-0.223682
1624165728400525808,333,1624165728400525808,0.462439,0.033926,3.684929,0.457516,0.889197,0.001746,0.001709,0.362117,-0.063547,-0.033142,-0.162322,-0.052568,-0.200153
1624165728500521898,334,1624165728500521898,0.507384,0.031572,3.678613,0.447795,0.894095,0.005591,0.006491,0.348016,-0.063159,-0.02875,-0.083197,-0.030014,-0.219739
1624165728600517988,335,1624165728600517988,0.548891,0.017146,3.67519,0.437148,0.899308,0.007186,0.009663,0.318333,-0.097038,-0.024538,-0.094681,-0.065687,-0.250789
1624165728700513840,336,1624165728700513840,0.593,0.011924,3.666913,0.424689,0.905213,0.006973,0.013363,0.287877,-0.102546,-0.026645,-0.02522,-0.064994,-0.304255
1624165728800509930,337,1624165728800509930,0.638031,-0.001442,3.666511,0.410557,0.911669,0.00641,0.01613,0.277166,-0.108958,0.008208,-0.001433,-0.069022,-0.310267
1624165728900506020,338,1624165728900506020,0.675458,-0.017452,3.669176,0.396284,0.91798,0.001354,0.01641,0.246827,-0.114128,0.054013,0.214344,0.021998,-0.28012
1624165729000502110,339,1624165729000502110,0.71143,-0.016577,3.677145,0.383734,0.923304,-0.006069,0.014844,0.237164,-0.069782,0.070944,0.103794,-0.001956,-0.282082
1624165729100497961,340,1624165729100497961,0.748356,-0.021657,3.68155,0.370333,0.928728,-0.011176,0.013834,0.237284,-0.050191,0.063159,0.043762,-0.060418,-0.297563
1624165729200494051,341,1624165729200494051,0.782124,-0.027165,3.680638,0.356004,0.934244,-0.017775,0.011488,0.227268,-0.025077,0.056839,0.190018,-0.034835,-0.292079
1624165729300490141,342,1624165729300490141,0.816297,-0.02599,3.678779,0.341087,0.939741,-0.021353,0.009484,0.228206,0.017673,0.041355,0.064743,0.057446,-0.306324
1624165729400486231,343,1624165729400486231,0.855207,-0.026117,3.677803,0.325267,0.945387,-0.019613,0.007703,0.2404,0.047529,0.014176,-0.040408,0.068564,-0.3539
1624165729500482321,344,1624165729500482321,0.890468,-0.020469,3.688522,0.307916,0.951278,-0.014363,0.007134,0.24853,0.069472,0.009387,-0.136484,0.037641,-0.4008
1624165729600478172,345,1624165729600478172,0.926152,-0.005081,3.688356,0.28861,0.957387,-0.007338,0.007736,0.251924,0.107533,-0.020773,-0.227065,-0.005351,-0.393654
1624165729700474262,346,1624165729700474262,0.961993,0.007952,3.681137,0.271024,0.962513,0.00121,0.010603,0.256205,0.121778,-0.051858,-0.137161,-0.061223,-0.348198
1624165729800470352,347,1624165729800470352,0.996105,0.017747,3.673036,0.252642,0.967445,0.005221,0.013944,0.227562,0.097568,-0.062797,0.006333,-0.014122,-0.351048
1624165729900466442,348,1624165729900466442,1.028581,0.020866,3.670486,0.236116,0.971574,0.006028,0.016002,0.198573,0.071382,-0.052376,-0.03812,0.00447,-0.333125
1624165730000462294,349,1624165730000462294,1.061078,0.026406,3.665003,0.220965,0.975152,0.006151,0.014624,0.185345,0.073483,-0.062374,-0.041565,0.014804,-0.287682
1624165730100458384,350,1624165730100458384,1.091255,0.03138,3.660227,0.207949,0.978043,0.005084,0.012696,0.171368,0.057849,-0.044629,0.021114,0.028157,-0.237934
1624165730200454473,351,1624165730200454473,1.118333,0.04615,3.652172,0.197316,0.980256,0.004748,0.011861,0.159856,0.06695,-0.05903,0.046481,-0.022576,-0.187293
1624165730300450563,352,1624165730300450563,1.147365,0.056105,3.644142,0.189488,0.981787,0.004279,0.01301,0.151443,0.069545,-0.052988,-0.006646,0.007258,-0.139348
1624165730400446415,353,1624165730400446415,1.178487,0.059433,3.633368,0.183379,0.982935,0.003291,0.014138,0.151537,0.056263,-0.067121,0.033891,-0.09407,-0.103161
1624165730500442505,354,1624165730500442505,1.203214,0.068882,3.620323,0.177111,0.984054,0.0031,0.016107,0.119715,0.048487,-0.081653,-0.006445,-0.059247,-0.121604
1624165730600438595,355,1624165730600438595,1.228578,0.06869,3.614201,0.170019,0.985283,0.003593,0.017224,0.103844,0.014715,-0.04743,0.02941,-0.035742,-0.137433
1624165730700434685,356,1624165730700434685,1.247947,0.074224,3.614041,0.163434,0.986382,0.002281,0.018278,0.067941,0.013764,-0.012579,-0.052998,0.013077,-0.137406
1624165730800430775,357,1624165730800430775,1.264683,0.072018,3.610564,0.154824,0.98776,0.002406,0.018776,0.036973,-0.023227,0.015279,0.007642,-0.018558,-0.200422
1624165730900426626,358,1624165730900426626,1.278016,0.080457,3.609542,0.144531,0.989312,0.000466,0.019268,-0.000266,-0.032893,0.017604,0.066375,-0.024658,-0.269329
1624165731000422716,359,1624165731000422716,1.292875,0.070701,3.612007,0.127383,0.991625,-0.001502,0.0212,-0.016195,-0.085623,0.023473,0.031814,-0.041062,-0.385446
1624165731100418806,360,1624165731100418806,1.296303,0.068756,3.620392,0.104677,0.994234,-0.00148,0.023195,-0.056497,-0.104488,0.047838,-0.059052,-0.026906,-0.484396
1624165731200414896,361,1624165731200414896,1.30582,0.063426,3.628427,0.079079,0.996563,-0.000764,0.024657,-0.071153,-0.108384,0.063563,-0.049707,-0.061048,-0.506385
1624165731300410748,362,1624165731300410748,1.30563,0.053378,3.631362,0.055879,0.998093,-0.001043,0.026176,-0.103011,-0.085522,0.064446,0.009503,-0.071967,-0.391226
