time,field.header.seq,field.header.stamp,field.pose.pose.position.x,field.pose.pose.position.y,field.pose.pose.position.z,field.pose.pose.orientation.x,field.pose.pose.orientation.y,field.pose.pose.orientation.z,field.pose.pose.orientation.w,field.twist.twist.linear.x,field.twist.twist.linear.y,field.twist.twist.linear.z,field.twist.twist.angular.x,field.twist.twist.angular.y,field.twist.twist.angular.z
1609055135194787264,2,1609055135194787264,0.00438,0.006951,-0.002496,0.99949,0.00034,0.031872,-0.001636,0.013147,0.007389,0.009206,0.022491,0.008501,-0.008662
1609055135297675610,3,1609055135297675610,0.010584,0.006121,-0.004952,0.999494,0.000762,0.031753,-0.001155,0.024842,0.004087,-0.000461,0.023068,0.005114,-0.0099
1609055135369527578,4,1609055135369527578,0.015947,0.005694,-0.003923,0.999487,0.000657,0.032,-0.00094,0.031833,-0.003522,-0.001833,-0.00071,-8.8e-05,0.009872
1609055135469685078,5,1609055135469685078,0.006325,0.004307,-0.001265,0.999497,0.000429,0.031685,-0.001071,0.009167,-0.005387,0.003847,0.003234,0.001124,0.009523
1609055135572892427,6,1609055135572892427,0.004972,0.002209,-0.000672,0.999486,0.000364,0.03201,-0.001254,0.004157,-0.010817,0.005436,0.006007,0.003442,0.006818
1609055135676001549,7,1609055135676001549,0.002194,0.00146,-0.000924,0.99948,0.000245,0.032183,-0.001489,-0.002617,-0.011621,0.002002,0.003001,0.000462,0.005729
1609055135779322624,8,1609055135779322624,0.000111,0.00028,-0.000524,0.999478,0.000131,0.032245,-0.001473,-0.006528,-0.01313,0.002088,0.006901,0.005405,0.003791
1609055135882319450,9,1609055135882319450,-0.002639,-0.001098,-0.001217,0.999488,0.000182,0.031959,-0.001247,-0.010699,-0.013098,0.000362,0.008474,0.001932,0.002114
1609055135985357523,10,1609055135985357523,-0.000374,0.003274,-0.001938,0.999494,0.00026,0.031765,-0.001204,-0.005235,-0.001919,-0.001343,0.016171,0.00697,-0.002717
1609055136088402510,11,1609055136088402510,-0.001507,0.003142,-0.002565,0.999495,0.000361,0.031732,-0.001118,-0.00587,-0.000812,-0.001847,0.017945,0.008428,-0.006187
1609055136191488504,12,1609055136191488504,0.001326,0.005635,-0.002668,0.999492,0.000374,0.03183,-0.001307,0.000407,0.003271,-0.003192,0.019397,0.00824,-0.00619
1609055136294738054,13,1609055136294738054,0.0,0.004705,-0.004506,0.999489,0.000163,0.031938,-0.00127,-0.002734,0.001765,-0.006213,0.020045,0.007188,-0.00665
1609055136397681952,14,1609055136397681952,-0.001199,0.001569,-0.0054,0.999492,0.000334,0.031822,-0.001122,-0.0035,-0.003991,-0.006652,0.022324,0.011744,-0.009548
1609055136469608545,15,1609055136469608545,0.002439,0.005356,-0.005475,0.999476,8.8e-05,0.032318,-0.001119,0.002104,-0.002844,-0.010151,0.001203,0.000426,0.009646
1609055136569804192,16,1609055136569804192,0.00272,0.00682,-0.002831,0.999487,0.000296,0.031994,-0.001141,0.001586,-0.001387,-0.002119,0.000909,-0.000968,0.01108
1609055136672887564,17,1609055136672887564,0.001739,0.005176,-0.003157,0.999486,0.000188,0.032019,-0.001311,-0.000337,-0.005405,-0.001618,0.003822,0.002094,0.008359
1609055136775919437,18,1609055136775919437,0.001187,0.004837,-0.003614,0.999483,-3.1e-05,0.032128,-0.001059,-0.001893,-0.00345,-0.001083,0.007603,0.002839,0.003525
1609055136879291058,19,1609055136879291058,0.001218,0.002448,-0.003266,0.999487,0.000231,0.031981,-0.001371,-0.000866,-0.007593,9.5e-05,0.011482,0.005332,0.001127
1609055136982205868,20,1609055136982205868,-0.001387,0.003883,-0.002435,0.999486,0.00012,0.032,-0.001313,-0.007169,-0.003023,0.000298,0.012511,0.007225,-0.001022
1609055137085417509,21,1609055137085417509,-0.002613,0.004096,-0.002357,0.999493,0.000141,0.031821,-0.001018,-0.008097,-0.001177,0.000493,0.014015,0.007716,-0.000569
1609055137188630104,22,1609055137188630104,-0.001463,0.007638,-0.003943,0.999491,-7.4e-05,0.031877,-0.001107,-0.005422,0.006731,-0.002142,0.014734,0.006625,-0.00381
1609055137291611195,23,1609055137291611195,-0.001637,0.004093,-0.003037,0.99947,7.3e-05,0.032503,-0.001493,-0.006118,-0.002385,-0.00034,0.020171,0.008807,-0.008319
1609055137394832611,24,1609055137394832611,0.001793,0.008368,-0.002972,0.999485,0.000257,0.03205,-0.000896,0.001732,0.008374,3.6e-05,0.021475,0.009066,-0.009485
1609055137497732878,25,1609055137497732878,5.6e-05,0.009165,-0.003382,0.999473,7.2e-05,0.032408,-0.001428,-0.001701,0.008603,-0.000804,0.022665,0.010702,-0.009896
1609055137569763899,26,1609055137569763899,0.002354,0.008509,-0.004549,0.999466,0.000154,0.032639,-0.001493,0.002128,-0.001081,-0.008311,-6e-06,-0.001901,0.010361
1609055137670088291,27,1609055137670088291,0.000783,0.005236,-0.002714,0.999485,0.000214,0.03205,-0.001453,0.00047,-0.008249,-0.001208,0.000555,0.000491,0.009118
1609055137773097754,28,1609055137773097754,0.00222,0.008446,-0.003577,0.999482,0.00021,0.032124,-0.001569,0.001672,-0.000924,-0.002303,0.00388,0.001508,0.007268
1609055137876194477,29,1609055137876194477,-0.000542,0.005034,-0.003271,0.99948,9.6e-05,0.032181,-0.001677,-0.003613,-0.00829,-0.000959,0.007608,0.003481,0.00368
1609055137979385614,30,1609055137979385614,-0.000737,0.007243,-0.00306,0.999476,9e-05,0.032321,-0.001543,-0.004744,-0.001907,-0.000353,0.008207,0.003163,0.001958
1609055138082436800,31,1609055138082436800,-0.000503,0.004482,-0.0035,0.999479,0.000221,0.032223,-0.001572,-0.002869,-0.008861,-0.002536,0.012978,0.007246,-0.00097
1609055138185598373,32,1609055138185598373,-0.001294,0.001837,-0.003472,0.999477,0.000318,0.032267,-0.001669,-0.003621,-0.012746,-0.002054,0.015844,0.006806,-0.003614
1609055138288430691,33,1609055138288430691,-0.001223,0.002157,-0.003265,0.99949,0.000128,0.031888,-0.001187,-0.003213,-0.008616,-0.000497,0.017162,0.007729,-0.005032
1609055138391639709,34,1609055138391639709,-0.001596,0.002505,-0.003756,0.999488,0.000204,0.031963,-0.001226,-0.004148,-0.005428,-0.002399,0.019744,0.007245,-0.007161
1609055138498102665,35,1609055138498102665,-0.001594,0.000873,-0.005773,0.999472,0.000218,0.032461,-0.001017,-0.004151,-0.007188,-0.009363,0.024466,0.00994,-0.010896
1609055138570419550,36,1609055138570419550,-0.002634,0.000833,-0.007072,0.999472,0.000125,0.032458,-0.00082,-0.006046,-0.011191,-0.014226,0.001527,0.001046,0.009268
1609055138671918392,37,1609055138671918392,-0.00317,3e-05,-0.006472,0.999468,8.1e-05,0.032574,-0.001098,-0.006408,-0.01165,-0.010827,0.002145,0.00121,0.008758
1609055138775399446,38,1609055138775399446,-0.003414,0.001852,-0.006328,0.999467,0.000119,0.032612,-0.001265,-0.007683,-0.006269,-0.01008,0.006732,0.003804,0.004577
1609055138879186630,39,1609055138879186630,-0.003757,-0.000356,-0.007741,0.999462,0.000161,0.032759,-0.001267,-0.007614,-0.009104,-0.011771,0.008433,0.005362,0.002682
1609055138981231689,40,1609055138981231689,-0.005274,0.003268,-0.008566,0.999444,-0.000144,0.033272,-0.001668,-0.010545,0.000871,-0.012134,0.01175,0.005024,0.000102
1609055139084480762,41,1609055139084480762,-0.002659,0.002984,-0.009168,0.999452,0.000377,0.033063,-0.001201,-0.003105,0.001654,-0.012966,0.015449,0.00819,-0.00183
1609055139188335419,42,1609055139188335419,-2.9e-05,0.006781,-0.007518,0.999453,0.000271,0.033036,-0.001219,0.001253,0.010053,-0.007665,0.018443,0.00701,-0.006174
1609055139289583921,43,1609055139289583921,-0.000281,0.008031,-0.007235,0.999459,0.000139,0.032847,-0.00119,0.000271,0.011413,-0.005801,0.018414,0.007364,-0.006188
1609055139392522335,44,1609055139392522335,-0.003824,0.005119,-0.007301,0.999454,4.1e-05,0.033,-0.001628,-0.007464,0.004295,-0.006729,0.021335,0.006527,-0.007678
1609055139496001244,45,1609055139496001244,-0.001506,0.006686,-0.006707,0.999456,0.000202,0.03294,-0.001505,-0.002389,0.007381,-0.007559,0.02087,0.008211,-0.007904
1609055139599014521,46,1609055139599014521,-6.2e-05,0.006163,-0.006603,0.999456,0.000377,0.032934,-0.001091,-0.000445,0.006504,-0.004943,0.022372,0.010513,-0.0103
1609055139669296503,47,1609055139669296503,0.00125,0.008901,-0.006872,0.999469,0.000148,0.032571,-0.000887,0.002405,0.006528,-0.007213,0.00144,0.00133,0.00944
1609055139771072865,48,1609055139771072865,0.001544,0.008697,-0.005639,0.999469,0.000174,0.032535,-0.001566,0.003252,0.003285,-0.005346,0.003473,0.001755,0.007049
1609055139874389648,49,1609055139874389648,-0.000874,0.002231,-0.003856,0.99946,0.000219,0.032778,-0.002098,-0.00215,-0.01423,-0.003921,0.005172,0.001981,0.00631
1609055139977259398,50,1609055139977259398,-0.002931,0.001907,-0.004231,0.999458,0.000144,0.032816,-0.002196,-0.007065,-0.013105,-0.004968,0.007956,0.003368,0.004589
1609055140080521584,51,1609055140080521584,-0.004665,0.000228,-0.005637,0.99946,7.6e-05,0.032811,-0.001728,-0.008932,-0.013094,-0.007665,0.00759,0.006171,0.003625
1609055140183890343,52,1609055140183890343,-0.005728,-0.001119,-0.005564,0.99946,0.000125,0.032779,-0.001905,-0.00988,-0.013757,-0.007282,0.014545,0.007952,-0.001746
1609055140286782503,53,1609055140286782503,-0.004102,-0.001142,-0.005365,0.999471,0.000276,0.032427,-0.002045,-0.005258,-0.012625,-0.008275,0.017142,0.006008,-0.001515
1609055140389881849,54,1609055140389881849,-0.004397,-0.000604,-0.007156,0.999489,0.00042,0.031898,-0.00171,-0.003353,-0.009704,-0.01168,0.018865,0.005273,-0.00776
1609055140493188143,55,1609055140493188143,-0.006004,-0.004083,-0.007403,0.999484,0.000189,0.032065,-0.001718,-0.006048,-0.015239,-0.009139,0.021492,0.00757,-0.008314
1609055140596115112,56,1609055140596115112,-0.005752,-0.002426,-0.005782,0.999477,-9e-06,0.032272,-0.001751,-0.00668,-0.009865,-0.00481,0.022788,0.009413,-0.010237
1609055140700333834,57,1609055140700333834,-0.005725,-0.001131,-0.008648,0.999486,0.000239,0.032024,-0.00124,-0.006399,-0.00292,-0.008838,0.022163,0.010828,-0.009737
1609055140769939899,58,1609055140769939899,-0.003747,0.003897,-0.009522,0.999467,5.5e-05,0.032602,-0.001328,-0.003973,0.00061,-0.014399,0.001291,0.00321,0.009037
1609055140871591091,59,1609055140871591091,-0.00435,0.006424,-0.005961,0.999482,-0.000216,0.032117,-0.001511,-0.00336,0.004754,-0.004493,0.00011,-0.002575,0.009067
1609055140974408627,60,1609055140974408627,-0.000604,0.006525,-0.006136,0.999479,0.000131,0.032227,-0.00152,0.003463,0.000375,-0.004278,0.002799,0.001267,0.008542
1609055141077489376,61,1609055141077489376,-0.000137,0.006317,-0.006276,0.999474,0.000203,0.032383,-0.001548,0.002784,-0.000653,-0.004208,0.008357,0.005417,0.004555
1609055141181153059,62,1609055141181153059,0.002655,0.008394,-0.008011,0.999472,0.000167,0.032464,-0.001265,0.006767,0.004543,-0.007692,0.011733,0.008567,-0.000335
1609055141283681631,63,1609055141283681631,-0.001264,0.006348,-0.008215,0.999465,-3e-06,0.032646,-0.001513,-0.00205,-0.000761,-0.007395,0.011914,0.007524,0.000616
1609055141386656284,64,1609055141386656284,-0.002,0.005548,-0.007676,0.999466,8.5e-05,0.032625,-0.001317,-0.003639,-0.002073,-0.007412,0.015994,0.004541,-0.004293
1609055141489892244,65,1609055141489892244,-0.002569,0.005105,-0.004871,0.999481,-4e-06,0.032155,-0.001517,-0.004145,-0.002494,-0.001089,0.019929,0.010354,-0.006184
1609055141592767477,66,1609055141592767477,-0.00369,0.004081,-0.004256,0.999474,3.6e-05,0.032356,-0.001681,-0.006943,-0.003467,-0.001164,0.018898,0.006668,-0.007328
1609055141696143627,67,1609055141696143627,-0.004379,0.004766,-0.004085,0.999468,4.2e-05,0.032547,-0.001612,-0.00777,-0.000136,-0.004182,0.023307,0.009827,-0.010076
1609055141799069166,68,1609055141799069166,-0.004419,0.004155,-0.006127,0.999474,-4e-06,0.032369,-0.001692,-0.005848,-0.00161,-0.00791,0.023681,0.007132,-0.010566
1609055141869473696,69,1609055141869473696,-0.00394,0.005845,-0.00816,0.999455,-0.000213,0.032933,-0.002003,-0.005625,-0.005917,-0.016917,-0.00058,0.001047,0.010587
1609055141971397400,70,1609055141971397400,-0.00546,0.001245,-0.003814,0.999474,-0.000115,0.03238,-0.001746,-0.006625,-0.014022,-0.00402,0.00307,0.002837,0.008315
1609055142074043036,71,1609055142074043036,-0.004423,0.001238,-0.004809,0.999477,0.0001,0.032275,-0.001858,-0.003491,-0.012749,-0.004164,0.004356,0.001782,0.006994
1609055142177167416,72,1609055142177167416,-0.003448,0.000715,-0.006132,0.999474,0.000118,0.032375,-0.001841,-0.001863,-0.012434,-0.006236,0.006449,0.005711,0.003212
1609055142280574322,73,1609055142280574322,-0.002404,0.003917,-0.005522,0.999462,7.5e-05,0.032744,-0.001759,-0.002539,-0.003736,-0.004752,0.008739,0.004109,0.003029
1609055142383740664,74,1609055142383740664,-0.002245,0.003364,-0.006534,0.999462,0.000144,0.032734,-0.001509,-0.001636,-0.00294,-0.006885,0.015219,0.008702,-0.002455
1609055142487863302,75,1609055142487863302,-0.003113,0.001553,-0.007225,0.999465,0.000324,0.032653,-0.001234,-0.003058,-0.00422,-0.008728,0.016355,0.006857,-0.004884
1609055142590128183,76,1609055142590128183,-0.005442,0.002993,-0.004741,0.999483,5.8e-05,0.032107,-0.001465,-0.006718,-0.000644,-0.002054,0.019735,0.007351,-0.006375
1609055142692801476,77,1609055142692801476,-0.005774,0.001936,-0.004022,0.999472,0.00021,0.03245,-0.001519,-0.006404,-0.003678,-0.003963,0.02217,0.005384,-0.008446
1609055142795998096,78,1609055142795998096,-0.005574,0.002187,-0.004318,0.999468,0.000164,0.032557,-0.001814,-0.005078,-0.004589,-0.008024,0.019552,0.00819,-0.008409
1609055142898846149,79,1609055142898846149,-0.000101,0.005456,-0.006243,0.999476,0.000435,0.032317,-0.001395,0.005717,0.003759,-0.011429,0.022919,0.009537,-0.009792
1609055142969356298,80,1609055142969356298,0.001425,0.005253,-0.007478,0.999461,0.000351,0.032787,-0.001366,0.007943,-0.004061,-0.018336,-0.000542,-0.000447,0.010632
1609055143073289394,81,1609055143073289394,-0.000822,0.001534,-0.007974,0.999468,0.000265,0.032559,-0.001546,0.003998,-0.010432,-0.018568,0.004119,0.002867,0.006272
1609055143173997879,82,1609055143173997879,-0.00358,-0.000567,-0.007401,0.99949,8e-06,0.031885,-0.001582,-0.00102,-0.011802,-0.01088,0.006368,0.002302,0.004967
1609055143277559042,83,1609055143277559042,-0.002851,0.00319,-0.007802,0.999481,1.7e-05,0.032171,-0.001617,-0.001722,-0.002973,-0.008822,0.007699,0.005803,0.003775
1609055143381267548,84,1609055143381267548,-0.003456,0.004948,-0.008484,0.999468,2.3e-05,0.032562,-0.001634,-0.004424,0.000585,-0.011639,0.007774,0.004455,0.002321
1609055143483867884,85,1609055143483867884,-0.002296,0.004967,-0.00821,0.999475,0.000126,0.032338,-0.001481,-0.000833,0.000102,-0.008927,0.01382,0.007339,-0.000407
1609055143586970091,86,1609055143586970091,-0.002168,0.007324,-0.007932,0.999465,0.000177,0.032628,-0.001971,-0.00227,0.002126,-0.008093,0.017346,0.006837,-0.003055
1609055143690078497,87,1609055143690078497,-0.004934,0.007004,-0.005219,0.99948,-2.9e-05,0.032163,-0.001967,-0.006155,0.001416,0.000212,0.017919,0.008345,-0.006326
1609055143793278456,88,1609055143793278456,-0.004212,0.006036,-0.006675,0.999481,0.000121,0.032155,-0.00174,-0.003246,-0.000107,-0.004368,0.02018,0.008394,-0.009513
1609055143896554947,89,1609055143896554947,-0.005137,0.004973,-0.006529,0.999472,-9.3e-05,0.032438,-0.001579,-0.005273,-0.001334,-0.005255,0.022145,0.00993,-0.010954
1609055143999361992,90,1609055143999361992,-0.003883,0.009913,-0.006876,0.999475,3.2e-05,0.032343,-0.001673,-0.003283,0.007546,-0.005414,0.022588,0.010276,-0.010211
1609055144069704533,91,1609055144069704533,-0.002198,0.01048,-0.005782,0.999477,9.1e-05,0.032277,-0.001585,-0.000154,-0.000385,-0.003542,-0.000272,0.001897,0.009655
1609055144171433449,92,1609055144171433449,-0.000603,0.009562,-0.005454,0.99948,0.000252,0.032196,-0.001532,0.003836,-0.004698,-0.002144,0.002077,0.00201,0.009015
1609055144274325371,93,1609055144274325371,-0.003015,0.009492,-0.005554,0.999486,-6e-05,0.031986,-0.001802,-0.000444,-0.004904,-0.001798,0.003844,0.000301,0.006377
1609055144377553940,94,1609055144377553940,-0.005427,0.007563,-0.00515,0.999477,-0.000109,0.032277,-0.001811,-0.005417,-0.007145,0.000764,0.007695,0.002473,0.00217
1609055144482353449,95,1609055144482353449,-0.003148,0.007049,-0.005046,0.999483,-3.5e-05,0.03209,-0.001948,-0.000351,-0.009106,0.0021,0.011456,0.005619,-0.000299
1609055144584256411,96,1609055144584256411,-0.002963,0.003747,-0.004959,0.999485,0.000177,0.032025,-0.001732,-0.000875,-0.01466,0.003856,0.016814,0.00308,-0.000942
1609055144691246986,97,1609055144691246986,-0.00234,0.004787,-0.006102,0.999474,0.00015,0.032378,-0.001637,9.9e-05,-0.008041,0.000271,0.020656,0.008792,-0.007632
1609055144794765711,98,1609055144794765711,-0.003461,0.003423,-0.007554,0.99946,5.7e-05,0.032823,-0.001511,-0.002615,-0.008254,-0.004909,0.021723,0.006632,-0.008535
1609055144897527456,99,1609055144897527456,-0.004178,0.001712,-0.006308,0.999471,5.8e-05,0.032462,-0.001637,-0.005017,-0.00937,0.000516,0.024698,0.007218,-0.011351
1609055144969637156,100,1609055144969637156,-0.002126,0.00047,-0.006919,0.999454,0.000158,0.032975,-0.001548,-0.001055,-0.017091,-0.006563,-0.000255,0.000325,0.008718
1609055145069844961,101,1609055145069844961,-0.004198,-0.002635,-0.005048,0.999471,-1.7e-05,0.032484,-0.001338,-0.003054,-0.017898,-0.002968,0.00176,0.001452,0.009952
1609055145172804356,102,1609055145172804356,-0.004573,-0.000775,-0.00937,0.999466,-2.1e-05,0.032617,-0.001372,-0.003261,-0.008246,-0.013157,0.005334,0.001976,0.005851
1609055145275603771,103,1609055145275603771,-0.000587,0.003368,-0.010531,0.999463,6e-05,0.032714,-0.00129,0.001599,0.002478,-0.013476,0.007885,0.003656,0.003279
1609055145383765221,104,1609055145383765221,-0.001146,0.0059,-0.008269,0.999463,-0.000128,0.032714,-0.001351,-0.001314,0.007909,-0.00604,0.014815,0.00577,5.5e-05
1609055145486662626,105,1609055145486662626,-0.000851,0.005683,-0.008192,0.999475,8.3e-05,0.032351,-0.001195,0.000318,0.008307,-0.006432,0.01711,0.006272,-0.004655
1609055145589866638,106,1609055145589866638,-0.001817,0.005777,-0.007099,0.999465,0.000278,0.032663,-0.00133,-0.002328,0.005587,-0.007183,0.019127,0.007768,-0.00524
1609055145694107294,107,1609055145694107294,-0.001481,0.004115,-0.009059,0.999477,0.000306,0.032275,-0.001501,0.000488,0.000738,-0.010219,0.02028,0.005002,-0.007459
1609055145795924664,108,1609055145795924664,-0.000815,0.002988,-0.009645,0.99947,0.000219,0.032496,-0.001569,0.00201,-0.002127,-0.012542,0.023522,0.006826,-0.010375
1609055145899274349,109,1609055145899274349,-0.002588,0.000412,-0.010698,0.999474,0.000276,0.032376,-0.001288,-0.001288,-0.006319,-0.01223,0.022624,0.011415,-0.009204
1609055145969696045,110,1609055145969696045,-0.001449,0.003164,-0.010773,0.999478,0.000212,0.032265,-0.001143,0.000518,-0.006974,-0.013649,0.00028,0.00023,0.011623
1609055146073385477,111,1609055146073385477,-0.004473,-0.001224,-0.009655,0.999477,0.000252,0.032294,-0.00157,-0.003253,-0.018793,-0.012138,0.003572,0.003979,0.008393
1609055146174312830,112,1609055146174312830,-0.002793,-0.000741,-0.00934,0.999467,0.00015,0.032592,-0.001635,7.8e-05,-0.015365,-0.011248,0.002696,0.003495,0.008236
1609055146277687550,113,1609055146277687550,-0.002064,0.00241,-0.009031,0.999472,7.8e-05,0.032445,-0.001417,0.000159,-0.004926,-0.007872,0.006397,0.004026,0.003805
1609055146381156921,114,1609055146381156921,-0.000537,0.007679,-0.00825,0.999472,5.5e-05,0.032436,-0.001301,0.001953,0.007558,-0.004796,0.01068,0.005879,-0.000291
1609055146483739853,115,1609055146483739853,-0.003075,0.005215,-0.009811,0.999472,5e-05,0.032447,-0.001599,-0.002351,-0.000228,-0.007729,0.015952,0.00658,-0.002692
1609055146587285757,116,1609055146587285757,-0.002298,0.006542,-0.008077,0.999476,0.00013,0.032337,-0.001136,-0.001239,0.003841,-0.003467,0.019132,0.006654,-0.004337
1609055146690243244,117,1609055146690243244,-0.003145,0.003632,-0.008046,0.999468,-4.6e-05,0.032567,-0.001178,-0.002024,-0.003331,-0.00393,0.016813,0.009356,-0.005448
1609055146792874336,118,1609055146792874336,-0.004325,-0.000937,-0.007079,0.999468,0.000261,0.032577,-0.001211,-0.002931,-0.012056,-0.000685,0.020466,0.007861,-0.006178
1609055146895936966,119,1609055146895936966,-0.007715,-0.003383,-0.005932,0.999469,0.000203,0.032531,-0.001462,-0.008182,-0.013695,-0.000455,0.021726,0.006853,-0.010897
1609055146999186039,120,1609055146999186039,-0.005501,-0.001585,-0.005888,0.999471,0.000299,0.032486,-0.001166,-0.003304,-0.006707,-0.001826,0.023738,0.00917,-0.010725
1609055147069931746,121,1609055147069931746,-0.002597,0.003556,-0.008512,0.999478,0.000296,0.032277,-0.000787,0.002543,0.000465,-0.009979,0.001788,0.000731,0.00978
1609055147171777487,122,1609055147171777487,-0.002784,0.003538,-0.007809,0.999478,0.000233,0.032261,-0.00105,0.001864,-9.3e-05,-0.008725,0.002258,0.002499,0.008861
1609055147273991585,123,1609055147273991585,-0.002856,0.004602,-0.007721,0.999469,0.000194,0.03253,-0.001431,0.000934,-0.000344,-0.008114,0.003816,0.003614,0.008708
1609055147377135992,124,1609055147377135992,-0.004281,0.003658,-0.004999,0.999481,5.3e-05,0.032174,-0.00126,-0.002015,-0.000193,0.001294,0.008022,0.006652,0.003278
1609055147480468273,125,1609055147480468273,-0.002633,0.003959,-0.0066,0.999473,-7e-06,0.032417,-0.001192,0.001681,0.001228,-0.003544,0.008029,0.002777,0.002267
1609055147583860397,126,1609055147583860397,-0.001207,0.00523,-0.007737,0.999473,-2.6e-05,0.032433,-0.001263,0.003037,0.003477,-0.005175,0.014605,0.004598,-0.002163
1609055147686503887,127,1609055147686503887,-0.002706,0.004094,-0.008068,0.999469,0.000262,0.032527,-0.001421,-0.002089,-0.000423,-0.005752,0.016001,0.007361,-0.002265
1609055147789752007,128,1609055147789752007,-0.005047,0.004703,-0.005946,0.999457,0.000271,0.032872,-0.001752,-0.00835,0.000656,-0.000989,0.017828,0.006729,-0.004711
1609055147892858028,129,1609055147892858028,-0.002879,0.00453,-0.005821,0.999471,0.000327,0.032466,-0.001394,-0.001362,0.001342,0.000245,0.020604,0.004473,-0.007148
1609055147997189045,130,1609055147997189045,0.00016,0.004744,-0.006384,0.999471,0.000635,0.032447,-0.001705,0.004991,0.001181,-0.005148,0.022717,0.005275,-0.010866
1609055148099416494,131,1609055148099416494,-0.003462,0.007089,-0.004733,0.999462,0.000428,0.032725,-0.001884,-0.003595,0.00702,-0.001439,0.022399,0.008887,-0.009657
1609055148169565439,132,1609055148169565439,-0.006008,0.005636,-0.00626,0.999468,-0.000141,0.032553,-0.001731,-0.007675,-0.003224,-0.006426,0.000686,0.001565,0.010961
1609055148271074057,133,1609055148271074057,-0.003641,0.006802,-0.005723,0.999465,1e-06,0.032642,-0.00171,-0.001652,-0.002024,-0.007458,0.000979,0.002213,0.00862
1609055148374405384,134,1609055148374405384,-0.001934,0.00697,-0.007137,0.999468,8.7e-05,0.032539,-0.001745,0.001624,-0.003248,-0.009828,0.006176,0.005222,0.005369
1609055148478417635,135,1609055148478417635,0.000161,0.006964,-0.006987,0.999472,0.000321,0.032428,-0.001423,0.005722,-0.002145,-0.008471,0.008545,0.003906,0.004824
1609055148583073616,136,1609055148583073616,0.001722,0.004333,-0.007923,0.99947,0.000576,0.032508,-0.001083,0.008575,-0.005724,-0.008938,0.013623,0.007461,0.000112
1609055148683632374,137,1609055148683632374,0.00378,0.006519,-0.008646,0.999471,0.000506,0.032485,-0.000883,0.009711,0.002214,-0.008982,0.015712,0.005965,-0.001552
1609055148788128853,138,1609055148788128853,0.001409,0.005862,-0.007657,0.999466,0.000148,0.03265,-0.001038,0.002528,0.001754,-0.006781,0.018473,0.008618,-0.005997
1609055148889712811,139,1609055148889712811,0.001934,0.006581,-0.008131,0.999467,0.000229,0.032631,-0.000647,0.001919,0.003833,-0.006436,0.017812,0.011099,-0.006023
1609055148993099689,140,1609055148993099689,0.002171,0.002578,-0.007269,0.999455,0.000391,0.032995,-0.000878,0.001386,-0.004508,-0.004228,0.019539,0.007029,-0.007051
1609055149096170425,141,1609055149096170425,-0.001672,-0.001584,-0.006906,0.999455,0.000239,0.032965,-0.001324,-0.00627,-0.011078,-0.005637,0.023172,0.00781,-0.009328
1609055149199381351,142,1609055149199381351,-0.003901,0.001742,-0.007352,0.999455,0.000151,0.032984,-0.001272,-0.009696,-0.000889,-0.005968,0.021165,0.009616,-0.010913
1609055149269495249,143,1609055149269495249,-1e-06,0.005497,-0.008303,0.999459,0.000342,0.032845,-0.001048,-0.001806,0.002421,-0.009108,0.000738,1.4e-05,0.008396
1609055149371571064,144,1609055149371571064,1.3e-05,0.007175,-0.0074,0.999464,0.000305,0.032701,-0.001066,-0.000976,0.006912,-0.006294,0.005714,0.001593,0.005739
1609055149474489212,145,1609055149474489212,-0.000887,0.006978,-0.008014,0.999464,0.000195,0.032718,-0.000972,-0.001459,0.005409,-0.007348,0.006417,0.003385,0.006827
1609055149578661919,146,1609055149578661919,0.000656,0.006885,-0.006642,0.999468,0.000243,0.03257,-0.001429,0.001488,0.004628,-0.002616,0.012437,0.004001,0.000695
1609055149682505131,147,1609055149682505131,0.001132,0.004906,-0.006573,0.999465,0.000334,0.032663,-0.001308,0.001195,0.001345,-0.002138,0.014415,0.006366,-0.003053
1609055149785044193,148,1609055149785044193,0.002515,0.00651,-0.005158,0.999464,0.000341,0.032694,-0.001446,0.003293,0.005578,-0.002038,0.015131,0.009577,-0.001629
1609055149887864351,149,1609055149887864351,0.005316,0.009285,-0.004935,0.999466,0.000441,0.032616,-0.001388,0.00845,0.011192,-0.004973,0.019834,0.007553,-0.00452
1609055149991185665,150,1609055149991185665,0.006703,0.011395,-0.007244,0.999465,0.000542,0.032649,-0.001408,0.00905,0.014189,-0.011205,0.021753,0.003797,-0.007666
1609055150094257116,151,1609055150094257116,0.004792,0.011116,-0.007188,0.99946,0.000559,0.032793,-0.001632,0.00314,0.010991,-0.010657,0.0224,0.007221,-0.008411
1609055150198007345,152,1609055150198007345,0.004977,0.009996,-0.006475,0.999462,0.0007,0.03273,-0.001759,0.002506,0.007358,-0.010389,0.023412,0.009026,-0.011249
1609055150300303221,153,1609055150300303221,0.004626,0.00952,-0.006935,0.999464,0.000767,0.032663,-0.001928,0.000477,0.005813,-0.008847,0.02408,0.010192,-0.010822
1609055150370502949,154,1609055150370502949,0.00119,0.004333,-0.008692,0.999466,0.000267,0.0326,-0.001769,-0.00504,-0.01208,-0.014172,0.002096,0.000425,0.010177
1609055150473219872,155,1609055150473219872,0.002072,0.00256,-0.008418,0.999475,0.000496,0.032356,-0.001375,-0.001102,-0.013036,-0.012878,0.005558,0.003661,0.005688
1609055150575227261,156,1609055150575227261,0.000322,-0.000971,-0.007208,0.99947,0.000296,0.032506,-0.001601,-0.00451,-0.018949,-0.008267,0.006841,0.002194,0.004692
1609055150678193092,157,1609055150678193092,0.001344,-0.001223,-0.008322,0.999476,0.000338,0.032317,-0.001509,-0.002496,-0.015127,-0.00959,0.008757,0.003413,0.002915
1609055150781237364,158,1609055150781237364,0.001884,-0.002737,-0.00827,0.999469,0.000405,0.032519,-0.001519,-0.002035,-0.015541,-0.008936,0.012021,0.005108,-0.000422
1609055150884617329,159,1609055150884617329,0.004138,6.6e-05,-0.009756,0.999478,0.00053,0.032253,-0.001346,0.001242,-0.006608,-0.010226,0.014293,0.009146,6.6e-05
1609055150987571478,160,1609055150987571478,-0.001193,-0.002181,-0.008877,0.999469,0.000187,0.03253,-0.001561,-0.008821,-0.008779,-0.008799,0.018066,0.008985,-0.003728
1609055151090301037,161,1609055151090301037,-0.000661,0.001656,-0.007903,0.999465,0.000318,0.032628,-0.001741,-0.007054,-2.6e-05,-0.006768,0.017041,0.008048,-0.00674
1609055151193549871,162,1609055151193549871,-0.001153,0.001368,-0.005959,0.999461,0.000404,0.032766,-0.001805,-0.007274,-0.002234,-0.002208,0.020617,0.005542,-0.007397
1609055151297317028,163,1609055151297317028,6.9e-05,-6.5e-05,-0.005912,0.99946,0.000471,0.032758,-0.002091,-0.004569,-0.005527,-0.004512,0.022453,0.010453,-0.011924
1609055151399702311,164,1609055151399702311,0.000842,0.003202,-0.007115,0.99947,0.000575,0.032464,-0.001977,-0.002384,0.001044,-0.00601,0.02336,0.011312,-0.010132
1609055151470289946,165,1609055151470289946,-0.00267,0.005698,-0.007679,0.999473,-2.9e-05,0.032416,-0.001686,-0.008868,0.000653,-0.008969,-0.000865,0.004604,0.013046
1609055151572476864,166,1609055151572476864,0.000809,0.006371,-0.007379,0.999464,0.000202,0.032678,-0.001737,0.001092,-0.001396,-0.010627,-0.001935,0.00482,0.010042
1609055151675107718,167,1609055151675107718,0.000116,0.004143,-0.009072,0.999469,0.000343,0.032534,-0.00169,0.002567,-0.005786,-0.013858,0.007156,0.000977,0.003973
1609055151777958632,168,1609055151777958632,0.001956,0.006189,-0.010605,0.999479,0.00027,0.032227,-0.001586,0.006892,-0.001602,-0.015477,0.00942,0.002263,0.001193
1609055151881113768,169,1609055151881113768,0.00068,0.005917,-0.009068,0.999475,0.000209,0.032346,-0.001586,0.002333,-0.001249,-0.008979,0.010634,0.005353,-0.000937
1609055151984843493,170,1609055151984843493,-0.003108,0.003253,-0.007381,0.999456,0.00017,0.032913,-0.001847,-0.006473,-0.007921,-0.003035,0.017334,0.010132,-0.003371
1609055152087376595,171,1609055152087376595,-0.004197,0.001556,-0.00689,0.999458,7.1e-05,0.032847,-0.001941,-0.005502,-0.011413,-0.004376,0.015327,0.011067,-0.00363
1609055152190477848,172,1609055152190477848,-0.004314,4.5e-05,-0.00824,0.999466,0.000362,0.032606,-0.001824,-0.002351,-0.013168,-0.008125,0.018478,0.006773,-0.008496
1609055152293439150,173,1609055152293439150,-0.004459,0.001426,-0.009665,0.999466,0.000377,0.032613,-0.001679,-0.000621,-0.00881,-0.011341,0.021033,0.00413,-0.006492
1609055152396142006,174,1609055152396142006,-0.003633,0.000292,-0.009915,0.999471,0.000397,0.03248,-0.001128,0.002248,-0.007527,-0.011643,0.021541,0.007925,-0.00955
1609055152499129057,175,1609055152499129057,-0.002729,0.000933,-0.008511,0.999468,0.00033,0.032558,-0.001428,0.002949,-0.004752,-0.006718,0.023817,0.006356,-0.010977
1609055152569576502,176,1609055152569576502,-0.00458,0.002009,-0.009682,0.999467,6e-05,0.03261,-0.001406,-0.001315,-0.009308,-0.011181,0.000126,0.00259,0.010583
1609055152671526194,177,1609055152671526194,-0.004583,0.004101,-0.008301,0.999466,-6.1e-05,0.032641,-0.00133,0.000534,-0.003977,-0.009655,0.000314,0.005045,0.00768
1609055152774578571,178,1609055152774578571,-0.003994,0.007939,-0.008902,0.999461,-3.7e-05,0.032762,-0.001716,0.001416,0.004263,-0.015209,0.004017,0.000448,0.00371
1609055152877686739,179,1609055152877686739,-0.003,0.005366,-0.008564,0.999461,0.000306,0.032767,-0.001736,0.003647,-0.004247,-0.010819,0.009909,0.003654,0.004415
1609055152980268955,180,1609055152980268955,0.000411,0.00949,-0.0099,0.999469,0.000262,0.032557,-0.001036,0.010159,0.009067,-0.010805,0.011361,0.008006,-0.001924
1609055153083885193,181,1609055153083885193,0.004336,0.008761,-0.010822,0.999464,0.000437,0.032719,-0.000972,0.016773,0.005105,-0.011083,0.014785,0.007924,-0.002356
1609055153186609983,182,1609055153186609983,0.003564,0.007082,-0.010487,0.999462,0.000294,0.032766,-0.001056,0.012888,0.001957,-0.011043,0.018257,0.004035,-0.003602
1609055153289673090,183,1609055153289673090,0.002025,0.005758,-0.011036,0.999463,0.000181,0.032749,-0.001042,0.008365,0.001643,-0.010571,0.021912,0.005785,-0.010481
1609055153392790794,184,1609055153392790794,0.000473,0.003552,-0.010669,0.999472,0.000393,0.032473,-0.000621,0.004594,-0.00088,-0.007773,0.021773,0.0039,-0.007203
1609055153496003389,185,1609055153496003389,0.000195,0.002062,-0.009363,0.999465,0.000221,0.032685,-0.000808,0.00235,-0.001861,-0.004428,0.022053,0.010267,-0.009409
1609055153598738670,186,1609055153598738670,0.001758,0.004711,-0.008637,0.999461,0.000286,0.032784,-0.000913,0.004163,0.005752,-0.002252,0.024875,0.010366,-0.01312
1609055153669197559,187,1609055153669197559,0.001453,0.003971,-0.009191,0.99945,0.000237,0.033127,-0.000642,0.002474,-0.002285,-0.006036,-0.000239,0.001593,0.010415
1609055153771234274,188,1609055153771234274,0.000161,0.004313,-0.009376,0.999453,6e-06,0.033059,-0.000641,0.001859,-7.3e-05,-0.007975,0.000509,0.001055,0.009975
1609055153873862982,189,1609055153873862982,-0.000254,0.004342,-0.00963,0.999452,-1.9e-05,0.03306,-0.001085,0.000948,-0.000553,-0.011471,0.004467,0.000355,0.007165
1609055153976832151,190,1609055153976832151,-0.000657,0.004723,-0.00987,0.999467,0.000218,0.03262,-0.000876,0.000224,0.001225,-0.00986,0.007733,0.00363,0.005126
1609055154079991341,191,1609055154079991341,-0.001725,0.006158,-0.009499,0.999456,0.000134,0.032953,-0.000818,-0.004126,0.006708,-0.007862,0.011965,0.005375,-0.000549
1609055154183711290,192,1609055154183711290,0.000163,0.008113,-0.009545,0.99945,0.000192,0.033124,-0.000963,-0.000746,0.009496,-0.006892,0.013514,0.008202,-0.000132
1609055154286588192,193,1609055154286588192,-0.000675,0.005644,-0.00901,0.999452,0.000166,0.033085,-0.000826,-0.000579,0.003903,-0.007359,0.016827,0.009108,-0.003518
1609055154389662981,194,1609055154389662981,0.000642,0.005816,-0.010182,0.999464,0.000207,0.032717,-0.000713,0.004207,0.006281,-0.010028,0.020095,0.006861,-0.010227
1609055154492826223,195,1609055154492826223,0.000397,0.005389,-0.011549,0.999474,0.00038,0.032409,-0.000507,0.004278,0.005808,-0.0117,0.021318,0.004034,-0.007139
1609055154596606731,196,1609055154596606731,-0.002123,0.003738,-0.012082,0.999466,8.2e-05,0.032663,-0.000886,-0.001951,0.001685,-0.013571,0.023732,0.006059,-0.010261
1609055154698908806,197,1609055154698908806,-0.000852,0.004597,-0.010449,0.999458,0.000201,0.032888,-0.000734,-0.001454,0.003572,-0.006395,0.023267,0.014856,-0.010847
1609055154769126177,198,1609055154769126177,-0.001709,0.002885,-0.010355,0.999463,0.000139,0.032744,-0.000548,-0.002323,-0.005959,-0.007846,0.000519,0.002139,0.012223
1609055154871373653,199,1609055154871373653,-0.000941,0.003742,-0.009702,0.999465,-1.6e-05,0.032668,-0.000919,0.002385,-0.003823,-0.008261,0.002771,0.004734,0.009483
1609055154974017859,200,1609055154974017859,-0.002043,0.002833,-0.009767,0.999469,4.4e-05,0.032556,-0.001128,0.00139,-0.00479,-0.010799,0.004929,0.000103,0.005358
1609055155077124357,201,1609055155077124357,-0.002098,0.004839,-0.010793,0.999465,0.000292,0.032668,-0.00091,0.001693,0.000868,-0.015122,0.008838,0.004605,0.003947
1609055155180445671,202,1609055155180445671,-0.004964,0.003743,-0.010381,0.999461,0.00012,0.032778,-0.001233,-0.006092,-0.000974,-0.009561,0.014638,0.007263,-0.002125
1609055155283693552,203,1609055155283693552,-0.002599,0.005232,-0.009246,0.999444,0.000241,0.033291,-0.001371,-0.001777,0.000241,-0.006449,0.015437,0.010182,-0.001116
1609055155386423111,204,1609055155386423111,-0.005254,5.1e-05,-0.007359,0.999439,5.4e-05,0.033455,-0.001454,-0.005311,-0.010417,-0.004956,0.016512,0.009484,-0.002882
1609055155489398003,205,1609055155489398003,-0.003959,9.4e-05,-0.009496,0.999443,0.000209,0.033314,-0.00152,-0.001477,-0.008043,-0.010468,0.020338,0.009198,-0.007127
1609055155592817068,206,1609055155592817068,-0.004967,-0.000106,-0.009533,0.999451,0.000218,0.033089,-0.001559,-0.003018,-0.005791,-0.008737,0.019721,0.005686,-0.010109
1609055155696581841,207,1609055155696581841,-0.007743,-0.002924,-0.008267,0.999457,1.1e-05,0.032897,-0.001797,-0.007105,-0.011996,-0.006154,0.02353,0.008321,-0.011578
1609055155798721790,208,1609055155798721790,-0.005138,0.00065,-0.008376,0.999462,0.000198,0.032736,-0.001602,-0.002301,-0.003207,-0.005585,0.023355,0.009442,-0.011451
1609055155869126797,209,1609055155869126797,-0.003409,0.003935,-0.009015,0.999463,4e-06,0.032741,-0.001217,0.000171,-0.000685,-0.009284,0.000168,0.004006,0.008988
1609055155971297264,210,1609055155971297264,-0.002105,0.005037,-0.008692,0.999456,-0.000106,0.032944,-0.001474,0.002825,0.000525,-0.009908,0.003817,0.003393,0.00978
1609055156074017525,211,1609055156074017525,-0.002121,0.007295,-0.008856,0.999463,-1.7e-05,0.032724,-0.0012,0.003505,0.006622,-0.012368,0.008245,0.001578,0.003811
1609055156177234411,212,1609055156177234411,-0.000397,0.008787,-0.009516,0.999472,-1.7e-05,0.032461,-0.001091,0.006705,0.007427,-0.016388,0.006805,0.001645,0.003895
1609055156280258656,213,1609055156280258656,9.2e-05,0.008209,-0.010013,0.999478,5.2e-05,0.032275,-0.001062,0.006652,0.004596,-0.013471,0.010781,0.000787,0.001727
1609055156383428812,214,1609055156383428812,0.000333,0.006873,-0.010593,0.999474,8.2e-05,0.032404,-0.001069,0.005329,0.000515,-0.011921,0.011594,0.008375,-0.000708
1609055156486276865,215,1609055156486276865,-0.000566,0.007901,-0.008443,0.999467,0.000101,0.032627,-0.001019,0.001159,0.004365,-0.007589,0.018248,0.009468,-0.004423
1609055156589553356,216,1609055156589553356,-0.001688,0.005285,-0.009646,0.999464,8e-05,0.032695,-0.001233,0.000839,-0.001099,-0.010285,0.020127,0.008088,-0.006869
1609055156692684174,217,1609055156692684174,-0.001892,0.003815,-0.00984,0.999463,0.000206,0.032738,-0.001201,0.00076,-0.004182,-0.011279,0.022779,0.00583,-0.00871
1609055156796438694,218,1609055156796438694,-0.004216,0.001343,-0.007794,0.999466,0.000105,0.03264,-0.001136,-0.004734,-0.008668,-0.006372,0.022119,0.010212,-0.009965
1609055156898828983,219,1609055156898828983,-0.005448,-0.000423,-0.008007,0.999467,8.6e-05,0.032607,-0.001046,-0.007971,-0.010811,-0.006595,0.024759,0.008729,-0.010711
1609055156969201326,220,1609055156969201326,-0.003465,0.003956,-0.007893,0.999481,-7.9e-05,0.032186,-0.000666,-0.00426,-0.00568,-0.00633,0.000393,0.002995,0.010917
1609055157071358204,221,1609055157071358204,-0.001066,0.005684,-0.007353,0.999474,-3.6e-05,0.032392,-0.000853,0.000799,-0.003164,-0.006651,0.001991,0.002015,0.009251
1609055157173789263,222,1609055157173789263,-0.000377,0.006316,-0.00777,0.999473,7.4e-05,0.032434,-0.00116,0.003389,-0.001945,-0.010832,0.006247,0.003254,0.005965
1609055157276909113,223,1609055157276909113,-0.000658,0.008781,-0.007746,0.999477,9.9e-05,0.032296,-0.001391,0.00371,0.003017,-0.009349,0.008113,-0.000815,0.001528
1609055157379994154,224,1609055157379994154,-0.001355,0.004657,-0.009298,0.999488,0.000204,0.031956,-0.001212,0.002456,-0.004632,-0.010762,0.013327,0.005351,-0.001447
1609055157483261347,225,1609055157483261347,-0.003952,1.9e-05,-0.00994,0.999481,-0.000144,0.03216,-0.001369,-0.003573,-0.011737,-0.010467,0.014602,0.00739,-0.001143
1609055157586686611,226,1609055157586686611,-0.004881,-0.003544,-0.009514,0.999484,0.000203,0.032076,-0.001279,-0.003868,-0.017799,-0.007489,0.016032,0.008797,-0.004385
1609055157689653158,227,1609055157689653158,-0.004533,-0.002597,-0.009591,0.999476,0.00022,0.032338,-0.001356,-0.001636,-0.01135,-0.006886,0.020845,0.00749,-0.009215
1609055157792306662,228,1609055157792306662,-0.003744,-0.001927,-0.010474,0.999476,0.000304,0.032334,-0.001252,0.000698,-0.006666,-0.009085,0.022449,0.003841,-0.009449
1609055157895895958,229,1609055157895895958,-0.006052,-0.004544,-0.008464,0.999466,0.000281,0.032617,-0.001673,-0.003601,-0.010895,-0.004819,0.022325,0.007562,-0.009718
1609055157998662233,230,1609055157998662233,-0.005447,0.000771,-0.007753,0.999473,0.000318,0.032388,-0.001662,-0.003558,0.0018,-0.002279,0.023381,0.011597,-0.009976
1609055158069074392,231,1609055158069074392,-0.004488,0.002654,-0.007525,0.999473,-0.000192,0.032425,-0.001495,-0.002292,-0.000605,-0.00412,-0.001041,0.000746,0.010468
1609055158170943975,232,1609055158170943975,-0.003099,-0.000258,-0.006395,0.99947,0.000237,0.032498,-0.001585,0.000935,-0.009469,-0.004299,0.001499,0.000539,0.009296
1609055158273988008,233,1609055158273988008,-0.003741,-0.000292,-0.007133,0.999476,-1.7e-05,0.032349,-0.001054,0.001729,-0.006296,-0.00646,0.004516,0.00223,0.0057
1609055158377055407,234,1609055158377055407,-0.00412,0.000464,-0.007251,0.999475,-0.000149,0.032371,-0.001255,0.001157,-0.004478,-0.008199,0.009631,0.004969,0.002535
1609055158480107546,235,1609055158480107546,-0.003563,0.002003,-0.00626,0.999479,0.000122,0.032233,-0.001557,0.000905,-0.00073,-0.004547,0.01206,0.005682,-0.00126
1609055158583273649,236,1609055158583273649,-0.001059,0.001967,-0.00549,0.999485,0.000459,0.032061,-0.001117,0.005243,2.5e-05,-0.002899,0.017597,0.005679,-0.003007
1609055158686275244,237,1609055158686275244,-0.000887,0.000909,-0.007041,0.999463,0.000171,0.032722,-0.001078,0.004967,-0.001977,-0.008874,0.014469,0.006631,-0.003289
1609055158789316893,238,1609055158789316893,-0.003465,0.001486,-0.007096,0.999463,-2.9e-05,0.032728,-0.001123,-0.000109,-0.000151,-0.008094,0.018829,0.009615,-0.004963
1609055158892553091,239,1609055158892553091,-0.003432,0.003905,-0.008361,0.999479,0.000168,0.032238,-0.001267,0.001206,0.005154,-0.010728,0.021392,0.004259,-0.0085
1609055158995902538,240,1609055158995902538,-0.003502,0.00294,-0.00893,0.999482,0.000197,0.03213,-0.001233,0.002898,0.00258,-0.012245,0.020761,0.007978,-0.009659
1609055159098778725,241,1609055159098778725,-0.003502,0.001676,-0.008811,0.999484,0.000178,0.032082,-0.001065,0.001856,0.001632,-0.010088,0.024188,0.0064,-0.012253
1609055159169205904,242,1609055159169205904,-0.000246,0.002393,-0.00941,0.999491,0.000271,0.031875,-0.000621,0.008092,-0.002954,-0.012287,-0.000477,0.001265,0.009397
1609055159270748615,243,1609055159270748615,-0.000879,0.000543,-0.008913,0.999479,0.000241,0.032249,-0.000998,0.006021,-0.007845,-0.011988,0.001127,0.004578,0.009011
1609055159373700380,244,1609055159373700380,0.000673,0.00092,-0.007417,0.99948,5.8e-05,0.032222,-0.00089,0.009151,-0.006585,-0.009143,0.002776,0.002157,0.008463
1609055159476822853,245,1609055159476822853,0.001299,0.00351,-0.008361,0.999479,4.5e-05,0.032248,-0.000801,0.008688,0.000945,-0.011153,0.008734,0.000822,0.002564
1609055159580052853,246,1609055159580052853,0.006466,0.00723,-0.009779,0.999479,0.000337,0.032249,-0.000752,0.015625,0.006963,-0.013086,0.011263,0.000711,0.001213
1609055159683261871,247,1609055159683261871,0.010123,0.009176,-0.009487,0.999475,0.000446,0.032373,-0.000473,0.017394,0.011507,-0.009443,0.015272,0.007559,-0.00296
1609055159786355972,248,1609055159786355972,0.008259,0.005132,-0.008086,0.999469,0.000325,0.032543,-0.000742,0.011378,0.003902,-0.006361,0.020228,0.009746,-0.00526
1609055159889343023,249,1609055159889343023,0.007863,0.007484,-0.010518,0.999467,0.000165,0.032609,-0.000675,0.009125,0.007624,-0.012244,0.020926,0.00727,-0.00705
1609055159992411137,250,1609055159992411137,0.007507,0.009437,-0.010136,0.999458,6.5e-05,0.032886,-0.00085,0.006726,0.010503,-0.010799,0.021163,0.006037,-0.008027
1609055160095581532,251,1609055160095581532,0.005366,0.008442,-0.009411,0.999464,0.000339,0.032697,-0.000836,0.001489,0.008265,-0.009603,0.02182,0.007446,-0.010799
1609055160198526144,252,1609055160198526144,0.005621,0.009362,-0.009944,0.999463,0.000566,0.03273,-0.000884,-0.000196,0.008776,-0.009331,0.025114,0.008344,-0.010426
1609055160268934727,253,1609055160268934727,0.00427,0.005232,-0.008971,0.999462,0.000314,0.032758,-0.001007,-0.002314,-0.006766,-0.008292,0.002128,0.002606,0.00875
1609055160370729685,254,1609055160370729685,0.002312,0.005112,-0.007396,0.999465,0.000336,0.032666,-0.000848,-0.005269,-0.004525,-0.006513,0.003057,0.004878,0.007049
1609055160473731995,255,1609055160473731995,0.000266,0.004244,-0.008187,0.999462,1.7e-05,0.03277,-0.00043,-0.007933,-0.002486,-0.010487,0.005607,0.004255,0.006696
1609055160577017784,256,1609055160577017784,0.000241,0.005314,-0.009514,0.999452,0.000309,0.033077,-0.000553,-0.006834,0.000778,-0.016028,0.008301,0.003227,0.0037
1609055160680291653,257,1609055160680291653,0.003432,0.009409,-0.012431,0.999441,0.000151,0.033429,-0.000375,0.000415,0.009893,-0.022638,0.009981,0.002273,0.001904
1609055160783167839,258,1609055160783167839,0.006421,0.007089,-0.014497,0.999447,0.000382,0.033242,-1.3e-05,0.004805,0.00528,-0.022847,0.013144,0.005618,-0.00135
1609055160886071444,259,1609055160886071444,0.006234,0.00691,-0.015795,0.99945,0.000279,0.033157,0.000292,0.001923,0.006705,-0.022708,0.018001,0.008692,-0.003455
1609055160989200354,260,1609055160989200354,0.004744,0.004252,-0.015549,0.999466,0.000397,0.03267,6.5e-05,-0.000185,0.001481,-0.016658,0.018578,0.010479,-0.008179
1609055161092299223,261,1609055161092299223,0.00279,0.001017,-0.01523,0.999464,0.00023,0.032711,0.000457,-0.002786,-0.00124,-0.013502,0.01989,0.006152,-0.007629
1609055161195332050,262,1609055161195332050,-0.000294,-0.000948,-0.014065,0.999466,0.000214,0.032653,0.000275,-0.007694,-0.003514,-0.010297,0.021682,0.008867,-0.009067
1609055161298496723,263,1609055161298496723,-0.003096,-0.003452,-0.012084,0.99948,0.000352,0.032241,0.00015,-0.010649,-0.004395,-0.003756,0.024375,0.004866,-0.011475
1609055161368924141,264,1609055161368924141,-0.002908,-0.004063,-0.011023,0.999485,8.5e-05,0.032086,-5.3e-05,-0.009394,-0.010524,-0.001745,0.001873,0.003438,0.009114
1609055161471105576,265,1609055161471105576,-0.004244,-0.005851,-0.008438,0.999483,0.00023,0.032138,-0.000322,-0.010199,-0.011007,0.002584,0.00309,0.001753,0.007281
1609055161573607683,266,1609055161573607683,-0.002541,-0.002415,-0.00627,0.99948,6.6e-05,0.03221,-0.000603,-0.004998,-0.003537,0.00387,0.001765,0.005539,0.011902
1609055161676759005,267,1609055161676759005,0.000447,0.001133,-0.005969,0.999485,0.000144,0.032079,-0.000593,0.003764,0.007337,-0.000733,0.007254,0.00344,0.004503
1609055161779980659,268,1609055161779980659,0.000862,0.00064,-0.005463,0.99948,0.000388,0.032212,-0.000844,0.003964,0.004774,0.000207,0.021343,0.00699,-0.004644
1609055161883199692,269,1609055161883199692,-0.001994,-0.001209,-0.005274,0.999479,-0.000288,0.032238,-0.001024,-0.00235,-0.002191,0.00054,0.026638,0.012885,0.00571
1609055161986642838,270,1609055161986642838,-0.002675,-0.001373,-0.004658,0.999473,0.00019,0.032413,-0.001511,-0.003585,0.006425,-0.002093,0.013863,0.007211,-0.032729
1609055162089151621,271,1609055162089151621,-0.00487,-0.002437,-0.005221,0.999484,0.000134,0.032082,-0.001136,-0.006428,-0.006552,-0.001733,0.019609,0.010867,0.016281
1609055162192154884,272,1609055162192154884,-0.003859,-0.003192,-0.004179,0.999481,-0.000259,0.032173,-0.000944,-0.004169,0.000956,0.000881,0.022386,0.013917,-0.019483
1609055162296276093,273,1609055162296276093,-0.001056,-0.000482,-0.00462,0.999478,0.000677,0.032262,-0.001168,0.00341,0.005727,-0.004136,0.018452,0.012653,-0.0231
1609055162398427248,274,1609055162398427248,-0.0031,-0.002077,-0.001925,0.999472,0.000216,0.032454,-0.001221,0.001377,-0.005547,-0.000678,0.023434,0.003948,0.007911
1609055162468726158,275,1609055162468726158,-0.0023,-0.004623,-0.004504,0.999477,-2.3e-05,0.032308,-0.001065,0.003723,-0.010964,-0.008984,-0.003205,0.002484,0.007083
1609055162571559191,276,1609055162571559191,-0.001503,-0.003045,-0.005899,0.999483,0.00044,0.032117,-0.001318,0.00416,-0.004689,-0.012523,-0.000143,0.000955,-0.002873
1609055162673346281,277,1609055162673346281,0.000254,0.000789,-0.006139,0.999465,0.000308,0.032663,-0.001439,0.00545,-0.00611,-0.011986,0.002845,0.007831,0.026832
1609055162776581764,278,1609055162776581764,0.001048,0.002426,-0.006926,0.999457,-5e-06,0.032886,-0.001797,0.006053,0.003748,-0.014431,0.000271,0.008232,-0.002875
1609055162879585505,279,1609055162879585505,0.001617,0.008685,-0.00935,0.999453,0.000427,0.032982,-0.00205,0.006361,0.016106,-0.018023,0.017558,0.010446,-0.008044
1609055162982712030,280,1609055162982712030,-0.000745,0.007839,-0.00852,0.999451,8.6e-05,0.033071,-0.001974,0.000468,0.00675,-0.012457,0.026901,0.009223,0.004981
1609055163086351156,281,1609055163086351156,-0.002071,0.005095,-0.009097,0.99944,8.2e-05,0.033364,-0.002185,-0.003282,0.004171,-0.012068,0.026618,0.013886,-0.017427
1609055163189177513,282,1609055163189177513,-0.003665,0.004799,-0.010437,0.999438,0.000382,0.033435,-0.002166,-0.00502,0.001516,-0.013158,-0.005744,0.017025,-0.006475
1609055163292199373,283,1609055163292199373,-0.004707,0.003169,-0.008966,0.999441,0.000243,0.033345,-0.002341,-0.006511,-0.007832,-0.00601,0.010759,0.013558,-0.001517
1609055163395289660,284,1609055163395289660,-0.005162,0.003333,-0.007317,0.999459,0.000256,0.03282,-0.001656,-0.003407,-0.000391,-0.008148,0.030296,0.004933,-0.020138
1609055163498400927,285,1609055163498400927,-0.004416,0.001326,-0.006622,0.999454,0.000675,0.032998,-0.001304,0.000273,-0.004648,-0.00814,-0.010698,0.005924,-0.006325
1609055163568905830,286,1609055163568905830,-0.006296,-0.00069,-0.009338,0.999453,-0.000128,0.033042,-0.001042,8.1e-05,-0.026073,-0.017064,0.024324,-0.0003,0.02409
1609055163670442581,287,1609055163670442581,-0.004475,-0.000144,-0.011272,0.999446,0.000173,0.033265,-0.000646,-0.003321,-0.018757,-0.013835,0.023475,0.016778,0.007727
1609055163773359299,288,1609055163773359299,-0.003692,0.003881,-0.011622,0.999452,3e-05,0.03307,-0.00079,0.011652,-4.3e-05,-0.02659,-0.006846,-0.029619,0.014668
1609055163876543760,289,1609055163876543760,-0.0032,0.003055,-0.012349,0.999496,0.000239,0.031703,-0.001139,0.004423,-0.004301,-0.024082,0.000294,-0.019331,-0.00356
1609055163979641914,290,1609055163979641914,-0.003724,0.000629,-0.011333,0.999549,0.000354,0.029977,-0.001184,0.005982,-0.008413,-0.015488,-0.015916,-0.023733,-0.004369
1609055164082920313,291,1609055164082920313,-0.002384,-0.005401,-0.006564,0.99957,0.000768,0.02925,-0.001322,-0.002341,-0.016623,0.007259,0.033914,-0.007694,-0.002078
1609055164186211348,292,1609055164186211348,-0.000898,-0.005952,4.8e-05,0.999545,0.000921,0.030088,-0.001624,-0.012133,-0.01663,0.026267,0.01869,0.027807,0.001986
1609055164289117813,293,1609055164289117813,-0.004164,-0.009761,0.00249,0.999504,0.000894,0.031431,-0.001492,-0.020882,-0.020751,0.026723,0.006148,0.039436,0.009954
1609055164392302990,294,1609055164392302990,-0.006202,-0.012709,0.003729,0.999496,0.000711,0.031676,-0.001695,-0.018395,-0.020893,0.023959,0.074395,0.014925,0.000155
1609055164496070862,295,1609055164496070862,-0.00829,-0.014641,0.001093,0.99949,0.000999,0.031855,-0.001726,-0.019473,-0.011821,0.010889,0.033203,0.025105,-0.008258
1609055164598200321,296,1609055164598200321,-0.010426,-0.014197,-0.000431,0.999461,0.001328,0.032729,-0.002114,-0.027845,-0.014249,0.004537,0.052789,0.023618,-0.000922
1609055164668622971,297,1609055164668622971,-0.01219,-0.009228,-0.000147,0.999467,0.001341,0.032564,-0.00126,-0.041351,-0.002216,0.008887,0.014013,-0.00313,0.004172
1609055164770384073,298,1609055164770384073,-0.016255,-0.009476,-0.001062,0.99943,0.002222,0.033413,-0.004118,-0.046741,0.000689,0.024586,0.087065,0.063523,-0.012957
1609055164873408556,299,1609055164873408556,-0.017995,-0.011094,-0.000406,0.9993,0.004957,0.036639,-0.005589,-0.064031,-0.001346,0.035021,0.107441,0.060977,-0.050488
1609055164976708174,300,1609055164976708174,-0.026524,-0.01199,0.003514,0.999097,0.008896,0.040454,-0.009423,-0.099616,1.2e-05,0.014844,0.064952,0.084745,-0.084685
1609055165079728127,301,1609055165079728127,-0.040235,-0.008391,0.004189,0.998997,0.014664,0.041128,-0.009894,-0.087531,0.055441,-0.027239,-0.022027,0.080202,-0.168125
1609055165183040380,302,1609055165183040380,-0.043538,0.00044,0.004063,0.998743,0.02295,0.04388,-0.007702,0.002662,0.108811,0.015661,0.105512,0.080964,-0.139238
1609055165286463022,303,1609055165286463022,-0.037213,0.011078,0.00277,0.998598,0.027057,0.044104,-0.011117,0.030579,0.057338,-0.059323,-0.033819,-0.104807,-0.033109
1609055165388955116,304,1609055165388955116,-0.03801,0.011185,-8.1e-05,0.998901,0.026288,0.038172,-0.00696,0.033504,-0.000681,-0.036282,0.002529,-0.044132,0.04837
1609055165491592169,305,1609055165491592169,-0.036773,0.007094,-0.003621,0.999105,0.023739,0.034753,-0.004088,0.000659,-0.005834,-0.04725,0.033432,-0.123774,0.040748
1609055165595335245,306,1609055165595335245,-0.028918,0.008313,-0.003354,0.99921,0.022642,0.032387,-0.004176,-0.009979,0.011498,0.002658,0.033013,0.037366,-0.014035
1609055165697867870,307,1609055165697867870,-0.029078,0.007114,-0.003369,0.999167,0.022856,0.033493,-0.004432,-0.023445,0.015768,0.006698,0.022632,-0.011636,-0.028367
1609055165768328667,308,1609055165768328667,-0.030609,-0.001449,0.001427,0.999054,0.024003,0.035587,-0.006889,-0.045335,-0.006593,0.046731,0.131264,0.082018,-0.022565
1609055165870173693,309,1609055165870173693,-0.038829,0.002435,0.003335,0.998913,0.026756,0.035651,-0.013596,-0.096237,-0.00315,0.079017,0.121359,0.039174,-0.056361
1609055165973328590,310,1609055165973328590,-0.055611,0.003393,0.016406,0.998784,0.029181,0.032478,-0.022883,-0.160063,-0.036915,0.160345,0.198107,0.007158,-0.020799
1609055166076450348,311,1609055166076450348,-0.071202,-0.001077,0.037627,0.998575,0.029881,0.033148,-0.029252,-0.211493,-0.086672,0.198482,0.12872,-0.089886,0.009801
1609055166179520607,312,1609055166179520607,-0.098611,-0.021991,0.057203,0.998761,0.030298,0.023971,-0.031344,-0.264777,-0.156918,0.186936,0.040494,-0.183397,0.003189
1609055166282768011,313,1609055166282768011,-0.123879,-0.041634,0.076313,0.998997,0.030808,0.014792,-0.028923,-0.284941,-0.217042,0.20138,-0.040817,-0.218262,0.014802
1609055166385848761,314,1609055166385848761,-0.147839,-0.063836,0.102149,0.999145,0.031019,0.005023,-0.02686,-0.280267,-0.256987,0.248453,0.013002,-0.118276,0.001034
1609055166488936901,315,1609055166488936901,-0.168951,-0.093736,0.127021,0.999215,0.031183,-0.000432,-0.024423,-0.255479,-0.297608,0.259555,0.01782,-0.067463,-0.00067
1609055166592168093,316,1609055166592168093,-0.188732,-0.121776,0.154346,0.999194,0.031105,-0.006418,-0.024547,-0.233412,-0.328792,0.25412,-0.070558,-0.095664,0.002397
1609055166695390463,317,1609055166695390463,-0.206365,-0.155151,0.176933,0.999147,0.030581,-0.011064,-0.02541,-0.198313,-0.37069,0.236776,0.006659,-0.090211,0.014652
1609055166798337936,318,1609055166798337936,-0.229784,-0.195505,0.205682,0.999057,0.030331,-0.017336,-0.025743,-0.186588,-0.401505,0.244242,-0.030496,-0.142492,0.009571
1609055166868891478,319,1609055166868891478,-0.236644,-0.232859,0.224021,0.998917,0.030977,-0.024674,-0.024416,-0.13874,-0.445454,0.256133,-0.07134,-0.134183,0.003077
1609055166970364332,320,1609055166970364332,-0.252796,-0.28678,0.254422,0.998922,0.031138,-0.030376,-0.016197,-0.091593,-0.490565,0.279514,-0.182731,-0.141712,-0.008729
1609055167073393345,321,1609055167073393345,-0.252548,-0.337481,0.283375,0.998838,0.031075,-0.036314,-0.006105,-0.012311,-0.508604,0.306377,-0.214983,-0.058418,0.005913
1609055167176541567,322,1609055167176541567,-0.254195,-0.392807,0.317231,0.998755,0.032056,-0.037784,0.005657,0.052187,-0.497046,0.340635,-0.206567,0.000212,-0.003837
1609055167279684067,323,1609055167279684067,-0.242535,-0.439417,0.349937,0.998751,0.033242,-0.036082,0.009378,0.133171,-0.447018,0.377251,-0.060154,0.066746,-0.009344
1609055167382636547,324,1609055167382636547,-0.225829,-0.483532,0.390802,0.998869,0.033884,-0.031682,0.010408,0.197393,-0.418047,0.425297,-0.001616,0.100682,0.014741
1609055167485815525,325,1609055167485815525,-0.192809,-0.516418,0.433982,0.999015,0.033725,-0.026184,0.012038,0.25478,-0.353785,0.443121,0.042614,0.084916,-0.000956
1609055167589457989,326,1609055167589457989,-0.163,-0.554537,0.482375,0.999102,0.033447,-0.022628,0.012752,0.299086,-0.320124,0.486477,0.069763,0.094907,0.012565
1609055167692022800,327,1609055167692022800,-0.128128,-0.583816,0.530195,0.999175,0.033114,-0.020943,0.010646,0.329977,-0.273545,0.518681,0.060456,-0.010237,0.007548
1609055167795091391,328,1609055167795091391,-0.090334,-0.60786,0.583202,0.999159,0.032685,-0.022145,0.01099,0.360818,-0.232596,0.548789,-0.018105,-0.062828,0.005833
1609055167898177624,329,1609055167898177624,-0.049261,-0.635444,0.642215,0.999118,0.032246,-0.024423,0.011204,0.399011,-0.198865,0.591868,0.082829,-0.026425,-0.00379
1609055167968556166,330,1609055167968556166,-0.007772,-0.646429,0.691129,0.999092,0.032253,-0.026449,0.008598,0.448142,-0.175551,0.60277,0.035672,-0.027157,-0.001027
1609055168071106195,331,1609055168071106195,0.041621,-0.664126,0.760095,0.999082,0.0322,-0.027741,0.005219,0.490157,-0.153318,0.658585,0.090972,-0.010286,0.006548
1609055168173503637,332,1609055168173503637,0.104393,-0.677724,0.828575,0.999092,0.032645,-0.027356,0.000779,0.550633,-0.125283,0.67164,0.095645,0.021986,-0.001465
1609055168276779175,333,1609055168276779175,0.161659,-0.692447,0.892949,0.999182,0.03294,-0.02336,-0.001984,0.585533,-0.129078,0.642841,0.014373,0.09241,-0.005797
1609055168379848719,334,1609055168379848719,0.227757,-0.699046,0.952846,0.999261,0.03351,-0.018492,-0.003525,0.613376,-0.118509,0.621463,-0.027643,0.141433,0.012136
1609055168482652903,335,1609055168482652903,0.286991,-0.711568,1.012265,0.999371,0.032654,-0.01317,-0.003993,0.605626,-0.117507,0.58553,0.037763,0.136182,0.029007
1609055168585685730,336,1609055168585685730,0.351532,-0.723888,1.068169,0.99944,0.032111,-0.00815,-0.004631,0.596184,-0.118968,0.522799,-0.017802,0.077276,0.011978
1609055168689079046,337,1609055168689079046,0.413733,-0.736228,1.119622,0.999485,0.031485,-0.005633,-0.002541,0.579021,-0.116523,0.518097,-0.029907,0.05518,0.000512
1609055168792130470,338,1609055168792130470,0.472468,-0.747041,1.166468,0.999491,0.031631,-0.00275,-0.003087,0.561947,-0.113451,0.434713,0.118512,0.028854,0.005917
1609055168895235777,339,1609055168895235777,0.533924,-0.757539,1.21485,0.999502,0.031245,-0.00061,-0.004207,0.546781,-0.112153,0.415007,0.062627,0.043595,0.014848
1609055168998229742,340,1609055168998229742,0.596518,-0.764646,1.253526,0.999502,0.031086,-0.001525,-0.005075,0.532575,-0.091748,0.348672,0.006591,-0.084736,-0.010627
1609055169068821430,341,1609055169068821430,0.639976,-0.776295,1.282128,0.999501,0.03111,-0.003675,-0.004039,0.538906,-0.113602,0.362911,-0.06185,-0.053127,0.005595
1609055169170395613,342,1609055169170395613,0.698336,-0.787595,1.318917,0.999455,0.031874,-0.008092,-0.002628,0.53565,-0.113316,0.331742,-0.05622,-0.102787,0.006147
1609055169273409367,343,1609055169273409367,0.758623,-0.79833,1.353456,0.999438,0.031904,-0.010203,-0.000682,0.54281,-0.103965,0.323948,-0.087525,-0.041737,0.002749
1609055169376554251,344,1609055169376554251,0.814755,-0.809555,1.386839,0.999407,0.032566,-0.010573,0.003402,0.542556,-0.088345,0.36583,-0.045102,-0.017132,-0.003622
1609055169479572773,345,1609055169479572773,0.865517,-0.822889,1.422694,0.999314,0.032824,-0.016025,0.006041,0.522097,-0.08014,0.324486,-0.025674,-0.175995,0.00659
1609055169582808971,346,1609055169582808971,0.927373,-0.819652,1.450681,0.999127,0.032991,-0.025212,0.004573,0.543533,-0.037741,0.255173,0.012486,-0.191154,0.003501
1609055169685728550,347,1609055169685728550,0.995301,-0.811454,1.473388,0.998771,0.033691,-0.036205,0.002952,0.588751,0.004679,0.240538,0.093993,-0.223276,0.010054
1609055169788963795,348,1609055169788963795,1.055435,-0.814756,1.496194,0.998274,0.033982,-0.047885,0.000266,0.648254,0.019436,0.265896,0.024388,-0.212881,-0.002249
1609055169891989470,349,1609055169891989470,1.128182,-0.817315,1.530092,0.997932,0.034614,-0.054156,-0.000698,0.759562,0.029929,0.35698,0.089412,0.060625,0.002706
1609055169995791435,350,1609055169995791435,1.213856,-0.807989,1.564591,0.998248,0.034139,-0.048193,-0.003435,0.861401,0.05385,0.403873,0.014474,0.253256,-0.007315
1609055170098069906,351,1609055170098069906,1.304904,-0.804676,1.608734,0.998769,0.034141,-0.035775,-0.003623,0.927067,0.059967,0.499065,0.027191,0.278372,-0.016112
1609055170168601513,352,1609055170168601513,1.383816,-0.802723,1.655657,0.999131,0.034034,-0.023829,-0.00326,0.980036,0.047883,0.592696,-0.08683,0.309677,0.020015
1609055170270894051,353,1609055170270894051,1.494363,-0.79866,1.722081,0.999388,0.033686,-0.008506,-0.004012,1.006149,0.042392,0.594399,0.012024,0.225724,0.036724
1609055170373339415,354,1609055170373339415,1.60223,-0.791016,1.781082,0.99943,0.033307,-0.00061,-0.005442,0.989381,0.053175,0.563434,0.058169,0.064502,0.015564
1609055170476449013,355,1609055170476449013,1.706785,-0.782701,1.83409,0.999415,0.03329,0.000887,-0.007755,0.967981,0.063845,0.493911,0.044267,-0.020002,-0.005215
1609055170579489470,356,1609055170579489470,1.801478,-0.77801,1.876238,0.999399,0.032986,-0.004029,-0.009826,0.936119,0.045734,0.402498,0.032323,-0.198252,0.01759
1609055170682699442,357,1609055170682699442,1.896596,-0.776937,1.9083,0.999351,0.03272,-0.012014,-0.009074,0.936283,0.030504,0.358571,-0.01275,-0.092273,0.008786
1609055170785727978,358,1609055170785727978,1.991865,-0.773626,1.940564,0.999306,0.032382,-0.015998,-0.009027,0.956795,0.027765,0.345637,0.053673,0.024332,0.01553
1609055170888960361,359,1609055170888960361,2.094627,-0.76947,1.981104,0.999349,0.031761,-0.012502,-0.011662,0.984686,0.025365,0.420674,0.044529,0.115463,0.013199
1609055170992015839,360,1609055170992015839,2.195083,-0.765678,2.022723,0.999326,0.031574,-0.010463,-0.015505,0.990535,0.019409,0.39003,0.154427,0.019841,0.003832
