time,field.header.seq,field.header.stamp,field.pose.pose.position.x,field.pose.pose.position.y,field.pose.pose.position.z,field.pose.pose.orientation.x,field.pose.pose.orientation.y,field.pose.pose.orientation.z,field.pose.pose.orientation.w,field.twist.twist.linear.x,field.twist.twist.linear.y,field.twist.twist.linear.z,field.twist.twist.angular.x,field.twist.twist.angular.y,field.twist.twist.angular.z
1609054399861213923,3,1609054399861213923,0.010715,0.000477,0.013242,0.999626,0.000278,0.026894,-0.004894,0.000157,0.006499,0.002861,0.004424,-0.000506,0.008931
1609054399973625183,4,1609054399973625183,0.009929,0.004674,0.01349,0.999622,0.00037,0.027013,-0.005018,-0.006521,0.016237,0.00266,0.017152,-0.000156,1.5e-05
1609054400067425489,5,1609054400067425489,0.011117,-0.002584,0.014101,0.999621,0.000431,0.027024,-0.005161,-0.004647,-0.003355,0.003413,0.012556,0.001917,0.004635
1609054400161307335,6,1609054400161307335,0.00869,0.002367,0.01384,0.999622,0.000357,0.026988,-0.005184,-0.011326,0.004965,0.001783,0.007176,0.002065,0.007085
1609054400273871660,7,1609054400273871660,0.008885,0.00231,0.012831,0.999621,0.000278,0.02703,-0.005111,-0.011521,0.006886,-0.001135,0.018439,0.003459,-0.003244
1609054400368118763,8,1609054400368118763,0.007617,0.00319,0.012373,0.999626,0.000474,0.026824,-0.005122,-0.013685,0.004826,-0.002793,0.014664,0.002097,0.002944
1609054400461277246,9,1609054400461277246,0.00776,0.004272,0.011627,0.999625,0.000572,0.026863,-0.005091,-0.012561,0.004631,-0.005096,0.006844,-0.001064,0.008108
1609054400573780298,10,1609054400573780298,0.008487,-0.000562,0.011795,0.999632,0.000341,0.026566,-0.005304,-0.009996,-6.8e-05,-0.002138,0.017972,0.002461,-0.000788
1609054400667470217,11,1609054400667470217,0.008793,-0.001883,0.01096,0.999629,0.000298,0.026712,-0.005264,-0.009273,-0.003207,-0.003265,0.011416,0.003577,0.00348
1609054400761376381,12,1609054400761376381,0.008299,-6.4e-05,0.010857,0.999627,0.000229,0.026757,-0.005353,-0.010666,-0.002605,-0.003961,0.004686,-4.9e-05,0.009915
1609054400873860598,13,1609054400873860598,0.008533,-0.003854,0.01138,0.999623,0.000309,0.026898,-0.005472,-0.009814,-0.006994,-0.00035,0.015002,0.001644,-0.001536
1609054400967617035,14,1609054400967617035,0.008608,-0.003611,0.011787,0.999622,0.000317,0.026943,-0.005306,-0.009105,-0.006962,-2.5e-05,0.012135,0.000189,0.004238
1609054401061506271,15,1609054401061506271,0.009317,-0.003236,0.013024,0.999625,0.000215,0.026886,-0.005043,-0.007326,-0.006107,0.002134,0.006494,0.000289,0.007642
1609054401173676968,16,1609054401173676968,0.010267,-0.007538,0.013713,0.999627,0.000466,0.02681,-0.00508,-0.007611,-0.006882,0.004579,0.017127,0.000255,-0.000957
1609054401267473936,17,1609054401267473936,0.007001,-0.005559,0.014571,0.999627,0.000307,0.026818,-0.005019,-0.016025,-0.002126,0.005507,0.014073,0.00277,0.003777
1609054401361264229,18,1609054401361264229,0.006653,-0.009954,0.015742,0.999629,0.000234,0.026734,-0.005125,-0.014809,-0.010281,0.006234,0.004857,0.000771,0.007955
1609054401474869967,19,1609054401474869967,0.008054,-0.011019,0.013803,0.999626,0.000423,0.026825,-0.005121,-0.010243,-0.006674,0.000838,0.018882,0.002621,-0.000803
1609054401567376375,20,1609054401567376375,0.008754,-0.013767,0.01382,0.999626,0.000322,0.026883,-0.004893,-0.008487,-0.009449,0.000912,0.013966,0.000538,0.004686
1609054401661370039,21,1609054401661370039,0.007402,-0.009033,0.013417,0.999628,0.000265,0.026823,-0.004894,-0.012561,-0.001198,-0.000543,0.004011,-0.001079,0.00731
1609054401773677588,22,1609054401773677588,0.006445,-0.005755,0.012185,0.999626,0.000331,0.026842,-0.005143,-0.014783,0.005232,-0.002814,0.012959,0.000122,0.000696
1609054401867427826,23,1609054401867427826,0.007611,0.000237,0.012417,0.99962,0.000222,0.027066,-0.005076,-0.011928,0.012107,-0.001594,0.012916,0.003207,0.003883
1609054401961331129,24,1609054401961331129,0.00755,0.001895,0.012967,0.99962,0.000305,0.02703,-0.005292,-0.011079,0.010595,-0.001073,0.004241,5.7e-05,0.007707
1609054402073986530,25,1609054402073986530,0.006649,0.005696,0.011814,0.999617,0.000389,0.027126,-0.005381,-0.013832,0.017471,-0.003869,0.017612,0.001368,0.001355
1609054402167703629,26,1609054402167703629,0.006127,0.004274,0.012398,0.999625,0.000531,0.026852,-0.005338,-0.013709,0.011238,-0.002542,0.013529,8e-06,0.002459
1609054402261711836,27,1609054402261711836,0.004528,0.006782,0.0115,0.999622,0.000462,0.026953,-0.005245,-0.01627,0.011495,-0.00447,0.004714,0.000959,0.007378
1609054402373874903,28,1609054402373874903,0.005022,0.004705,0.012794,0.999623,0.000345,0.026911,-0.005267,-0.014413,0.008344,0.000505,0.017281,0.000884,0.001053
1609054402467696428,29,1609054402467696428,0.006302,-0.001365,0.013057,0.999624,0.000301,0.026856,-0.005417,-0.0104,-0.005664,0.000365,0.010808,0.000526,0.004713
1609054402561929226,30,1609054402561929226,0.005852,0.000411,0.012874,0.999629,0.000324,0.026739,-0.005169,-0.010376,-0.002231,3.3e-05,0.006882,0.000728,0.007083
1609054402673858643,31,1609054402673858643,0.007842,0.001811,0.011763,0.99963,0.000314,0.026698,-0.005108,-0.005741,0.003946,-0.001679,0.020108,0.001716,-0.001448
1609054402767964602,32,1609054402767964602,0.008012,0.001461,0.012569,0.999625,0.000433,0.026859,-0.005264,-0.006684,0.001478,-4.9e-05,0.012093,-0.000469,0.002097
1609054402861785173,33,1609054402861785173,0.009378,0.002196,0.013609,0.999629,0.00045,0.026728,-0.005054,-0.003667,0.002488,0.002636,0.005044,0.000339,0.006492
1609054402973661423,34,1609054402973661423,0.010074,-0.002401,0.014299,0.999625,0.000398,0.026872,-0.005154,-0.004272,-0.002378,0.004051,0.015829,0.002329,-0.000584
1609054403068194389,35,1609054403068194389,0.010372,-0.001144,0.013893,0.999625,0.000389,0.026863,-0.005149,-0.004655,-0.000298,0.002578,0.01307,0.003066,0.001512
1609054403161856890,36,1609054403161856890,0.010037,-0.003889,0.012906,0.999621,0.000443,0.026983,-0.005284,-0.006312,-0.005658,-0.001514,0.00771,0.000183,0.005995
1609054403274002790,37,1609054403274002790,0.009599,0.000656,0.01159,0.999623,0.000307,0.026918,-0.00523,-0.009202,0.00583,-0.003893,0.017862,-0.000246,-0.001341
1609054403367282152,38,1609054403367282152,0.009226,-0.003633,0.01272,0.999625,0.00043,0.026855,-0.005259,-0.009876,-0.002,-0.00038,0.012879,0.001161,0.001711
1609054403461115360,39,1609054403461115360,0.006666,-0.005294,0.0128,0.999624,0.000266,0.026886,-0.005202,-0.01604,-0.00493,-0.000835,0.006359,4.1e-05,0.006548
1609054403573681593,40,1609054403573681593,0.006476,-0.004691,0.012001,0.999627,0.000243,0.026792,-0.005213,-0.015942,-0.000253,-0.001869,0.019207,0.003959,-0.001638
1609054403667495728,41,1609054403667495728,0.006881,-0.007703,0.011804,0.999627,0.000414,0.026789,-0.00518,-0.013703,-0.005172,-0.002476,0.013776,0.000913,0.002038
1609054403761391163,42,1609054403761391163,0.007023,-0.00754,0.012593,0.999623,0.000325,0.026951,-0.005077,-0.013345,-0.005298,-0.000911,0.00868,-0.002012,0.0065
1609054403873744249,43,1609054403873744249,0.005165,-0.005352,0.013256,0.999625,0.000498,0.026872,-0.005237,-0.017473,0.000449,0.001477,0.018129,0.002463,-0.000715
1609054403967506409,44,1609054403967506409,0.007465,0.000144,0.013351,0.999627,0.000355,0.026862,-0.004867,-0.01109,0.010051,0.001111,0.011853,0.002091,0.00239
1609054404061492682,45,1609054404061492682,0.010217,0.005,0.013333,0.999635,0.000283,0.026607,-0.004648,-0.003096,0.017539,-0.000117,0.006858,-7.2e-05,0.007666
1609054404173678637,46,1609054404173678637,0.009244,0.009206,0.013059,0.999629,0.000441,0.026764,-0.004856,-0.00875,0.022541,-0.000472,0.017054,0.001923,-0.000549
1609054404267392397,47,1609054404267392397,0.006405,0.008418,0.012806,0.999625,0.000392,0.026844,-0.005213,-0.015046,0.015834,-0.001304,0.01234,0.002758,0.004215
1609054404361479521,48,1609054404361479521,0.005231,0.006811,0.013573,0.999627,0.000114,0.02681,-0.005083,-0.016067,0.011883,-4e-05,0.007443,0.001014,0.006945
1609054404473576784,49,1609054404473576784,0.009829,0.004326,0.014217,0.999624,0.000375,0.026931,-0.00512,-0.005974,0.009724,0.00105,0.019185,0.003416,-0.001671
1609054404567915678,50,1609054404567915678,0.010019,0.004957,0.013269,0.999623,0.000411,0.026948,-0.005224,-0.00668,0.005845,-0.001894,0.011356,0.001962,0.004986
1609054404661333084,51,1609054404661333084,0.010544,0.002207,0.014132,0.999621,0.00034,0.026959,-0.005458,-0.006931,-0.000893,0.000316,0.006894,-0.001256,0.007762
1609054404773445129,52,1609054404773445129,0.009434,-0.000956,0.012761,0.99962,0.000383,0.026957,-0.005701,-0.011107,-0.002706,-0.001838,0.018456,0.002221,-0.001059
1609054404867273808,53,1609054404867273808,0.007933,-0.003937,0.012815,0.999622,0.000285,0.026876,-0.00563,-0.01451,-0.009165,-0.001293,0.012379,0.001651,0.002677
1609054404961496830,54,1609054404961496830,0.007853,-0.003774,0.014392,0.999619,0.00028,0.027054,-0.005395,-0.014768,-0.009976,0.001638,0.003908,-0.000452,0.009476
1609054405073533297,55,1609054405073533297,0.007795,-0.005662,0.013905,0.999626,0.000219,0.026808,-0.005343,-0.013257,-0.009596,-0.000395,0.015568,0.002254,-0.001517
1609054405167301416,56,1609054405167301416,0.007157,-0.000857,0.013176,0.99963,0.000187,0.026715,-0.005032,-0.013633,-0.000272,-0.001872,0.013121,0.002067,0.00208
1609054405261336088,57,1609054405261336088,0.008334,-0.004795,0.014527,0.999624,0.000458,0.026908,-0.005173,-0.010595,-0.009598,0.000341,0.002569,4.4e-05,0.009121
1609054405374491930,58,1609054405374491930,0.007543,-0.004414,0.012725,0.999623,0.000386,0.026923,-0.005267,-0.012771,-0.004846,-0.003463,0.01934,0.003977,-0.003688
1609054405467295170,59,1609054405467295170,0.006323,-0.004334,0.013418,0.999626,0.000309,0.026815,-0.005233,-0.014802,-0.005379,-0.001035,0.012643,0.002038,0.002462
1609054405561595678,60,1609054405561595678,0.007961,-0.002147,0.013064,0.99963,8.5e-05,0.026734,-0.004957,-0.010025,-0.002294,-0.001773,0.00514,0.000885,0.007878
1609054405674577475,61,1609054405674577475,0.007617,0.000136,0.012915,0.999628,0.000156,0.026785,-0.005074,-0.011245,0.004118,-0.000959,0.018695,0.001308,-0.003684
1609054405767358780,62,1609054405767358780,0.007893,0.003459,0.012405,0.999628,0.00032,0.026786,-0.005001,-0.010054,0.006348,-0.00176,0.011198,0.000919,0.003762
1609054405862248659,63,1609054405862248659,0.007904,6.6e-05,0.013011,0.999629,0.000596,0.026721,-0.005138,-0.009823,-0.002632,0.000343,0.005987,-0.000552,0.007998
1609054405973615646,64,1609054405973615646,0.008809,-0.001424,0.012924,0.999626,0.000578,0.026812,-0.005288,-0.008777,-0.001236,0.001291,0.01702,0.004079,-0.002433
1609054406067150831,65,1609054406067150831,0.00772,-0.003515,0.013454,0.999625,0.000427,0.026885,-0.005133,-0.011369,-0.005357,0.001625,0.009911,0.001523,0.005252
1609054406161258936,66,1609054406161258936,0.00944,-0.004692,0.014424,0.999628,0.000266,0.026812,-0.004868,-0.006872,-0.006542,0.003088,0.006483,0.001823,0.006989
1609054406274150848,67,1609054406274150848,0.009235,-0.006539,0.013976,0.999628,0.000212,0.026781,-0.005036,-0.008402,-0.006368,0.001004,0.014656,-0.001117,0.000824
1609054406367122889,68,1609054406367122889,0.010159,-0.008515,0.015278,0.999628,0.000311,0.026785,-0.005083,-0.005788,-0.010933,0.00277,0.011762,0.001994,0.004662
1609054406463082075,69,1609054406463082075,0.008869,-0.008251,0.015624,0.999622,0.000168,0.027013,-0.005021,-0.011197,-0.009135,0.002586,0.010021,0.000281,0.005261
1609054406559400082,70,1609054406559400082,0.010891,-0.010117,0.014785,0.999627,0.000409,0.026795,-0.005186,-0.005927,-0.013225,-0.000452,0.00608,0.001811,0.006553
1609054406668809175,71,1609054406668809175,0.007362,-0.005816,0.014629,0.999622,0.000144,0.027015,-0.005027,-0.015737,-0.001342,-0.001513,0.014045,0.003881,0.001426
1609054406762711525,72,1609054406762711525,0.008275,-0.008052,0.013877,0.999626,0.000126,0.026925,-0.004773,-0.012664,-0.005151,-0.003069,0.007679,0.000978,0.00713
1609054406859551668,73,1609054406859551668,0.010311,-0.006795,0.013278,0.999624,0.000391,0.026968,-0.004829,-0.007311,-0.004688,-0.004765,0.00286,-0.002201,0.010613
1609054406968643427,74,1609054406968643427,0.008643,-0.005102,0.013311,0.999626,0.000222,0.026874,-0.004983,-0.012598,0.001255,-0.003717,0.01443,0.000532,0.000177
1609054407062545300,75,1609054407062545300,0.00774,-0.000689,0.013564,0.999625,0.000302,0.02694,-0.00486,-0.015049,0.007097,-0.002423,0.006968,-0.000318,0.00657
1609054407159109831,76,1609054407159109831,0.008576,0.000303,0.014387,0.999628,0.000244,0.02679,-0.004918,-0.012183,0.005979,-0.000648,0.002679,0.000561,0.009747
1609054407269333124,77,1609054407269333124,0.006619,-0.00424,0.013018,0.99963,0.000322,0.026622,-0.005421,-0.01506,-0.003919,-0.002816,0.010787,0.001472,0.003336
1609054407363734007,78,1609054407363734007,0.009639,-0.00181,0.014216,0.999623,0.000351,0.026979,-0.005044,-0.007721,0.001252,1e-05,0.008734,-0.000879,0.004514
1609054407459258795,79,1609054407459258795,0.007428,0.001549,0.012814,0.999629,0.000402,0.02675,-0.004954,-0.011709,0.005122,-0.002819,0.002106,-0.001878,0.009953
1609054407568443298,80,1609054407568443298,0.007615,0.002256,0.013568,0.99963,0.000403,0.026719,-0.004941,-0.010464,0.005477,2.2e-05,0.011218,0.000668,0.003977
1609054407662591219,81,1609054407662591219,0.007674,0.003771,0.014125,0.999628,0.000257,0.026811,-0.004874,-0.010755,0.006073,0.002417,0.005612,0.000284,0.007512
1609054407759235382,82,1609054407759235382,0.009454,0.004966,0.014379,0.999631,0.000348,0.026752,-0.00465,-0.006172,0.007578,0.00183,0.004056,0.000113,0.007731
1609054407868831873,83,1609054407868831873,0.008968,0.007835,0.015047,0.999623,0.000357,0.026957,-0.005036,-0.008299,0.011563,0.002574,0.014094,0.002524,0.002328
1609054407962866545,84,1609054407962866545,0.008223,0.001065,0.013874,0.999625,0.000355,0.02688,-0.005152,-0.00904,-0.001761,-0.000642,0.007618,-0.000688,0.006141
1609054408059130907,85,1609054408059130907,0.007379,-0.003039,0.014642,0.999626,0.000449,0.026796,-0.005285,-0.010493,-0.010244,0.001084,0.003709,-0.001144,0.008914
1609054408168604136,86,1609054408168604136,0.008441,-0.008799,0.014119,0.999626,0.00043,0.026834,-0.005227,-0.008556,-0.014859,0.000375,0.012375,0.002114,0.001947
1609054408262886286,87,1609054408262886286,0.006942,-0.006184,0.013425,0.999628,0.000199,0.026737,-0.005254,-0.01192,-0.011136,-0.002047,0.006444,0.000662,0.006471
1609054408359160185,88,1609054408359160185,0.008614,-0.001955,0.013112,0.999628,0.000341,0.026811,-0.004844,-0.009259,-0.001704,-0.003435,0.00622,0.003326,0.008188
1609054408468926907,89,1609054408468926907,0.009819,-0.004166,0.011852,0.999622,0.000343,0.026998,-0.005001,-0.006635,-0.002803,-0.005777,0.010051,0.000969,0.003003
1609054408562790871,90,1609054408562790871,0.011486,-0.005081,0.011568,0.999626,0.000354,0.026867,-0.005084,-0.002873,-0.005738,-0.00564,0.007051,-0.000474,0.007869
1609054408659123421,91,1609054408659123421,0.009766,-0.007259,0.012155,0.999627,0.000369,0.026802,-0.0052,-0.008261,-0.009723,-0.003293,0.003893,-0.000665,0.009274
1609054408768761396,92,1609054408768761396,0.008595,-0.00662,0.01236,0.999625,0.000243,0.026861,-0.005155,-0.012166,-0.004148,-0.001809,0.013177,0.001965,0.003241
1609054408862689972,93,1609054408862689972,0.008771,-0.002405,0.014304,0.999623,0.000384,0.026973,-0.005011,-0.011774,0.002547,0.003121,0.008244,-0.000387,0.007267
1609054408958965540,94,1609054408958965540,0.008591,-0.004836,0.014118,0.999623,0.000195,0.026996,-0.004996,-0.012569,-0.003229,0.001304,0.002342,0.000146,0.010447
1609054409068454504,95,1609054409068454504,0.00872,-0.005435,0.014332,0.999623,0.00018,0.026972,-0.005038,-0.011348,-0.003801,0.000739,0.010362,-0.000104,0.004957
1609054409162940025,96,1609054409162940025,0.00937,-0.003183,0.014109,0.999626,0.00046,0.026865,-0.004911,-0.009397,-0.001542,-0.00023,0.003527,-0.000824,0.007754
1609054409259214640,97,1609054409259214640,0.007673,-0.003542,0.013699,0.999627,0.000295,0.026812,-0.005023,-0.013713,-0.004182,-0.002417,0.004569,-0.002843,0.011096
1609054409368637562,98,1609054409368637562,0.006541,-0.001496,0.013083,0.999629,8.1e-05,0.026787,-0.004736,-0.016145,0.002866,-0.002171,0.012674,-0.000758,0.001628
1609054409462863445,99,1609054409462863445,0.007504,-0.002138,0.013696,0.999634,0.000445,0.026631,-0.004706,-0.012153,-0.000465,0.000112,0.006886,0.002507,0.00955
1609054409559236765,100,1609054409559236765,0.009756,0.001008,0.013789,0.999633,0.000415,0.026681,-0.004629,-0.006175,0.005453,9.4e-05,0.003914,0.001228,0.008809
1609054409669027567,101,1609054409669027567,0.010064,0.002127,0.012791,0.999628,0.000583,0.026799,-0.004898,-0.006221,0.00676,-0.001566,0.013314,0.002508,0.002202
1609054409763786554,102,1609054409763786554,0.010987,-0.005594,0.013398,0.999627,0.000398,0.026779,-0.005206,-0.004658,-0.008558,0.000587,0.006905,-0.0001,0.006802
1609054409859276295,103,1609054409859276295,0.009648,-0.004372,0.012276,0.999628,0.000248,0.026727,-0.005291,-0.008841,-0.007741,-0.002342,0.003912,-0.002789,0.010207
1609054409968606710,104,1609054409968606710,0.008065,-0.003463,0.012225,0.999627,0.000329,0.02677,-0.005292,-0.014227,-0.003628,-0.001383,0.013333,0.001539,0.001763
1609054410064834356,105,1609054410064834356,0.007527,-0.006891,0.013334,0.99963,0.000292,0.026635,-0.005455,-0.013966,-0.009789,0.001756,0.00837,0.001283,0.005812
1609054410158784389,106,1609054410158784389,0.008744,-0.00529,0.014065,0.999625,0.000259,0.026873,-0.005098,-0.010504,-0.006499,0.002445,0.004764,0.001416,0.009569
1609054410268425226,107,1609054410268425226,0.009407,-0.00926,0.015388,0.999626,0.000244,0.026883,-0.004955,-0.008452,-0.010031,0.00473,0.011318,0.001597,0.004258
1609054410362285852,108,1609054410362285852,0.010213,-0.006579,0.013697,0.999628,8e-05,0.026824,-0.004915,-0.006694,-0.006036,0.000493,0.007026,-0.001376,0.006597
1609054410458904743,109,1609054410458904743,0.010373,-0.009384,0.012798,0.999627,0.000367,0.026772,-0.005215,-0.006888,-0.010925,-0.001573,0.00505,-0.000708,0.008171
1609054410568568230,110,1609054410568568230,0.009447,-0.008333,0.012338,0.999632,0.000364,0.0266,-0.005264,-0.010087,-0.005916,-0.002658,0.012331,0.002319,0.003159
1609054410662791491,111,1609054410662791491,0.008079,-0.003357,0.012435,0.999631,0.000307,0.026702,-0.004971,-0.013107,0.002413,-0.001913,0.006665,0.001487,0.007557
1609054410758918762,112,1609054410758918762,0.009304,-0.002936,0.013225,0.999629,0.000368,0.026771,-0.004847,-0.010093,0.003574,7.8e-05,0.005547,0.000457,0.009424
1609054410868296385,113,1609054410868296385,0.008255,-0.001471,0.012126,0.999634,0.000403,0.026537,-0.005088,-0.011613,0.006921,-0.002,0.011127,0.0014,0.002188
1609054410962547302,114,1609054410962547302,0.007264,-0.002444,0.012536,0.999627,0.000259,0.026798,-0.00514,-0.013599,0.002716,-0.001166,0.005021,0.000198,0.008408
1609054411059254408,115,1609054411059254408,0.00627,-0.003287,0.012777,0.999628,0.000442,0.026751,-0.005293,-0.014432,-9e-06,-0.00075,0.004285,-0.001213,0.00876
1609054411169037104,116,1609054411169037104,0.006084,-0.002963,0.013134,0.999628,0.000357,0.026723,-0.005358,-0.013931,0.001565,0.001831,0.014159,0.000942,0.001513
1609054411263201714,117,1609054411263201714,0.006748,-0.00074,0.013015,0.999625,0.000257,0.026887,-0.005119,-0.011331,0.003395,0.001129,0.007714,0.000546,0.005822
1609054411359087229,118,1609054411359087229,0.008938,-0.002807,0.013901,0.999625,0.000217,0.026893,-0.005137,-0.005302,-0.003064,0.002349,0.003809,-0.001043,0.00879
1609054411468455315,119,1609054411468455315,0.009564,-0.003274,0.012944,0.999626,0.000387,0.026772,-0.005429,-0.00447,-0.004004,-0.00098,0.011154,0.00112,0.002299
1609054411562402725,120,1609054411562402725,0.010144,-0.004753,0.01244,0.999624,0.000336,0.026847,-0.005441,-0.004021,-0.008387,-0.00277,0.006145,-3e-05,0.007772
1609054411659335136,121,1609054411659335136,0.009694,-0.002347,0.012935,0.999626,0.00028,0.026811,-0.005211,-0.007062,-0.003305,-0.001334,0.00374,-0.001915,0.009103
1609054411768463373,122,1609054411768463373,0.008852,-0.008756,0.013016,0.999633,0.000186,0.026535,-0.005439,-0.010308,-0.011153,-0.000796,0.012049,0.003396,0.001924
1609054411862406015,123,1609054411862406015,0.007125,-0.011507,0.012563,0.999632,0.000464,0.026545,-0.005442,-0.01424,-0.015614,-0.001175,0.007663,0.002976,0.006692
1609054411959164381,124,1609054411959164381,0.008326,-0.011869,0.013475,0.999625,0.000169,0.026872,-0.00517,-0.011109,-0.014799,0.000896,0.003959,-0.000218,0.009599
1609054412069110632,125,1609054412069110632,0.006982,-0.010391,0.012882,0.999623,0.000232,0.026921,-0.005289,-0.014719,-0.008424,-0.001173,0.012767,2.8e-05,0.001832
1609054412165400028,126,1609054412165400028,0.00809,-0.007546,0.013201,0.999626,0.000258,0.026874,-0.00501,-0.010963,-0.002318,-0.000587,0.01041,-0.002187,0.00492
1609054412260230780,127,1609054412260230780,0.006459,-0.002221,0.01403,0.999629,0.000358,0.026792,-0.00486,-0.01499,0.00587,0.001528,0.007088,0.001616,0.008026
1609054412370381355,128,1609054412370381355,0.004879,0.001725,0.013278,0.99963,0.00044,0.026746,-0.00487,-0.018515,0.014109,-0.000327,0.013825,0.001422,0.001779
1609054412464720011,129,1609054412464720011,0.005081,-0.004245,0.012974,0.999624,0.000438,0.026887,-0.005192,-0.016039,0.001262,-0.000689,0.008318,0.002707,0.006587
1609054412559495926,130,1609054412559495926,0.004575,-0.003241,0.013713,0.999628,0.000221,0.026778,-0.005096,-0.015049,0.001082,0.000669,0.003618,0.0007,0.009655
1609054412671982288,131,1609054412671982288,0.005231,-0.002388,0.01378,0.999628,0.000218,0.02674,-0.005225,-0.012399,0.003594,-7.4e-05,0.017846,-0.00056,-0.0012
1609054412772087336,132,1609054412772087336,0.008838,0.00335,0.015811,0.999627,0.000174,0.026806,-0.005073,-0.004514,0.010722,0.004416,0.015695,-0.000983,-0.000307
1609054412867722988,133,1609054412867722988,0.008615,0.009137,0.015519,0.999625,0.000463,0.026878,-0.005051,-0.006597,0.015553,0.002706,0.010519,0.000683,0.004557
1609054412959221125,134,1609054412959221125,0.010656,0.002776,0.013518,0.999613,0.000333,0.027254,-0.005474,-0.003254,0.000726,-0.003233,0.002727,4.1e-05,0.010205
1609054413071641922,135,1609054413071641922,0.010156,0.00312,0.015165,0.999623,0.000262,0.026894,-0.005335,-0.006745,0.004144,0.001322,0.017256,0.002686,-0.000677
1609054413168034792,136,1609054413168034792,0.009319,0.004662,0.014935,0.999622,0.000176,0.026957,-0.005373,-0.009876,0.004232,-0.000371,0.012261,0.000859,0.002006
1609054413259433985,137,1609054413259433985,0.01206,0.009163,0.016011,0.999623,0.00031,0.026945,-0.005077,0.000835,0.017943,0.00354,0.007422,-0.001028,0.007458
1609054413371543646,138,1609054413371543646,0.015063,0.001849,0.015856,0.999623,0.000424,0.026943,-0.005163,0.005719,-0.007903,0.001839,0.015106,-9.5e-05,0.001238
1609054413465514183,139,1609054413465514183,0.011646,-0.004985,0.015073,0.999625,0.000427,0.026826,-0.005339,-0.006138,-0.023772,0.000784,0.009705,0.001917,0.003629
1609054413558970213,140,1609054413558970213,0.011129,-0.005079,0.015953,0.999623,0.000362,0.026944,-0.005136,-0.008901,-0.022563,0.002219,0.002241,0.000143,0.011312
1609054413672212124,141,1609054413672212124,0.01042,-0.006354,0.016068,0.999624,0.000468,0.026976,-0.004703,-0.011112,-0.015777,0.001953,0.014541,-6.4e-05,0.000793
1609054413765676737,142,1609054413765676737,0.008417,-0.005926,0.014322,0.999627,0.000365,0.026826,-0.005012,-0.014742,-0.014222,-0.002129,0.011965,0.000929,0.003517
1609054413859589815,143,1609054413859589815,0.006994,-0.006138,0.014025,0.999631,0.000113,0.026686,-0.005049,-0.017003,-0.01487,-0.003437,0.000254,0.000832,0.011416
1609054413971652746,144,1609054413971652746,0.00511,-0.004616,0.013728,0.999631,5.3e-05,0.026674,-0.00508,-0.020807,-0.008215,-0.004285,0.015734,-0.000413,-0.001023
1609054414067266941,145,1609054414067266941,0.004872,-0.002917,0.013449,0.999631,0.000187,0.026707,-0.004852,-0.01919,-0.004407,-0.00421,0.012436,2.6e-05,0.00158
1609054414159121752,146,1609054414159121752,0.006855,-0.003488,0.013322,0.999631,0.000328,0.026711,-0.004897,-0.013913,-0.006562,-0.003834,0.004802,0.002064,0.008839
1609054414271600962,147,1609054414271600962,0.006097,0.001114,0.0123,0.99963,0.000278,0.02671,-0.005034,-0.015002,0.003695,-0.004157,0.017265,0.003253,-0.000909
1609054414365254164,148,1609054414365254164,0.006516,-0.000256,0.012922,0.999627,0.000365,0.026838,-0.004973,-0.013215,-0.000133,-0.002221,0.008887,-0.000589,0.004883
1609054414462148905,149,1609054414462148905,0.00724,-0.004013,0.012872,0.999628,0.00024,0.026757,-0.005162,-0.010394,-0.006935,-0.001505,0.009285,0.001225,0.006663
1609054414558851242,150,1609054414558851242,0.010104,-0.003243,0.013745,0.999633,0.000358,0.026547,-0.005287,-0.003872,-0.005552,0.001715,0.004227,5.8e-05,0.00837
1609054414668603182,151,1609054414668603182,0.010733,-0.004973,0.013639,0.999624,0.000403,0.026876,-0.005357,-0.004931,-0.006021,0.000899,0.013179,-0.000204,0.002284
1609054414762166023,152,1609054414762166023,0.008979,-0.0053,0.013648,0.999624,0.000238,0.026888,-0.005339,-0.009848,-0.007211,0.000522,0.008749,0.000315,0.005147
1609054414860432863,153,1609054414860432863,0.009493,-0.002893,0.015394,0.999629,8.2e-05,0.026756,-0.005028,-0.008701,-0.00107,0.004386,0.006431,0.002737,0.007718
1609054414969217300,154,1609054414969217300,0.00907,-0.007104,0.013469,0.999625,0.000497,0.026832,-0.005292,-0.009153,-0.00491,-0.001284,0.012889,-0.000369,0.001155
1609054415062453270,155,1609054415062453270,0.010711,-0.010979,0.013142,0.999627,0.000492,0.02675,-0.005346,-0.005156,-0.013068,-0.001918,0.006669,9.4e-05,0.007166
1609054415159574032,156,1609054415159574032,0.009582,-0.012285,0.012496,0.999631,0.000343,0.026625,-0.005209,-0.007404,-0.012128,-0.002861,0.004863,-0.001041,0.00999
1609054415269281864,157,1609054415269281864,0.008317,-0.008494,0.011942,0.999625,0.000366,0.026899,-0.00507,-0.012468,-0.001926,-0.003007,0.014142,0.00026,0.002245
1609054415362461805,158,1609054415362461805,0.007019,-0.004992,0.011295,0.999626,0.00028,0.026869,-0.005077,-0.014766,0.002547,-0.004594,0.00808,0.000812,0.006367
1609054415459398270,159,1609054415459398270,0.007907,-0.004717,0.011293,0.999629,0.000166,0.026707,-0.00516,-0.010963,0.002031,-0.003477,0.004266,-0.001629,0.008984
1609054415568372726,160,1609054415568372726,0.007781,-0.002974,0.012757,0.999628,0.000154,0.026761,-0.005125,-0.01094,0.005594,0.001344,0.01337,0.000842,0.002034
1609054415666883707,161,1609054415666883707,0.008478,-0.002229,0.012795,0.999624,0.000191,0.026933,-0.005045,-0.009216,0.006067,0.000241,0.01062,0.001697,0.00497
1609054415760653973,162,1609054415760653973,0.009689,-0.004969,0.013776,0.999628,0.000361,0.026738,-0.005202,-0.007061,-0.00071,0.002292,0.006979,0.000448,0.005708
1609054415874499798,163,1609054415874499798,0.010365,-0.005796,0.014458,0.999629,0.000449,0.026661,-0.005393,-0.007142,0.000408,0.003847,0.018839,0.003548,-0.003078
1609054415967223644,164,1609054415967223644,0.009507,-0.004382,0.014986,0.999629,0.000393,0.026731,-0.005062,-0.009041,0.001805,0.004096,0.012451,-0.000153,0.003869
1609054416060900927,165,1609054416060900927,0.013339,-0.009123,0.014087,0.999623,0.000546,0.026921,-0.005218,-0.001405,-0.007581,0.000636,0.0063,0.000617,0.006619
1609054416177806377,166,1609054416177806377,0.011152,-0.010207,0.014558,0.999627,0.00015,0.026794,-0.005203,-0.008359,-0.006523,0.002467,0.019719,0.001618,-0.003059
1609054416270380974,167,1609054416270380974,0.009934,-0.011503,0.014484,0.999624,0.000149,0.026897,-0.005156,-0.011725,-0.010433,0.000825,0.013584,-0.001743,0.000999
1609054416364276648,168,1609054416364276648,0.009956,-0.011601,0.013209,0.999622,0.000284,0.026995,-0.005038,-0.012734,-0.009716,-0.001878,0.009975,0.000361,0.002785
1609054416460371494,169,1609054416460371494,0.009832,-0.007361,0.013048,0.999619,0.000259,0.027066,-0.005306,-0.012871,-0.004697,-0.00129,0.005277,0.001412,0.008066
1609054416570194721,170,1609054416570194721,0.011969,-0.003738,0.013109,0.999625,0.000377,0.026852,-0.005323,-0.008205,0.002665,-0.00163,0.014953,0.002366,0.001084
1609054416664018393,171,1609054416664018393,0.011565,-0.006268,0.013008,0.999626,0.000292,0.026792,-0.005434,-0.00877,-0.002671,-0.00166,0.010965,0.001842,0.00501
1609054416761210203,172,1609054416761210203,0.013308,-0.003311,0.014337,0.999627,0.000368,0.026809,-0.005152,-0.005315,0.001265,0.001605,0.00613,0.001259,0.008313
1609054416872062922,173,1609054416872062922,0.012884,0.003623,0.015143,0.999626,0.000258,0.026824,-0.005262,-0.00831,0.014795,0.002908,0.016939,0.004904,-0.003308
1609054416965483904,174,1609054416965483904,0.014867,-0.003676,0.014464,0.999621,0.000343,0.026986,-0.005282,-0.004282,0.000498,0.001007,0.010731,0.000403,0.003451
1609054417060499907,175,1609054417060499907,0.013208,0.001602,0.015815,0.999623,0.000336,0.026948,-0.005103,-0.010235,0.007017,0.002834,0.005404,-3.3e-05,0.009249
1609054417171416044,176,1609054417171416044,0.014057,0.006744,0.016032,0.999627,0.000435,0.026794,-0.005101,-0.009443,0.015498,0.003242,0.016553,0.002252,-0.000555
1609054417265791178,177,1609054417265791178,0.013868,0.00629,0.015732,0.999625,0.000335,0.026864,-0.005211,-0.009924,0.011008,0.001817,0.011217,2.2e-05,0.004383
1609054417361926317,178,1609054417361926317,0.013988,0.002781,0.01424,0.999625,0.000306,0.026877,-0.005215,-0.010469,0.002988,-0.002951,0.008973,0.001057,0.007639
1609054417472058773,179,1609054417472058773,0.013899,0.003433,0.01364,0.999628,0.000405,0.026795,-0.005012,-0.011591,0.006459,-0.003194,0.017235,0.00166,-0.001148
1609054417566003084,180,1609054417566003084,0.011946,0.005364,0.013551,0.999627,0.000141,0.026805,-0.005106,-0.016233,0.007717,-0.002367,0.011719,0.001752,0.00306
1609054417660468817,181,1609054417660468817,0.014193,0.004679,0.01305,0.999627,0.000345,0.026785,-0.005221,-0.009405,0.002992,-0.003555,0.004267,-0.001481,0.009876
1609054417770445108,182,1609054417770445108,0.013296,0.001646,0.012226,0.999621,0.000456,0.026974,-0.005412,-0.012609,-0.000724,-0.004329,0.015233,0.000266,-0.000178
1609054417864468336,183,1609054417864468336,0.013157,0.003713,0.013116,0.999621,0.000558,0.027005,-0.00526,-0.013243,0.000152,-0.00318,0.009597,0.001221,0.004904
1609054417959754229,184,1609054417959754229,0.012661,0.001755,0.013577,0.999622,5e-06,0.026975,-0.005162,-0.014011,-0.002559,-0.001911,0.007143,-0.000628,0.008555
1609054418070196390,185,1609054418070196390,0.009198,-0.002206,0.012644,0.999624,0.000285,0.026824,-0.005519,-0.021069,-0.008719,-0.003014,0.011717,0.001791,0.002971
1609054418164486408,186,1609054418164486408,0.010528,-0.001373,0.011077,0.999616,0.000349,0.027175,-0.005248,-0.015948,-0.007824,-0.00585,0.011338,0.0005,0.003747
1609054418259320259,187,1609054418259320259,0.00681,0.004838,0.011741,0.99963,-4.6e-05,0.026706,-0.005073,-0.022216,0.001559,-0.002819,0.002901,-0.000835,0.00952
1609054418370117426,188,1609054418370117426,0.008141,-0.000218,0.010479,0.999629,0.00024,0.026702,-0.005197,-0.017686,-0.004132,-0.005357,0.017481,0.000293,-6.9e-05
1609054418464111090,189,1609054418464111090,0.006285,-0.001153,0.010158,0.999627,0.000287,0.026804,-0.005206,-0.019815,-0.005559,-0.004461,0.010716,0.000275,0.004133
1609054418559254169,190,1609054418559254169,0.007794,-0.003275,0.011245,0.999626,0.000305,0.026825,-0.005289,-0.014696,-0.00941,-0.000788,0.00387,1e-05,0.009339
1609054418669648170,191,1609054418669648170,0.007829,-0.004171,0.012708,0.999627,0.000387,0.026789,-0.005221,-0.014291,-0.005816,0.003909,0.014766,0.000192,0.001641
1609054418763825417,192,1609054418763825417,0.007765,-0.004009,0.014077,0.99962,0.000226,0.027068,-0.005011,-0.014512,-0.004882,0.005556,0.008929,0.002748,0.004495
1609054418858804464,193,1609054418858804464,0.008704,0.000197,0.013895,0.999627,0.000206,0.026842,-0.004923,-0.010929,0.000509,0.004254,0.007538,0.002318,0.008102
1609054418969802141,194,1609054418969802141,0.009283,-0.001653,0.014097,0.999626,0.000243,0.026868,-0.005065,-0.010237,-0.002167,0.002773,0.011871,0.001017,0.002618
1609054419063722134,195,1609054419063722134,0.011932,-0.003098,0.014629,0.999626,0.000342,0.026841,-0.005151,-0.003509,-0.006063,0.002758,0.010765,0.00054,0.007214
1609054419159015417,196,1609054419159015417,0.014641,-0.004512,0.012986,0.999619,0.00031,0.027086,-0.005133,0.000465,-0.009116,-0.002882,0.002013,-0.000533,0.009776
1609054419270012617,197,1609054419270012617,0.011556,-0.004424,0.01323,0.999624,9.6e-05,0.026923,-0.005064,-0.009502,-0.005682,-0.001152,0.01369,0.001509,7.6e-05
1609054419363985538,198,1609054419363985538,0.010771,-0.009915,0.012297,0.999625,0.000101,0.026869,-0.005228,-0.010855,-0.014876,-0.002376,0.010312,0.000433,0.007172
1609054419459335089,199,1609054419459335089,0.009282,-0.009585,0.01209,0.99963,5e-05,0.026695,-0.005092,-0.013724,-0.014429,-0.002361,0.003069,-0.001463,0.009789
1609054419570042372,200,1609054419570042372,0.009436,-0.008084,0.013128,0.999625,0.00019,0.026889,-0.00511,-0.014169,-0.007638,-0.00058,0.016186,-0.001052,0.001032
1609054419663929224,201,1609054419663929224,0.007078,-0.007381,0.013836,0.999625,0.000353,0.026855,-0.005194,-0.018552,-0.00623,0.00127,0.008762,-0.000342,0.005214
1609054419759082556,202,1609054419759082556,0.006061,-0.007463,0.013412,0.99963,0.000198,0.026644,-0.005298,-0.018626,-0.006364,-3e-05,0.004841,0.00101,0.008746
1609054419869924068,203,1609054419869924068,0.007354,-0.004673,0.014479,0.999628,0.000306,0.026805,-0.005012,-0.01507,0.002354,0.002183,0.01198,0.001238,0.000699
1609054419963737488,204,1609054419963737488,0.005577,-0.005344,0.013215,0.999633,0.000317,0.026573,-0.005106,-0.017339,-2.4e-05,-0.00112,0.010253,0.000735,0.006022
1609054420058952332,205,1609054420058952332,0.004959,-0.001489,0.013417,0.999629,0.000366,0.026744,-0.00512,-0.017858,0.004481,-0.000991,0.00254,-0.000995,0.010131
1609054420170028448,206,1609054420170028448,0.004818,-0.002358,0.013002,0.999638,0.00047,0.026364,-0.005329,-0.015239,0.004637,-0.00145,0.013009,-0.000883,0.001117
1609054420263888836,207,1609054420263888836,0.008697,-0.007184,0.012475,0.999631,0.000692,0.026615,-0.005371,-0.005107,-0.003955,-0.002851,0.011036,0.001506,0.003324
1609054420359045267,208,1609054420359045267,0.010837,-0.005499,0.011079,0.999615,0.000549,0.027221,-0.005309,-0.003805,-0.003135,-0.006136,0.003499,0.001084,0.009396
1609054420469975233,209,1609054420469975233,0.009765,-0.007467,0.012722,0.999625,0.000415,0.026852,-0.005297,-0.008027,-0.003937,-0.00028,0.013483,0.001765,0.001968
1609054420563678026,210,1609054420563678026,0.009193,-0.006502,0.012923,0.999625,0.00034,0.026862,-0.005304,-0.010862,-0.004166,-0.001222,0.008423,-0.000848,0.007082
1609054420658852339,211,1609054420658852339,0.008317,-0.003739,0.013207,0.999626,0.000161,0.026842,-0.005037,-0.013212,0.00099,-0.000575,0.002803,-0.001472,0.009467
1609054420770562887,212,1609054420770562887,0.006018,-0.001547,0.013965,0.999624,0.000491,0.026932,-0.005016,-0.018229,0.005899,0.001549,0.011398,8.8e-05,0.002276
1609054420864519835,213,1609054420864519835,0.00657,-0.000731,0.013753,0.999628,0.000313,0.026783,-0.005064,-0.014975,0.005149,0.001159,0.010785,0.002534,0.004215
1609054420959661722,214,1609054420959661722,0.00712,0.004421,0.013038,0.99963,0.000258,0.026699,-0.005011,-0.011863,0.011192,-0.001576,0.003883,-0.000755,0.009112
1609054421070539713,215,1609054421070539713,0.006986,0.000899,0.013269,0.999625,0.000281,0.026885,-0.005013,-0.011872,0.006142,-0.001385,0.013286,0.000728,-0.000169
1609054421165136337,216,1609054421165136337,0.006041,0.001129,0.013676,0.999626,0.000462,0.026857,-0.005101,-0.013523,0.003605,0.001026,0.009863,0.001859,0.005329
1609054421259689093,217,1609054421259689093,0.005802,-0.000904,0.014537,0.99963,0.00036,0.026692,-0.005202,-0.012257,-0.001948,0.002524,0.006946,-0.000794,0.008528
1609054421370332003,218,1609054421370332003,0.007565,0.002382,0.013287,0.999629,0.000216,0.026683,-0.005279,-0.007859,0.004748,-0.001114,0.012933,-0.000572,0.001056
1609054421464591265,219,1609054421464591265,0.008932,0.004444,0.013329,0.999635,0.000299,0.026516,-0.005034,-0.004857,0.007323,-0.000866,0.008594,0.000502,0.005792
1609054421559391737,220,1609054421559391737,0.008488,0.002622,0.013504,0.999632,0.000227,0.026634,-0.005124,-0.005687,0.001961,-0.001144,0.002891,-0.000297,0.009301
1609054421670470476,221,1609054421670470476,0.008678,-0.001141,0.013188,0.999624,0.000165,0.026904,-0.005282,-0.008057,-0.003192,-0.002668,0.013596,0.000872,0.001818
1609054421764627934,222,1609054421764627934,0.01028,-0.002985,0.013087,0.999619,0.000515,0.027063,-0.005385,-0.004649,-0.00776,-0.002787,0.008548,-0.00101,0.007127
1609054421859828711,223,1609054421859828711,0.010098,-0.005019,0.013831,0.99962,0.000281,0.027039,-0.005283,-0.005732,-0.012306,-0.001488,0.002909,-0.000749,0.00961
1609054421970602274,224,1609054421970602274,0.01055,-0.005128,0.014506,0.999622,0.000305,0.026942,-0.00528,-0.006073,-0.00871,1.9e-05,0.014168,-0.000592,0.000769
1609054422064452410,225,1609054422064452410,0.01029,-0.000321,0.014011,0.999625,0.000333,0.026838,-0.005267,-0.007502,-0.001638,-0.002034,0.008905,0.0006,0.004997
1609054422159576654,226,1609054422159576654,0.009396,-0.002048,0.015289,0.99963,0.00025,0.026659,-0.00532,-0.009658,-0.005973,0.001004,0.004974,0.000967,0.009008
1609054422270252705,227,1609054422270252705,0.00841,0.000294,0.013884,0.999631,0.00012,0.026657,-0.005204,-0.011592,0.00036,-0.002776,0.012809,0.000933,0.000741
1609054422364330292,228,1609054422364330292,0.009449,-0.003101,0.014144,0.999632,0.000287,0.02659,-0.005345,-0.008279,-0.008223,-0.000834,0.008988,0.000317,0.005608
1609054422459209919,229,1609054422459209919,0.013264,-0.003314,0.013745,0.999623,0.000263,0.026969,-0.004999,-0.00057,-0.008417,-0.002605,0.002869,0.00042,0.010073
1609054422570088387,230,1609054422570088387,0.013272,-0.001727,0.014285,0.99963,0.000447,0.026706,-0.005013,-0.002741,-0.002708,-0.000518,0.012883,-0.000164,0.003004
1609054422664035797,231,1609054422664035797,0.01213,-0.002497,0.014149,0.999628,0.000493,0.026763,-0.005177,-0.007322,-0.005165,0.000174,0.00921,0.000401,0.006862
1609054422759145975,232,1609054422759145975,0.01147,-0.003061,0.014209,0.999624,0.000367,0.026873,-0.005271,-0.009451,-0.005836,-0.000181,0.00733,0.000844,0.00888
1609054422870306253,233,1609054422870306253,0.011882,-0.013364,0.014894,0.999627,0.000242,0.026759,-0.005379,-0.00883,-0.01966,0.001377,0.014394,0.001062,-0.000274
1609054422964282036,234,1609054422964282036,0.010775,-0.013224,0.014299,0.999628,0.000343,0.02676,-0.005091,-0.011371,-0.015868,0.000508,0.012379,0.003551,0.003298
1609054423059458971,235,1609054423059458971,0.010402,-0.007294,0.016182,0.999629,0.000453,0.026748,-0.004969,-0.011858,-0.005989,0.003889,0.005491,0.001083,0.008566
1609054423170310259,236,1609054423170310259,0.010394,-0.010059,0.014833,0.999625,0.000484,0.02685,-0.005233,-0.011793,-0.007391,0.000315,0.015419,0.001049,0.000226
1609054423264266491,237,1609054423264266491,0.009011,-0.006166,0.014917,0.999624,0.000151,0.026938,-0.005004,-0.014239,-0.00112,-0.00043,0.008418,-0.000178,0.005667
1609054423359496355,238,1609054423359496355,0.0084,-0.00439,0.014894,0.999627,0.000345,0.026851,-0.004959,-0.014644,0.001374,-0.000596,0.004333,-7.7e-05,0.00824
1609054423470298767,239,1609054423470298767,0.007359,-0.002769,0.014321,0.999629,0.000124,0.02679,-0.004892,-0.016107,0.007384,-0.001022,0.014683,0.002955,-0.000329
1609054423564407110,240,1609054423564407110,0.008812,-0.006199,0.014519,0.99963,0.000169,0.026741,-0.004855,-0.010882,-0.001257,-0.001093,0.0073,-0.001149,0.006022
1609054423659315348,241,1609054423659315348,0.011153,-0.007804,0.013992,0.999622,0.000277,0.026954,-0.005336,-0.006139,-0.006932,-0.003131,0.006535,-0.000975,0.008912
1609054423770085812,242,1609054423770085812,0.010114,-0.010134,0.013863,0.999626,0.000122,0.026851,-0.005143,-0.009564,-0.007682,-0.001153,0.013141,0.001307,0.001875
1609054423863925219,243,1609054423863925219,0.008125,-0.003941,0.014363,0.999626,0.000309,0.026873,-0.004995,-0.014644,0.002019,-0.000466,0.009979,0.000625,0.005715
1609054423959342003,244,1609054423959342003,0.008854,-0.002216,0.014867,0.99963,0.000344,0.026701,-0.005102,-0.011723,0.004035,0.000922,0.004693,-0.000256,0.008226
1609054424069988251,245,1609054424069988251,0.008561,-0.004185,0.014106,0.999633,0.00029,0.026612,-0.004991,-0.011016,0.002107,-0.00109,0.015292,0.00178,0.000902
1609054424163917303,246,1609054424163917303,0.009543,-0.007393,0.013388,0.999631,0.000295,0.026666,-0.00509,-0.007083,-0.006034,-0.002885,0.00385,0.001548,0.008424
1609054424259054899,247,1609054424259054899,0.009072,-0.003119,0.012812,0.999633,0.000216,0.026597,-0.005073,-0.009019,0.001145,-0.00403,0.004282,-0.000236,0.008952
1609054424370056152,248,1609054424370056152,0.009059,-0.003831,0.014003,0.999627,0.000199,0.026821,-0.004988,-0.009773,0.002891,0.000925,0.01415,0.002264,0.000639
1609054424464001179,249,1609054424464001179,0.008141,-0.003263,0.01429,0.999634,0.000216,0.026604,-0.004857,-0.010776,0.003995,0.000597,0.008508,0.000206,0.004487
1609054424559176922,250,1609054424559176922,0.007644,0.001649,0.015347,0.999631,0.000374,0.026677,-0.004906,-0.012206,0.009497,0.002107,0.002741,0.001172,0.009085
1609054424670102119,251,1609054424670102119,0.006046,0.002884,0.014142,0.999628,0.000439,0.026787,-0.004955,-0.015249,0.012327,-0.001305,0.012175,0.000591,0.001316
1609054424764034748,252,1609054424764034748,0.006416,0.002287,0.013679,0.999632,0.000363,0.026576,-0.005254,-0.012386,0.0079,-0.001841,0.010659,0.002368,0.003946
1609054424859049320,253,1609054424859049320,0.006082,0.005927,0.013001,0.999634,0.000237,0.026577,-0.004975,-0.012893,0.012133,-0.003014,0.004077,0.000494,0.008355
1609054424970034122,254,1609054424970034122,0.006723,-0.000519,0.01288,0.999629,0.00033,0.026693,-0.005304,-0.010449,0.001733,-0.002287,0.013531,-0.000644,0.001487
1609054425063878298,255,1609054425063878298,0.00772,-0.003987,0.012284,0.999625,0.000386,0.026859,-0.005234,-0.007345,-0.004313,-0.003076,0.009728,0.002048,0.005331
1609054425159103155,256,1609054425159103155,0.007645,-0.004225,0.013026,0.999623,0.000323,0.026954,-0.005063,-0.007425,-0.002902,-0.000531,0.005298,0.001217,0.007791
1609054425270055532,257,1609054425270055532,0.007623,-0.003623,0.013068,0.999625,0.000263,0.026899,-0.004962,-0.008319,0.000628,0.00013,0.013979,0.000656,0.001089
1609054425363741636,258,1609054425363741636,0.007879,-0.010891,0.012728,0.999628,0.000319,0.026742,-0.00529,-0.007184,-0.012294,-0.000854,0.010819,0.002356,0.004194
1609054425459070206,259,1609054425459070206,0.007667,-0.011631,0.01256,0.999625,0.000187,0.026859,-0.00523,-0.007443,-0.013004,-0.001397,0.003538,-0.001201,0.009634
1609054425570206404,260,1609054425570206404,0.009258,-0.009799,0.013086,0.999627,0.000476,0.026792,-0.005128,-0.004945,-0.005381,9.2e-05,0.013915,0.001753,0.000212
1609054425663785696,261,1609054425663785696,0.008565,-0.011713,0.013136,0.999625,0.000449,0.026889,-0.005028,-0.007284,-0.009218,-0.000743,0.007477,0.000199,0.008351
1609054425759110451,262,1609054425759110451,0.00819,-0.01386,0.011022,0.999615,0.000356,0.027232,-0.005203,-0.008972,-0.012957,-0.007279,0.006023,-0.000565,0.007708
1609054425870002985,263,1609054425870002985,0.007201,-0.011362,0.012621,0.999621,0.000302,0.027055,-0.004961,-0.011946,-0.003145,-0.00072,0.01189,0.001393,0.002232
1609054425963974237,264,1609054425963974237,0.006256,-0.009514,0.013119,0.999625,0.000303,0.026875,-0.005052,-0.012985,-0.002209,0.000644,0.009901,-0.000416,0.006312
1609054426058978558,265,1609054426058978558,0.006727,-0.011478,0.014082,0.999625,0.000213,0.026861,-0.005128,-0.011384,-0.006372,0.003512,0.004255,0.000159,0.008446
1609054426169999599,266,1609054426169999599,0.007673,-0.011585,0.013881,0.999632,0.000209,0.026609,-0.005223,-0.009766,-0.003227,0.002093,0.01323,0.001132,0.000429
1609054426263942003,267,1609054426263942003,0.008458,-0.008459,0.012667,0.999629,0.000321,0.026768,-0.004938,-0.007646,0.001437,-0.001056,0.010984,0.002368,0.004671
1609054426359135628,268,1609054426359135628,0.006835,-0.011094,0.01246,0.999626,0.000312,0.026832,-0.005116,-0.011307,-0.003611,-0.000732,0.005848,0.001326,0.00814
1609054426469990492,269,1609054426469990492,0.007928,-0.006484,0.0127,0.999629,0.00056,0.026716,-0.00522,-0.008121,0.004849,0.000185,0.012863,0.000168,0.001541
1609054426563951492,270,1609054426563951492,0.009282,-0.008759,0.013624,0.999623,0.000551,0.026904,-0.005366,-0.004942,-0.001967,0.0032,0.008239,-0.001951,0.006571
1609054426658741951,271,1609054426658741951,0.008032,-0.005274,0.014885,0.999625,0.000408,0.026851,-0.005211,-0.008835,0.00323,0.005234,0.002815,0.000722,0.008436
1609054426770044088,272,1609054426770044088,0.008108,-0.006135,0.016082,0.999627,0.000384,0.026812,-0.005136,-0.009106,0.004086,0.006747,0.013949,0.002819,0.000983
1609054426863754034,273,1609054426863754034,0.008211,-0.00535,0.014477,0.999628,0.000333,0.026737,-0.00521,-0.008089,0.002256,0.000868,0.008535,-0.001373,0.006955
1609054426958931923,274,1609054426958931923,0.00987,-0.002623,0.012507,0.999619,0.000344,0.027081,-0.00518,-0.00577,0.005055,-0.005491,0.004666,-0.001308,0.007997
1609054427069769382,275,1609054427069769382,0.010117,-0.002667,0.012908,0.999628,0.000352,0.026773,-0.00517,-0.006393,0.005877,-0.00346,0.012788,-0.001526,0.003231
1609054427163532019,276,1609054427163532019,0.008273,-0.002105,0.012321,0.999628,0.000234,0.026776,-0.005175,-0.01167,0.00514,-0.00395,0.010193,-0.000164,0.005307
1609054427258726835,277,1609054427258726835,0.00943,-0.009214,0.013041,0.999626,0.000391,0.026847,-0.005171,-0.008675,-0.006906,-0.001261,0.004944,0.002271,0.008433
1609054427369786263,278,1609054427369786263,0.009442,-0.013856,0.013036,0.999627,0.000333,0.026782,-0.005317,-0.008231,-0.011664,-0.000578,0.014742,0.002098,0.002151
1609054427463493824,279,1609054427463493824,0.009254,-0.015493,0.013275,0.999627,-2.2e-05,0.026829,-0.005047,-0.008707,-0.012454,1.4e-05,0.008475,-0.002704,0.005805
1609054427558803320,280,1609054427558803320,0.007604,-0.014144,0.013694,0.999624,0.000275,0.026914,-0.005104,-0.013305,-0.010997,0.001207,0.002183,-0.002301,0.009377
1609054427669877291,281,1609054427669877291,0.003825,-0.011591,0.012749,0.999629,0.000293,0.026717,-0.005189,-0.020547,-0.003753,-0.000647,0.012889,2.9e-05,0.001306
1609054427763384342,282,1609054427763384342,0.003476,-0.003381,0.013013,0.999632,0.000243,0.02668,-0.004795,-0.018799,0.009106,-0.000436,0.007267,0.000587,0.007498
1609054427859019041,283,1609054427859019041,0.003534,0.002289,0.012627,0.999629,0.000393,0.026752,-0.004994,-0.016841,0.014401,-0.000751,0.004708,0.001829,0.008728
1609054427969795227,284,1609054427969795227,0.005188,0.000442,0.012981,0.999628,0.000232,0.026764,-0.005145,-0.01142,0.009588,-0.00041,0.010791,0.001633,0.002987
1609054428064557314,285,1609054428064557314,0.00715,-0.002081,0.013414,0.999629,0.000279,0.026654,-0.005499,-0.00585,0.003197,-0.00054,0.009065,-0.000735,0.004596
1609054428159039497,286,1609054428159039497,0.008033,-0.000346,0.012757,0.999629,0.000389,0.026702,-0.005255,-0.003831,0.005901,-0.002308,0.005418,-7.2e-05,0.007844
1609054428269650459,287,1609054428269650459,0.009526,-0.003144,0.012427,0.999624,0.000558,0.026895,-0.005295,-0.002083,0.002228,-0.0038,0.010607,-0.00095,0.001708
1609054428363430500,288,1609054428363430500,0.009358,-0.001801,0.01358,0.999625,0.000557,0.026869,-0.005249,-0.00432,0.003044,-0.000933,0.008325,0.001415,0.007328
1609054428458909988,289,1609054428458909988,0.009094,-0.000395,0.01282,0.999624,0.000364,0.026891,-0.005197,-0.005399,0.003629,-0.002485,0.003618,0.001929,0.008975
1609054428569565773,290,1609054428569565773,0.009236,-0.000864,0.013049,0.999621,0.000437,0.027003,-0.00519,-0.006701,0.004831,-0.001848,0.015291,0.000742,0.000712
1609054428663282871,291,1609054428663282871,0.00905,-0.001454,0.013065,0.999624,0.000278,0.026875,-0.005357,-0.007653,0.001915,-0.001914,0.009464,-0.001303,0.00473
1609054428758571625,292,1609054428758571625,0.011334,-0.001951,0.013536,0.999629,0.000508,0.026739,-0.005101,-0.002727,0.001589,-0.001312,0.003094,-0.001607,0.011089
1609054428869471788,293,1609054428869471788,0.011547,-0.000111,0.013906,0.999619,0.000593,0.027099,-0.005101,-0.00531,0.006486,-0.000338,0.013593,-0.000182,0.001922
1609054428963313580,294,1609054428963313580,0.008491,-0.000478,0.013851,0.999626,0.000583,0.0268,-0.005265,-0.011887,0.003101,0.000261,0.009234,-0.000385,0.004652
1609054429058798790,295,1609054429058798790,0.009381,-0.002076,0.012882,0.999621,0.000331,0.027001,-0.005232,-0.008568,-0.001617,-0.001664,0.004887,0.000885,0.00913
1609054429169764280,296,1609054429169764280,0.009282,0.001788,0.011822,0.999627,0.000482,0.026803,-0.005129,-0.008601,0.006688,-0.003172,0.013233,-0.000743,0.00121
1609054429263825178,297,1609054429263825178,0.00947,-0.003107,0.012285,0.999631,0.000502,0.026608,-0.005255,-0.007124,-0.003732,-0.00188,0.007961,-2.3e-05,0.005644
1609054429358830214,298,1609054429358830214,0.01028,-0.007885,0.012144,0.999627,0.000507,0.026751,-0.005451,-0.004907,-0.012961,-0.001845,0.00293,-0.001015,0.009881
1609054429469820499,299,1609054429469820499,0.009767,-0.007034,0.01303,0.999624,0.000338,0.026906,-0.005141,-0.008203,-0.006399,0.000157,0.012749,0.000866,0.001249
1609054429563561440,300,1609054429563561440,0.008705,-0.004243,0.013161,0.999623,0.00035,0.026998,-0.004906,-0.011113,-0.000529,0.000357,0.010742,0.001903,0.004094
1609054429658920050,301,1609054429658920050,0.00918,-0.004026,0.013658,0.999624,0.000409,0.026929,-0.005043,-0.009596,-0.00235,0.001271,0.002761,-0.000592,0.009251
1609054429769555569,302,1609054429769555569,0.008952,-0.005955,0.014073,0.99963,0.000404,0.0267,-0.005025,-0.010239,-0.003607,0.001461,0.012139,-0.000422,0.0024
1609054429863430977,303,1609054429863430977,0.009216,-0.006677,0.013653,0.999632,0.000433,0.026655,-0.004969,-0.008581,-0.005085,-2.3e-05,0.006709,-0.00144,0.005533
1609054429959448576,304,1609054429959448576,0.006556,-0.002427,0.012785,0.999631,0.0004,0.026682,-0.005045,-0.014299,0.00043,-0.001449,0.002827,-0.001568,0.009022
1609054430070038319,305,1609054430070038319,0.007456,-0.000878,0.013849,0.999632,0.000312,0.026652,-0.005012,-0.011819,0.005032,0.001912,0.014511,0.003088,-0.000686
1609054430163857222,306,1609054430163857222,0.007944,-0.006632,0.013604,0.999629,0.000281,0.026727,-0.005098,-0.009533,-0.006768,0.001455,0.007921,0.001696,0.007918
1609054430258804560,307,1609054430258804560,0.009811,-0.007845,0.0132,0.999621,0.000441,0.027039,-0.00506,-0.005845,-0.00948,-0.000284,0.00309,0.000203,0.008481
1609054430369770527,308,1609054430369770527,0.008681,-0.002585,0.012834,0.999629,0.000273,0.026741,-0.005097,-0.008925,0.002793,-0.000402,0.012946,-9.9e-05,0.000856
1609054430463466406,309,1609054430463466406,0.008939,-0.000409,0.012635,0.999631,0.000334,0.02666,-0.005024,-0.008043,0.005129,-0.001521,0.009178,0.000154,0.006228
1609054430558634520,310,1609054430558634520,0.00895,-0.003207,0.012449,0.999627,0.00032,0.026775,-0.005213,-0.008287,-0.001559,-0.00234,0.004899,-0.002131,0.008249
1609054430669348001,311,1609054430669348001,0.00789,0.000845,0.013586,0.999626,0.000486,0.026851,-0.005123,-0.011687,0.005674,0.001317,0.014614,0.000375,0.001374
1609054430763450146,312,1609054430763450146,0.008081,0.003168,0.014009,0.99963,0.000471,0.026688,-0.005113,-0.009262,0.007227,0.002541,0.013359,0.003582,0.004211
1609054430858603716,313,1609054430858603716,0.008592,0.003987,0.013669,0.999628,0.000533,0.026768,-0.005071,-0.007422,0.005824,0.000961,0.00246,-0.000959,0.010305
1609054430969798326,314,1609054430969798326,0.008575,0.00408,0.013469,0.999628,0.000356,0.026774,-0.005126,-0.007118,0.007638,0.000208,0.013118,0.000673,0.002253
1609054431063582659,315,1609054431063582659,0.009113,0.001328,0.013898,0.999624,0.000386,0.026882,-0.005228,-0.006464,-5e-05,0.000483,0.008063,-0.002003,0.005529
1609054431158975840,316,1609054431158975840,0.00941,0.005188,0.01478,0.999627,0.000355,0.026808,-0.005145,-0.006187,0.00365,0.002378,0.002324,-0.001991,0.009076
1609054431270025015,317,1609054431270025015,0.01086,0.005293,0.014681,0.999626,0.000375,0.026785,-0.005375,-0.005528,0.00433,0.002011,0.015432,0.001581,-0.000159
1609054431363705635,318,1609054431363705635,0.011242,0.003316,0.015047,0.999624,0.000249,0.026896,-0.00532,-0.005382,-0.001564,0.002254,0.008329,0.000449,0.005528
1609054431459053516,319,1609054431459053516,0.010475,0.000916,0.015167,0.999626,0.000314,0.026802,-0.0053,-0.008183,-0.006622,0.001725,0.004506,-0.000192,0.010297
1609054431570143461,320,1609054431570143461,0.009423,0.001556,0.015281,0.999621,0.000241,0.027035,-0.005101,-0.012156,-0.000894,0.001254,0.014014,-0.000436,0.000608
1609054431663699389,321,1609054431663699389,0.009469,-0.001982,0.014196,0.999624,0.00021,0.02688,-0.005304,-0.010061,-0.007924,-0.002285,0.008567,0.001224,0.005273
1609054431758923292,322,1609054431758923292,0.010197,-0.003206,0.014576,0.999624,0.000239,0.026903,-0.005253,-0.008635,-0.009344,-0.00107,0.005495,-0.001778,0.010221
1609054431869878054,323,1609054431869878054,0.012599,-0.010803,0.013895,0.999622,0.000483,0.02692,-0.005446,-0.003642,-0.019977,-0.002711,0.01484,0.000573,9.6e-05
1609054431963661671,324,1609054431963661671,0.013365,-0.010208,0.01395,0.999626,0.000336,0.026841,-0.005085,-0.002513,-0.016585,-0.002672,0.008189,0.001471,0.005965
1609054432058907032,325,1609054432058907032,0.011584,-0.011315,0.013161,0.999626,0.000349,0.026831,-0.00516,-0.007202,-0.017611,-0.004058,0.002911,0.000963,0.010551
1609054432169985294,326,1609054432169985294,0.008377,-0.012242,0.01363,0.99963,0.000163,0.026676,-0.005188,-0.014925,-0.013237,-0.002122,0.012018,0.000933,0.000475
1609054432263644457,327,1609054432263644457,0.00823,-0.0074,0.013887,0.999634,0.000362,0.026588,-0.004813,-0.013656,-0.003995,-0.001812,0.008631,-0.002164,0.00666
1609054432359347343,328,1609054432359347343,0.009624,-0.006259,0.012478,0.99962,0.00025,0.027062,-0.005167,-0.011721,-0.003322,-0.006241,0.004002,-0.000743,0.009568
1609054432469973326,329,1609054432469973326,0.008226,-0.008684,0.012036,0.999629,0.000182,0.026757,-0.004981,-0.014414,-0.002864,-0.0052,0.013294,0.000413,-0.000129
1609054432563478470,330,1609054432563478470,0.010191,-0.008979,0.012471,0.999631,0.00055,0.026643,-0.005088,-0.00899,-0.004351,-0.002013,0.010756,0.00393,0.004796
1609054432658759356,331,1609054432658759356,0.010294,-0.011287,0.011341,0.999627,0.000378,0.026821,-0.005107,-0.007631,-0.007197,-0.004483,0.003546,-6.9e-05,0.008693
1609054432769861221,332,1609054432769861221,0.012805,-0.010112,0.013204,0.999623,0.000413,0.026935,-0.005135,-0.004661,-0.003379,-0.000667,0.014256,-0.000244,0.001015
1609054432863534212,333,1609054432863534212,0.01121,-0.012866,0.013721,0.999627,0.000542,0.02684,-0.00488,-0.008552,-0.008056,-0.000187,0.009182,-0.000454,0.005539
1609054432958740473,334,1609054432958740473,0.011375,-0.015102,0.014249,0.999628,0.000406,0.026799,-0.005027,-0.008115,-0.010905,0.000954,0.004409,-0.000938,0.007484
1609054433069976807,335,1609054433069976807,0.008239,-0.013576,0.014212,0.999627,0.000355,0.026789,-0.005155,-0.015356,-0.004737,0.001508,0.015281,0.002884,-0.000595
1609054433163552999,336,1609054433163552999,0.00783,-0.012865,0.014016,0.999626,0.000218,0.026857,-0.005053,-0.014274,-0.005417,0.000338,0.007901,0.000315,0.00753
1609054433258788586,337,1609054433258788586,0.006086,-0.011297,0.013597,0.999629,0.000156,0.026741,-0.005118,-0.016372,-0.003198,-0.001038,0.004053,-0.002036,0.008964
1609054433370133162,338,1609054433370133162,0.004802,-0.008951,0.01275,0.999628,0.000249,0.026752,-0.005133,-0.017418,0.004002,-0.002417,0.012819,0.00193,-0.000191
1609054433463714838,339,1609054433463714838,0.005683,-0.008003,0.013447,0.999627,2.3e-05,0.026769,-0.005229,-0.013984,0.004148,-0.000292,0.010342,0.001355,0.003487
1609054433558340073,340,1609054433558340073,0.008656,-0.003925,0.012795,0.999623,-7e-06,0.026949,-0.005199,-0.007274,0.008046,-0.00336,0.002992,-0.000194,0.008305
1609054433669966698,341,1609054433669966698,0.009568,-0.003253,0.01354,0.999627,9.9e-05,0.026794,-0.005274,-0.00625,0.011434,-0.001249,0.013786,0.002289,-0.000434
1609054433763217449,342,1609054433763217449,0.009697,-0.003873,0.013224,0.999629,0.000181,0.026688,-0.005357,-0.005965,0.007097,-0.001585,0.010675,0.000643,0.005714
1609054433858493805,343,1609054433858493805,0.008603,-0.00358,0.014251,0.999626,9.9e-05,0.026815,-0.005224,-0.008368,0.007169,0.001185,0.006184,-0.000157,0.007279
1609054433969532728,344,1609054433969532728,0.007414,-0.002718,0.013656,0.999626,0.000132,0.026818,-0.005319,-0.011479,0.008231,-0.000817,0.014633,0.000695,0.000939
1609054434063239813,345,1609054434063239813,0.005768,-0.003533,0.012824,0.999628,0.000141,0.026786,-0.005045,-0.014244,0.005409,-0.002736,0.009067,0.000413,0.005384
1609054434158254862,346,1609054434158254862,0.004773,-0.005571,0.012749,0.99963,9.5e-05,0.026635,-0.005406,-0.015194,-0.001044,-0.003406,0.002274,-0.000254,0.008587
1609054434269777775,347,1609054434269777775,0.006915,-0.00883,0.012395,0.999632,5.5e-05,0.026572,-0.005374,-0.008709,-0.003941,-0.003661,0.012588,0.002344,0.001842
1609054434363345623,348,1609054434363345623,0.005586,-0.001135,0.013607,0.999625,0.000286,0.026853,-0.005174,-0.011956,0.006143,-0.001501,0.005974,0.000967,0.008171
1609054434458718300,349,1609054434458718300,0.008126,-0.000365,0.013779,0.99963,0.000588,0.026645,-0.005333,-0.004094,0.004622,-0.001558,0.005249,-0.000522,0.008154
1609054434570358276,350,1609054434570358276,0.011093,-0.004147,0.014795,0.999628,0.0003,0.02676,-0.005245,0.002654,-0.000928,0.000985,0.010786,0.000384,0.004201
1609054434663195610,351,1609054434663195610,0.013268,-0.004729,0.013221,0.99962,0.000113,0.027036,-0.005218,0.004787,-0.00212,-0.002508,0.010352,0.000604,0.004001
1609054434758611441,352,1609054434758611441,0.011471,-0.000251,0.01405,0.999625,0.00019,0.026893,-0.005118,-0.002363,0.003864,0.000503,0.00514,0.000605,0.008567
1609054434869754314,353,1609054434869754314,0.006098,0.000409,0.013419,0.999625,0.00031,0.026807,-0.005413,-0.023165,0.007238,0.000544,0.014046,-0.000148,0.001446
1609054434963961124,354,1609054434963961124,0.006313,-0.00143,0.013353,0.999625,0.00024,0.026877,-0.005155,-0.017946,0.002203,-8.3e-05,0.011955,0.00302,0.003036
1609054435058277130,355,1609054435058277130,0.007446,-0.006009,0.012873,0.999621,0.0003,0.026968,-0.005341,-0.012479,-0.012087,-0.002337,0.004489,-0.000641,0.009971
1609054435169839382,356,1609054435169839382,0.006567,-0.003761,0.012646,0.999624,0.000286,0.026889,-0.005276,-0.013449,-0.004946,-0.002883,0.012904,-0.000523,0.001728
1609054435263457298,357,1609054435263457298,0.005977,-0.006868,0.012598,0.999627,0.000297,0.026777,-0.005292,-0.014172,-0.011348,-0.0023,0.008981,-0.002441,0.005688
1609054435358224869,358,1609054435358224869,0.004272,-0.011801,0.012741,0.999626,0.000331,0.026798,-0.00527,-0.01654,-0.018167,-0.001372,0.005466,0.000813,0.008898
1609054435469471455,359,1609054435469471455,0.006576,-0.012359,0.01183,0.999624,0.000237,0.02692,-0.005127,-0.010685,-0.014147,-0.003858,0.01326,0.001014,0.00126
1609054435563092232,360,1609054435563092232,0.007532,-0.013135,0.011768,0.999629,1.8e-05,0.026751,-0.005096,-0.007275,-0.014754,-0.003285,0.00901,0.000686,0.00663
1609054435658453703,361,1609054435658453703,0.012297,-0.01021,0.011637,0.999618,0.000153,0.027178,-0.004967,0.00153,-0.009524,-0.003608,0.005685,0.000299,0.007193
1609054435769315004,362,1609054435769315004,0.012292,-0.010614,0.012483,0.999625,0.000216,0.026879,-0.005204,-0.000915,-0.006996,-4.6e-05,0.016094,0.001367,-0.000352
1609054435863132954,363,1609054435863132954,0.012279,-0.010064,0.012342,0.999631,0.000347,0.026641,-0.005141,-0.001919,-0.006713,2.4e-05,0.010154,0.000451,0.004762
1609054435958314419,364,1609054435958314419,0.011293,-0.008623,0.012919,0.999624,0.000151,0.026901,-0.00518,-0.006375,-0.003836,0.000875,0.007137,0.000301,0.0087
