time,field.header.seq,field.header.stamp,field.pose.pose.position.x,field.pose.pose.position.y,field.pose.pose.position.z,field.pose.pose.orientation.x,field.pose.pose.orientation.y,field.pose.pose.orientation.z,field.pose.pose.orientation.w,field.twist.twist.linear.x,field.twist.twist.linear.y,field.twist.twist.linear.z,field.twist.twist.angular.x,field.twist.twist.angular.y,field.twist.twist.angular.z
1609055983142194748,2,1609055983142194748,-0.002767,-0.008186,0.002144,0.99945,2.9e-05,0.033022,-0.002941,0.008776,-0.008261,-0.000291,-0.000922,-0.001345,0.010457
1609055983254577160,3,1609055983254577160,-0.005205,-0.016509,0.001625,0.999447,-0.000241,0.033114,-0.002863,-0.00175,-0.026132,-0.001311,0.00433,0.000719,0.004949
1609055983348391056,4,1609055983348391056,-0.003122,-0.012823,0.001556,0.999445,0.00012,0.033168,-0.002882,0.001702,-0.013427,-0.001207,0.002602,0.002867,0.006512
1609055983442195654,5,1609055983442195654,-0.001417,-0.009052,0.001415,0.99945,0.000123,0.033016,-0.002874,0.004492,-0.004808,-0.001347,-0.001665,-0.003817,0.011166
1609055983554573298,6,1609055983554573298,-0.00405,-0.00915,0.001579,0.999451,-3.6e-05,0.032978,-0.002892,-0.004245,-0.001746,-0.000303,0.004419,0.002251,0.004391
1609055983648052692,7,1609055983648052692,-0.006319,-0.010788,0.001996,0.999451,-4.1e-05,0.03299,-0.002975,-0.008603,-0.005065,0.001277,0.000702,0.001571,0.006942
1609055983741902828,8,1609055983741902828,-0.009291,-0.008392,0.00255,0.999451,-2.1e-05,0.033013,-0.002744,-0.014534,-0.000112,0.002638,0.000592,-0.001756,0.010638
1609055983854824066,9,1609055983854824066,-0.012976,-0.016186,0.003198,0.999451,-0.000161,0.032978,-0.002854,-0.018947,-0.011413,0.004487,0.004163,0.001087,0.004079
1609055983948734522,10,1609055983948734522,-0.013436,-0.017544,0.002655,0.999455,-0.000252,0.032868,-0.00284,-0.015945,-0.011736,0.00238,0.001931,0.00178,0.006579
1609055984042413473,11,1609055984042413473,-0.013812,-0.018202,0.001329,0.999448,-0.000307,0.033069,-0.00294,-0.014731,-0.012469,-0.000358,-0.001722,-0.000197,0.009432
1609055984154801846,12,1609055984154801846,-0.012362,-0.013498,0.001823,0.999454,-0.000212,0.032903,-0.002796,-0.009023,-0.001162,0.001006,0.002083,0.003157,0.004429
1609055984248759508,13,1609055984248759508,-0.010836,-0.011656,0.002299,0.999459,-0.000162,0.032758,-0.002914,-0.004599,0.000941,0.000887,0.001656,0.001556,0.00845
1609055984342432499,14,1609055984342432499,-0.007592,-0.008798,0.002479,0.999455,0.0001,0.032848,-0.002994,0.002358,0.002728,0.000778,0.00039,-0.002714,0.010156
1609055984454796314,15,1609055984454796314,-0.005304,-0.008315,0.002785,0.999461,9.2e-05,0.032671,-0.002967,0.006447,0.003663,0.001374,0.004138,0.004025,0.00278
1609055984548338890,16,1609055984548338890,-0.005431,-0.007227,0.002455,0.999457,0.000111,0.032784,-0.00311,0.004001,0.003116,-0.00049,0.001763,0.001344,0.009039
1609055984642187357,17,1609055984642187357,-0.00435,-0.007691,0.002317,0.999453,4.9e-05,0.032922,-0.00303,0.005416,0.000994,0.000462,-0.002524,0.000783,0.009761
1609055984754936218,18,1609055984754936218,-0.005346,-0.008405,0.002431,0.999456,2e-06,0.032841,-0.002898,0.001866,0.001469,0.001002,0.001822,0.001491,0.006884
1609055984848560810,19,1609055984848560810,-0.003698,-0.006037,0.002246,0.999451,0.000109,0.032979,-0.002858,0.003921,0.003282,-0.000153,0.0034,-0.001704,0.007119
1609055984942312479,20,1609055984942312479,-0.002799,-0.006869,0.002114,0.999453,5e-05,0.032932,-0.00288,0.005016,0.000966,0.000427,-0.000338,-0.002237,0.009489
1609055985054688215,21,1609055985054688215,-0.00238,-0.009121,0.002081,0.999452,0.000128,0.03296,-0.002973,0.004401,-0.001303,0.00035,0.002739,0.002842,0.005222
1609055985148631334,22,1609055985148631334,-0.00269,-0.00805,0.002763,0.99946,0.000135,0.03271,-0.00288,0.003349,0.000143,0.001588,0.001472,0.002059,0.00717
1609055985241895914,23,1609055985241895914,-0.003418,-0.00944,0.002973,0.999453,0.0001,0.032934,-0.002971,0.000987,-0.003204,0.001709,-0.00346,-0.000215,0.00856
1609055985354471922,24,1609055985354471922,-0.004291,-0.010398,0.002876,0.999455,0.000107,0.03286,-0.002995,-0.001098,-0.002855,0.001338,0.001575,0.000691,0.004532
1609055985448390007,25,1609055985448390007,-0.003994,-0.010138,0.003017,0.999453,0.000142,0.032918,-0.002959,-0.001183,-0.00268,0.001258,0.003111,0.002108,0.008155
1609055985542744637,26,1609055985542744637,-0.003167,-0.008936,0.002842,0.999457,9.5e-05,0.032806,-0.002979,2e-06,-0.001256,0.001151,0.001146,-0.001755,0.008936
1609055985654642820,27,1609055985654642820,-0.008372,-0.01023,0.002512,0.999452,-0.000118,0.032953,-0.002956,-0.012968,-0.001556,0.001269,0.003498,0.002934,0.005501
1609055985748525381,28,1609055985748525381,-0.006891,-0.008986,0.002737,0.999453,3e-05,0.032939,-0.002875,-0.007268,0.000679,0.001081,0.000273,0.001312,0.006674
1609055985842296839,29,1609055985842296839,-0.006278,-0.006626,0.002213,0.99945,0.000158,0.033016,-0.002839,-0.005896,0.003468,-0.001363,-0.002256,-0.001753,0.009596
1609055985954728842,30,1609055985954728842,-0.006272,-0.005882,0.002871,0.999454,-1.1e-05,0.032884,-0.002895,-0.004044,0.004457,0.000605,0.002544,0.001402,0.005059
1609055986048628569,31,1609055986048628569,-0.007385,-0.006693,0.002447,0.999453,0.00019,0.032908,-0.002966,-0.005413,0.002364,-0.001567,0.001883,0.001399,0.006773
1609055986142448664,32,1609055986142448664,-0.007149,-0.006681,0.001545,0.999447,-0.000127,0.033093,-0.002926,-0.004669,0.000474,-0.002951,-0.001457,-0.002662,0.00855
1609055986254988432,33,1609055986254988432,-0.008424,-0.008675,0.001964,0.999453,-0.00024,0.032942,-0.002892,-0.006467,-0.000265,-0.0006,0.000811,0.002491,0.00401
1609055986348767996,34,1609055986348767996,-0.005929,-0.008262,0.00092,0.999447,-2.5e-05,0.033092,-0.003035,-0.001593,-0.000797,-0.0037,0.0004,0.002562,0.006364
1609055986442525625,35,1609055986442525625,-0.006908,-0.008355,0.001207,0.999452,3.8e-05,0.03295,-0.002945,-0.002414,-0.001802,-0.002148,-0.001197,-0.002993,0.00827
1609055986554770708,36,1609055986554770708,-0.004858,-0.005517,0.002482,0.999454,-1e-05,0.032904,-0.00272,0.002154,0.004521,0.002036,0.003206,0.000638,0.004653
1609055986648843050,37,1609055986648843050,-0.002371,0.000621,0.001954,0.999459,6.5e-05,0.032774,-0.002644,0.005912,0.01412,0.000415,0.002324,0.001861,0.005516
1609055986742660522,38,1609055986742660522,-0.000574,2e-05,0.00178,0.999454,-3e-06,0.032894,-0.002885,0.008598,0.008845,0.000737,0.000252,0.001678,0.009253
1609055986854727507,39,1609055986854727507,-0.002052,0.000226,0.001851,0.99945,6.5e-05,0.033021,-0.002974,0.002433,0.009609,0.001702,0.005987,0.004267,0.004028
1609055986948480844,40,1609055986948480844,-0.003329,-0.002778,0.002041,0.999446,5.5e-05,0.033117,-0.003056,-0.001237,0.002537,0.001621,-7.2e-05,0.000682,0.007264
1609055987043408871,41,1609055987043408871,-0.004934,-0.002667,0.003139,0.999453,6.8e-05,0.032915,-0.003102,-0.00359,0.002115,0.003743,0.001352,-0.001007,0.008729
1609055987155035973,42,1609055987155035973,-0.009023,-0.006227,0.003487,0.999459,-0.000155,0.032725,-0.003107,-0.010357,-0.002373,0.005365,0.004161,0.003414,0.004525
1609055987248759985,43,1609055987248759985,-0.008794,-0.008197,0.001849,0.999452,-4e-06,0.03293,-0.003139,-0.008273,-0.006317,0.000762,0.001143,0.000534,0.006265
1609055987343108177,44,1609055987343108177,-0.008897,-0.007527,0.002202,0.999453,-4.5e-05,0.032926,-0.003014,-0.007436,-0.005661,0.001726,-0.001006,0.001129,0.010655
1609055987454953909,45,1609055987454953909,-0.010886,-0.010588,0.001658,0.999452,-0.000103,0.032947,-0.003073,-0.010029,-0.007806,-1e-05,-0.000983,0.000719,0.005904
1609055987548728943,46,1609055987548728943,-0.011199,-0.013614,0.001619,0.99945,-4.3e-05,0.032986,-0.003169,-0.00831,-0.011757,8e-06,0.002538,0.002289,0.005106
1609055987643239737,47,1609055987643239737,-0.011948,-0.015342,0.001598,0.999449,-0.000108,0.033022,-0.003127,-0.009083,-0.014563,0.000254,0.000499,-6.2e-05,0.008866
1609055987755050421,48,1609055987755050421,-0.014696,-0.017332,0.002037,0.999457,-0.000116,0.032806,-0.00297,-0.013333,-0.014096,0.001287,0.003088,0.000843,0.007502
1609055987848634481,49,1609055987848634481,-0.01634,-0.015004,0.002216,0.999455,-8.5e-05,0.032869,-0.002752,-0.015153,-0.008032,0.002399,0.001147,-0.000727,0.008365
1609055987944043875,50,1609055987944043875,-0.017071,-0.013578,0.001488,0.999454,-0.000249,0.032913,-0.002848,-0.014606,-0.005465,-0.001047,-0.000687,-0.001274,0.009857
1609055988054831743,51,1609055988054831743,-0.014268,-0.014452,0.001917,0.999455,-0.000176,0.032865,-0.002952,-0.005877,-0.006461,0.000516,0.001418,0.001381,0.005704
1609055988148486614,52,1609055988148486614,-0.011729,-0.014023,0.000685,0.999451,-6.1e-05,0.032991,-0.002897,0.000889,-0.004189,-0.002496,-1.9e-05,0.001237,0.006618
1609055988242024422,53,1609055988242024422,-0.010444,-0.009742,0.001382,0.999453,0.000192,0.032935,-0.002848,0.001225,0.002649,-0.000825,-0.001016,-0.002823,0.009679
1609055988354472876,54,1609055988354472876,-0.012186,-0.012348,0.001428,0.999449,-0.000117,0.033033,-0.002987,-0.00294,-0.001637,0.00021,0.003724,0.001515,0.004611
1609055988448095560,55,1609055988448095560,-0.010605,-0.013148,0.0018,0.999449,-0.00024,0.033055,-0.00299,0.000965,-0.003538,0.000662,0.002958,-0.000543,0.006311
1609055988542609215,56,1609055988542609215,-0.00815,-0.008781,0.001498,0.999448,-0.000148,0.033081,-0.002823,0.004735,0.002588,-0.000121,-0.000975,-0.000636,0.0087
1609055988654456377,57,1609055988654456377,-0.004558,-0.008163,0.001417,0.99945,-3e-06,0.033015,-0.002799,0.009859,0.003084,0.000658,0.002196,-0.000442,0.00551
1609055988748525381,58,1609055988748525381,-0.002903,-0.005816,0.002878,0.999455,-9.1e-05,0.032876,-0.002768,0.011608,0.007363,0.003412,0.002584,-0.001059,0.007444
1609055988842123270,59,1609055988842123270,-0.004082,-0.006148,0.002268,0.99945,-0.000171,0.033028,-0.002926,0.006001,0.004579,0.001242,-0.000927,-0.002064,0.008517
1609055988954743385,60,1609055988954743385,-0.005336,-0.007052,0.002373,0.999453,-5.6e-05,0.032907,-0.002978,0.000475,0.003166,0.001674,0.005309,0.000848,0.004036
1609055989049339056,61,1609055989049339056,-0.010128,-0.011724,0.001147,0.999448,-0.000179,0.033066,-0.003077,-0.010279,-0.004558,-0.001401,0.002568,0.001663,0.006137
1609055989142338276,62,1609055989142338276,-0.013603,-0.015016,0.001856,0.999454,-0.000152,0.032874,-0.003141,-0.01581,-0.009294,0.001322,-0.002369,0.000136,0.008859
1609055989254841805,63,1609055989254841805,-0.016322,-0.017689,0.001726,0.999455,-0.000267,0.032847,-0.00308,-0.017968,-0.01,0.000628,0.004025,0.002882,0.004078
1609055989348921061,64,1609055989348921061,-0.014812,-0.014462,0.001544,0.999458,-4.5e-05,0.032778,-0.002859,-0.012038,-0.004392,-0.000794,0.001517,0.001754,0.006011
1609055989442510366,65,1609055989442510366,-0.014275,-0.018796,0.001436,0.999454,-0.000105,0.032876,-0.002987,-0.008121,-0.012784,-0.001294,-0.001933,-0.001548,0.010929
1609055989554576159,66,1609055989554576159,-0.015328,-0.017586,0.001332,0.999454,-0.000123,0.032897,-0.002723,-0.009531,-0.007201,-0.000679,0.001101,-0.00032,0.006267
1609055989649075508,67,1609055989649075508,-0.014542,-0.01506,0.001246,0.999456,-0.000235,0.032847,-0.002851,-0.006521,-0.002439,0.00034,-0.000525,0.004114,0.005713
1609055989742198944,68,1609055989742198944,-0.011201,-0.010814,0.001234,0.999456,2.3e-05,0.03284,-0.002847,0.000725,0.002072,-0.000967,-0.00311,-0.001625,0.009582
1609055989854645014,69,1609055989854645014,-0.008299,-0.009117,0.001221,0.999453,5.8e-05,0.03293,-0.002948,0.005497,0.004547,-0.000465,0.003263,0.002539,0.005762
1609055989949838161,70,1609055989949838161,-0.010178,-0.01137,0.001112,0.999452,6e-06,0.032955,-0.00293,-0.000176,0.001499,-0.000293,0.003019,0.003008,0.006631
1609055990042352915,71,1609055990042352915,-0.00722,-0.008634,0.001426,0.999453,1.4e-05,0.032928,-0.002844,0.005734,0.004578,0.000235,-0.001775,-0.002126,0.008786
1609055990155371189,72,1609055990155371189,-0.007462,-0.010219,0.001355,0.999454,-1.4e-05,0.032907,-0.002953,0.00286,0.001578,0.000962,0.00105,0.003275,0.005217
1609055990248407125,73,1609055990248407125,-0.009313,-0.012192,0.001567,0.999455,0.000125,0.03284,-0.003032,-0.00178,-0.002557,0.001021,0.000855,-0.000489,0.006388
1609055990342290401,74,1609055990342290401,-0.008914,-0.010837,0.00151,0.999452,-6.5e-05,0.03295,-0.002977,-0.000767,-0.001473,0.000848,-0.00198,-0.002167,0.009749
1609055990454520941,75,1609055990454520941,-0.008914,-0.008958,0.001973,0.999452,1e-06,0.03297,-0.002932,-0.001479,0.003442,0.002086,0.004525,0.002121,0.004472
1609055990548463821,76,1609055990548463821,-0.011179,-0.011519,0.001663,0.999456,-0.000125,0.032835,-0.003045,-0.005459,-0.00222,0.000569,0.001438,-0.001677,0.008635
1609055990642499447,77,1609055990642499447,-0.010335,-0.008576,0.001713,0.999458,4e-06,0.032786,-0.002941,-0.003686,0.001304,-3e-05,-0.00258,0.000204,0.009221
1609055990754375935,78,1609055990754375935,-0.013077,-0.010786,0.0015,0.999454,-0.000142,0.032875,-0.00315,-0.00926,-0.002257,0.000422,0.00318,0.001586,0.004761
1609055990848350048,79,1609055990848350048,-0.014573,-0.013793,0.001065,0.999451,-0.000211,0.032967,-0.003002,-0.01197,-0.0068,-0.000374,0.004271,0.001977,0.007251
1609055990942098141,80,1609055990942098141,-0.012716,-0.01096,0.00152,0.999456,4.4e-05,0.032851,-0.002886,-0.007792,-0.001447,0.000744,0.001378,-0.00093,0.008722
1609055991054707289,81,1609055991054707289,-0.011842,-0.007244,0.001374,0.999457,-0.000191,0.032838,-0.002692,-0.005984,0.00556,9.8e-05,0.002935,-3.3e-05,0.006748
1609055991148312330,82,1609055991148312330,-0.010449,-0.011337,0.000747,0.999454,-0.000234,0.032899,-0.002932,-0.00105,-0.003859,-0.001538,0.000192,0.002308,0.007527
1609055991244228840,83,1609055991244228840,-0.011655,-0.014118,0.001034,0.999454,-0.000145,0.03288,-0.002978,-0.004685,-0.008249,0.000174,-0.001198,-0.000992,0.007615
1609055991354644775,84,1609055991354644775,-0.013364,-0.016409,0.001082,0.999452,-0.000134,0.032951,-0.002988,-0.007824,-0.010585,0.00034,0.000407,0.000668,0.005659
1609055991453095913,85,1609055991453095913,-0.012021,-0.012774,0.001063,0.999454,-0.000216,0.032912,-0.002832,-0.005055,-0.001951,0.000102,0.002794,0.001135,0.006789
1609055991546940565,86,1609055991546940565,-0.01211,-0.014796,0.001352,0.999454,-0.000175,0.032879,-0.002944,-0.004591,-0.005396,0.00018,0.002459,-0.001328,0.007359
1609055991642104149,87,1609055991642104149,-0.01011,-0.011828,0.002013,0.99946,-7.9e-05,0.032719,-0.002869,-0.000249,-0.000866,0.001766,0.000552,-0.002361,0.010326
1609055991753189087,88,1609055991753189087,-0.010408,-0.012753,0.00203,0.999458,-0.000161,0.032754,-0.002992,-0.002324,-0.001403,0.001398,0.001224,-0.001008,0.007226
1609055991846676350,89,1609055991846676350,-0.007743,-0.008234,0.002301,0.999458,-2.9e-05,0.032779,-0.002807,0.001742,0.006027,0.001386,0.000254,-0.001111,0.006682
1609055991943787813,90,1609055991943787813,-0.010148,-0.007981,0.001692,0.999457,-9.9e-05,0.032811,-0.002961,-0.005062,0.005491,-0.000162,-0.000293,-0.000522,0.009234
1609055992052787542,91,1609055992052787542,-0.012162,-0.013432,0.001198,0.99945,-0.000192,0.033014,-0.003059,-0.008771,-0.003413,-0.001242,0.001791,0.001711,0.006596
1609055992146739244,92,1609055992146739244,-0.012394,-0.014285,0.001273,0.999451,-0.000116,0.032972,-0.002971,-0.007899,-0.005389,-0.001167,0.002041,-0.002487,0.007367
1609055992243468523,93,1609055992243468523,-0.010945,-0.015185,0.001132,0.999448,-0.000226,0.033082,-0.002903,-0.003577,-0.00702,-0.000581,-0.001092,-0.001887,0.010154
1609055992352989674,94,1609055992352989674,-0.012452,-0.017909,0.001092,0.999452,-0.000265,0.032956,-0.002983,-0.00721,-0.009288,-0.000173,0.004468,0.004691,0.003785
1609055992447055340,95,1609055992447055340,-0.014657,-0.017976,0.001605,0.999453,-0.000411,0.032917,-0.002892,-0.011349,-0.008517,0.000421,0.001135,0.001583,0.008314
1609055992541869164,96,1609055992541869164,-0.01236,-0.015644,0.001263,0.999452,-9.7e-05,0.032972,-0.002891,-0.004812,-0.004859,-0.001037,-0.001052,-0.000613,0.010332
1609055992654246807,97,1609055992654246807,-0.010909,-0.011396,0.001215,0.999453,-1.4e-05,0.032917,-0.002876,-0.003245,0.004027,-0.001818,0.002818,0.001688,0.003716
1609055992746981621,98,1609055992746981621,-0.014355,-0.013737,0.000337,0.999452,-0.000257,0.032954,-0.002934,-0.010547,-0.000134,-0.003275,-0.001118,-0.002498,0.007559
1609055992842277765,99,1609055992842277765,-0.014377,-0.015219,0.001196,0.999459,-0.00018,0.032742,-0.002967,-0.007902,-0.004311,-1.2e-05,-0.002066,0.000308,0.010021
1609055992952941179,100,1609055992952941179,-0.008907,-0.010768,0.00207,0.999461,-0.000161,0.032689,-0.002846,0.003241,0.004604,0.003317,0.003534,0.003129,0.006162
1609055993047142267,101,1609055993047142267,-0.010613,-0.015174,0.002951,0.999459,1.9e-05,0.032735,-0.003043,-5.3e-05,-0.004471,0.005058,0.001621,0.000746,0.008171
1609055993142177105,102,1609055993142177105,-0.007948,-0.013013,0.002973,0.999454,4e-06,0.032898,-0.002964,0.004026,-0.001445,0.003954,-0.001883,-0.000528,0.010193
1609055993253173351,103,1609055993253173351,-0.007845,-0.012551,0.002255,0.999454,-7.8e-05,0.032894,-0.00283,0.002924,0.001641,0.00096,0.00165,-0.001924,0.005767
1609055993346942902,104,1609055993346942902,-0.008879,-0.015899,0.001991,0.999458,-0.000124,0.032754,-0.00303,0.000372,-0.005237,0.000421,0.000716,-0.000371,0.007284
1609055993442277193,105,1609055993442277193,-0.008894,-0.017265,0.001068,0.999452,-0.000226,0.032946,-0.003017,-0.00143,-0.007532,-0.000296,0.001334,-0.001614,0.010181
1609055993553157330,106,1609055993553157330,-0.009519,-0.013536,0.000995,0.999449,-0.000461,0.033052,-0.002856,-0.004747,0.001676,0.000575,0.001944,0.00025,0.007456
1609055993647142649,107,1609055993647142649,-0.011226,-0.013643,0.001215,0.999449,-0.000365,0.033039,-0.002875,-0.007964,0.000737,0.001162,0.001471,-0.000491,0.007176
1609055993743474007,108,1609055993743474007,-0.01192,-0.013497,0.001398,0.99945,-0.000229,0.033005,-0.00299,-0.009478,-0.000583,0.000733,-0.000569,-0.001885,0.010291
1609055993853214264,109,1609055993853214264,-0.013166,-0.016862,0.000344,0.999453,-0.000205,0.032913,-0.002912,-0.012601,-0.005951,-0.001604,0.001669,0.000315,0.006013
1609055993946878195,110,1609055993946878195,-0.012496,-0.01908,0.000899,0.999458,-0.000236,0.032772,-0.002901,-0.008229,-0.009278,0.000662,0.00176,-0.001509,0.006756
1609055994043884754,111,1609055994043884754,-0.011721,-0.019387,0.000639,0.999454,-0.000307,0.032879,-0.002975,-0.006192,-0.009528,-0.000119,-8.9e-05,0.000573,0.008385
1609055994153218985,112,1609055994153218985,-0.010291,-0.017228,0.001029,0.999452,-0.000333,0.032975,-0.00278,-0.003219,-0.002725,0.000613,0.002206,0.000111,0.005454
1609055994246809483,113,1609055994246809483,-0.007624,-0.01493,0.000935,0.999453,-1.1e-05,0.032937,-0.00284,0.002954,-0.000156,-0.000793,0.001774,-0.000903,0.006571
1609055994342040777,114,1609055994342040777,-0.007782,-0.014841,0.000796,0.999455,6e-06,0.03287,-0.002849,0.001803,-0.000887,-0.00059,-0.002063,-0.000582,0.009529
1609055994453434229,115,1609055994453434229,-0.011564,-0.020857,0.000319,0.999448,-0.000355,0.033063,-0.003098,-0.008042,-0.009791,-0.000293,0.001023,0.001105,0.004504
1609055994546814919,116,1609055994546814919,-0.014059,-0.026016,0.000933,0.999447,-9.1e-05,0.033073,-0.003185,-0.011655,-0.01767,0.001889,0.002229,0.002423,0.00722
1609055994642157555,117,1609055994642157555,-0.012114,-0.021749,0.001618,0.999454,-0.000131,0.0329,-0.002763,-0.006224,-0.008215,0.002981,0.001522,0.001228,0.008697
1609055994752910376,118,1609055994752910376,-0.007708,-0.013138,0.002029,0.999454,3.7e-05,0.032922,-0.002697,0.002508,0.007421,0.003649,0.002746,-0.000608,0.005587
1609055994846797228,119,1609055994846797228,-0.008531,-0.0126,0.001569,0.999451,2e-06,0.032997,-0.002799,-0.000319,0.007507,0.002179,0.001875,0.000135,0.006764
1609055994943265915,120,1609055994943265915,-0.005037,-0.010122,0.001893,0.999452,-1e-05,0.032946,-0.002872,0.006175,0.007881,0.002063,-0.000629,-0.000398,0.009554
1609055995053593874,121,1609055995053593874,-0.007738,-0.012295,0.002328,0.999455,-5.7e-05,0.032874,-0.002888,-0.001831,0.004463,0.003308,0.002369,0.002984,0.00506
1609055995146581888,122,1609055995146581888,-0.009234,-0.014984,0.002247,0.999452,-0.000264,0.03295,-0.003039,-0.003349,-0.001496,0.002414,0.000239,-0.000493,0.008078
1609055995243135452,123,1609055995243135452,-0.01094,-0.01493,0.001399,0.999451,-0.000298,0.03297,-0.003085,-0.00678,-0.001729,-0.000608,-0.000705,-0.000801,0.009267
1609055995353129864,124,1609055995353129864,-0.008951,-0.013119,0.001752,0.999456,-0.00022,0.032823,-0.002913,-0.003519,0.002768,0.000848,-0.000246,0.001837,0.005346
1609055995447021484,125,1609055995447021484,-0.011174,-0.013677,0.0015,0.999457,-9e-05,0.032797,-0.003005,-0.008668,0.00119,0.000606,0.00205,0.000357,0.007644
1609055995542001486,126,1609055995542001486,-0.010405,-0.012297,0.002424,0.99946,-6.3e-05,0.032703,-0.002982,-0.00602,0.001396,0.002626,0.000393,0.000256,0.011034
1609055995653618813,127,1609055995653618813,-0.007655,-0.010593,0.002138,0.999455,-6.4e-05,0.032859,-0.002869,-2.9e-05,0.00465,0.001685,0.004398,0.001691,0.005844
1609055995746975899,128,1609055995746975899,-0.007305,-0.009721,0.001731,0.999454,-9.1e-05,0.032887,-0.003035,0.000847,0.005436,-0.000309,0.003401,0.001234,0.006141
1609055995842116594,129,1609055995842116594,-0.009137,-0.009054,0.001271,0.999459,6.1e-05,0.032738,-0.002984,-0.004088,0.004881,-0.001589,-0.002295,-0.004131,0.009762
1609055995952973127,130,1609055995952973127,-0.009993,-0.010564,0.001034,0.999461,-8e-05,0.032668,-0.003044,-0.006127,0.000861,-0.000641,0.00121,-0.00028,0.006681
1609055996046935797,131,1609055996046935797,-0.013035,-0.016132,0.000868,0.999459,-0.000152,0.03273,-0.003085,-0.01143,-0.00799,-0.000165,0.000978,-0.000143,0.00763
1609055996142228127,132,1609055996142228127,-0.012232,-0.016427,0.000841,0.999457,-0.000245,0.032802,-0.002873,-0.007842,-0.007858,-0.0001,-0.002396,-0.00093,0.01112
1609055996252979517,133,1609055996252979517,-0.011848,-0.017885,0.000911,0.999456,-0.000113,0.032834,-0.002981,-0.006159,-0.008608,0.000702,9.8e-05,-0.001694,0.006834
1609055996348141193,134,1609055996348141193,-0.015,-0.01837,0.000581,0.999458,-0.0002,0.032786,-0.002939,-0.011875,-0.007383,-0.000436,0.000499,-0.001354,0.006791
1609055996442091465,135,1609055996442091465,-0.014974,-0.019256,0.000238,0.999455,-0.00025,0.032861,-0.002838,-0.011023,-0.008896,-0.00142,-0.000779,-0.002549,0.009162
1609055996553064585,136,1609055996553064585,-0.01361,-0.017638,0.000503,0.999455,-0.000336,0.032864,-0.002855,-0.008462,-0.003693,0.000516,0.000917,0.004222,0.006931
1609055996647095203,137,1609055996647095203,-0.013534,-0.01977,6.6e-05,0.99945,-0.000113,0.033016,-0.002935,-0.007208,-0.007335,-0.000867,0.002178,0.002737,0.007842
1609055996742244005,138,1609055996742244005,-0.013407,-0.016495,0.000494,0.999456,-6.1e-05,0.032843,-0.002849,-0.005406,-0.002837,-0.000593,-0.001184,0.000263,0.011387
1609055996842350960,139,1609055996842350960,-0.013407,-0.015372,0.001528,0.999459,-1.6e-05,0.032756,-0.00289,-0.003846,-0.000514,0.001551,0.001521,-0.000864,0.009136
1609055996951497316,140,1609055996951497316,-0.008366,-0.011933,0.00154,0.999461,4e-06,0.032707,-0.002751,0.006596,0.005317,0.001033,0.002959,0.001522,0.00555
1609055997046060324,141,1609055997046060324,-0.009291,-0.012021,0.001819,0.999457,-0.000184,0.032821,-0.00286,0.002443,0.003619,0.001265,-0.000253,0.001375,0.010629
1609055997142051458,142,1609055997142051458,-0.009082,-0.016409,0.002077,0.999459,2.7e-05,0.032715,-0.003081,0.002806,-0.005054,0.001753,-0.00203,0.000669,0.010453
1609055997253302336,143,1609055997253302336,-0.010475,-0.017375,0.002084,0.999462,-0.00016,0.032662,-0.002922,-0.001443,-0.004306,0.000925,0.00142,0.001636,0.005679
1609055997347134829,144,1609055997347134829,-0.011755,-0.017291,0.00158,0.999465,-9.6e-05,0.032576,-0.002881,-0.004466,-0.003284,-2.1e-05,-0.000287,0.000529,0.009015
1609055997442186117,145,1609055997442186117,-0.01043,-0.017029,0.001519,0.999464,-0.000199,0.032571,-0.002979,-0.001658,-0.003302,-0.000893,-0.001348,-0.001807,0.010218
1609055997553153276,146,1609055997553153276,-0.010373,-0.018917,0.00263,0.999465,-0.000287,0.032548,-0.00294,-0.001178,-0.004362,0.002557,0.002923,0.002369,0.004976
1609055997647198200,147,1609055997647198200,-0.011192,-0.016677,0.002022,0.999458,-0.000149,0.032774,-0.002983,-0.003363,-0.000936,0.000352,0.00036,-0.000359,0.009015
1609055997742726326,148,1609055997742726326,-0.012107,-0.017329,0.00258,0.99946,-0.000218,0.032705,-0.002952,-0.004969,-0.002632,0.002045,-0.000325,-0.000614,0.009279
1609055997852991581,149,1609055997852991581,-0.008311,-0.011463,0.002283,0.99946,-6.8e-05,0.032716,-0.002724,0.002819,0.007625,0.000851,0.002039,-0.001627,0.006222
1609055997946794271,150,1609055997946794271,-0.006992,-0.009102,0.001919,0.999458,-0.000192,0.032791,-0.002753,0.004489,0.009687,-0.000337,0.000782,-0.000593,0.007663
1609055998042378187,151,1609055998042378187,-0.007725,-0.012186,0.001911,0.999459,-0.000132,0.032727,-0.002941,0.00172,0.001577,0.000129,-0.000985,-0.000725,0.010181
1609055998153190136,152,1609055998153190136,-0.007589,-0.01598,0.002147,0.999459,-0.00015,0.032749,-0.003014,0.000285,-0.003702,0.001181,0.000957,9.5e-05,0.006048
1609055998247286797,153,1609055998247286797,-0.010542,-0.016852,0.001996,0.999459,-0.000186,0.032726,-0.00304,-0.006127,-0.004934,0.000162,0.002178,0.002709,0.008822
1609055998342132807,154,1609055998342132807,-0.011374,-0.016858,0.002177,0.999463,-0.000266,0.032601,-0.003046,-0.007939,-0.004562,0.00104,-0.000428,-0.000799,0.009482
1609055998443231583,155,1609055998443231583,-0.012672,-0.021502,0.002309,0.999462,-0.000247,0.032631,-0.003177,-0.009705,-0.011768,0.001389,-0.000255,0.000108,0.009545
1609055998553320646,156,1609055998553320646,-0.01248,-0.022524,0.002138,0.999461,-0.000149,0.032672,-0.003,-0.007671,-0.010891,0.001987,0.000641,-7.4e-05,0.007903
1609055998645436287,157,1609055998645436287,-0.013983,-0.024529,0.002544,0.99946,-0.000249,0.032705,-0.002915,-0.009345,-0.013645,0.001417,-0.00206,-0.000655,0.009051
1609055998742155075,158,1609055998742155075,-0.012888,-0.021755,0.002143,0.999462,-0.000183,0.032654,-0.002829,-0.007435,-0.007455,0.000925,-0.000485,0.000413,0.009607
1609055998851514816,159,1609055998851514816,-0.014586,-0.023041,0.00158,0.999463,-0.000163,0.032626,-0.002925,-0.010213,-0.008936,-0.001223,0.001764,0.000766,0.008062
1609055998945259333,160,1609055998945259333,-0.012839,-0.020442,0.001566,0.999466,-0.000144,0.032526,-0.00289,-0.004784,-0.003961,-0.001298,-0.000311,-0.000687,0.008857
1609055999042351961,161,1609055999042351961,-0.012915,-0.018023,0.001074,0.999462,-6.6e-05,0.032673,-0.002803,-0.005365,0.001919,-0.002287,-0.001893,-0.001286,0.009579
1609055999152014494,162,1609055999152014494,-0.009197,-0.016852,0.001809,0.999467,-0.000107,0.032509,-0.002896,0.002737,0.00267,-0.00043,0.000464,-0.000883,0.007645
1609055999245440960,163,1609055999245440960,-0.010056,-0.01917,0.001985,0.999459,-0.00013,0.032722,-0.002992,0.000454,-0.002437,0.000438,0.000833,-0.002076,0.008853
1609055999342576265,164,1609055999342576265,-0.00977,-0.016024,0.002355,0.999464,-0.000178,0.032581,-0.002913,3.6e-05,0.00203,0.000771,-0.001276,-0.002615,0.009928
1609055999451529741,165,1609055999451529741,-0.008159,-0.016359,0.002602,0.999462,-0.00018,0.032658,-0.002937,0.002583,0.000883,0.001727,0.002406,-0.001609,0.007236
1609055999545406103,166,1609055999545406103,-0.010771,-0.016704,0.001639,0.999458,-0.000146,0.032782,-0.002832,-0.004389,-0.000207,0.000147,9.5e-05,-0.000538,0.008544
1609055999643129826,167,1609055999643129826,-0.00951,-0.018116,0.001239,0.999457,-0.000192,0.032794,-0.002963,-0.001743,-0.003911,-0.000959,-0.000206,-0.000729,0.011049
1609055999751463652,168,1609055999751463652,-0.011799,-0.018719,0.001385,0.999466,-0.00021,0.032541,-0.002808,-0.006181,-0.002956,0.000329,4.6e-05,-0.000531,0.00765
1609055999845542669,169,1609055999845542669,-0.013823,-0.019563,0.000953,0.999463,-0.000314,0.032611,-0.003016,-0.009374,-0.005098,-0.000425,-0.000562,-0.001329,0.008786
1609055999942207575,170,1609055999942207575,-0.010281,-0.01538,0.001408,0.999462,-0.000218,0.03266,-0.002865,-0.001703,0.001959,-1.8e-05,-0.003231,-0.000938,0.009476
1609056000051607132,171,1609056000051607132,-0.006626,-0.012595,0.001844,0.99946,-0.000152,0.032725,-0.002892,0.004527,0.004755,0.00051,0.00108,-0.002684,0.00658
1609056000145653963,172,1609056000145653963,-0.009012,-0.01256,0.002003,0.999461,-5.9e-05,0.032694,-0.002907,-0.001548,0.003238,0.000117,0.000886,0.000342,0.009095
1609056000244156837,173,1609056000244156837,-0.009049,-0.01253,0.002165,0.999462,-0.000143,0.03267,-0.002839,-0.002067,0.004175,0.00124,0.000175,-1.2e-05,0.008383
1609056000351586342,174,1609056000351586342,-0.009441,-0.017865,0.002137,0.999461,-0.000168,0.032685,-0.00298,-0.001816,-0.004547,0.000815,0.00185,-0.000197,0.006851
1609056000445257664,175,1609056000445257664,-0.008037,-0.018535,0.002003,0.999466,-0.000121,0.032526,-0.002945,0.002106,-0.004706,0.000239,0.002025,-0.001467,0.007545
1609056000542326927,176,1609056000542326927,-0.008059,-0.018607,0.002301,0.999463,-0.00016,0.032619,-0.002992,0.000305,-0.005655,0.001427,-0.001017,-0.000409,0.009276
1609056000652031660,177,1609056000652031660,-0.007726,-0.016488,0.002231,0.999467,-0.000195,0.032509,-0.002839,-0.000837,0.000126,0.001191,0.001176,-0.000374,0.006919
1609056000745265245,178,1609056000745265245,-0.009856,-0.018928,0.002044,0.999463,-0.00019,0.032632,-0.002819,-0.005124,-0.002782,0.000309,0.000602,-0.003854,0.008837
1609056000843383789,179,1609056000843383789,-0.010278,-0.021106,0.00138,0.999463,-0.000177,0.032618,-0.002925,-0.005498,-0.006044,-0.000541,-0.002126,0.000738,0.009993
1609056000951564550,180,1609056000951564550,-0.011156,-0.022803,0.001176,0.999457,-0.000228,0.032822,-0.002841,-0.007601,-0.006815,-0.000424,0.001152,-0.000523,0.00754
1609056001045497417,181,1609056001045497417,-0.01022,-0.024334,0.001472,0.999459,-0.000265,0.032728,-0.003002,-0.004498,-0.009899,6.2e-05,-0.000292,-0.000248,0.009203
1609056001142189741,182,1609056001142189741,-0.01221,-0.024752,0.002164,0.999467,-0.000176,0.032496,-0.00292,-0.008179,-0.008324,0.001957,0.000495,-0.001205,0.010804
1609056001251592636,183,1609056001251592636,-0.012725,-0.023953,0.002319,0.999469,-0.000247,0.032462,-0.002746,-0.00779,-0.004345,0.001913,-0.000128,0.000214,0.007323
1609056001345245600,184,1609056001345245600,-0.01267,-0.025913,0.001979,0.999469,-0.000182,0.032443,-0.002741,-0.005651,-0.007547,0.001055,0.001414,0.000762,0.009548
1609056001441905499,185,1609056001441905499,-0.009867,-0.027736,0.001659,0.999462,-0.000198,0.032653,-0.00287,0.00079,-0.011205,0.00023,-0.00148,-0.000257,0.009286
1609056001551408291,186,1609056001551408291,-0.010147,-0.025292,0.00234,0.999467,-0.000148,0.032518,-0.002707,-0.001866,-0.004404,0.002072,0.001565,0.001456,0.007115
1609056001645374298,187,1609056001645374298,-0.011107,-0.025924,0.002411,0.999471,-7.3e-05,0.032406,-0.002723,-0.003836,-0.005871,0.002189,0.000876,-0.000881,0.008572
1609056001745228052,188,1609056001745228052,-0.012621,-0.025854,0.001597,0.999464,-0.000224,0.032619,-0.002676,-0.0072,-0.003539,0.000124,0.001007,-0.00194,0.008693
1609056001842144489,189,1609056001842144489,-0.010434,-0.024328,0.001955,0.999467,-0.000207,0.032509,-0.002761,-0.001949,-0.001985,0.000187,-0.000442,-0.000246,0.010649
1609056001951433182,190,1609056001951433182,-0.010202,-0.024437,0.001939,0.999465,-0.000153,0.032585,-0.002682,-0.001948,-0.001494,-0.00029,0.002789,0.00015,0.006359
1609056002045352221,191,1609056002045352221,-0.010033,-0.022972,0.002423,0.999468,-0.000142,0.032474,-0.002837,-0.001457,0.000125,0.001253,0.001177,-0.001327,0.009356
1609056002141948462,192,1609056002141948462,-0.010924,-0.020343,0.002083,0.999466,1.2e-05,0.032546,-0.002708,-0.004186,0.004848,0.000181,-0.001433,-0.001649,0.009939
1609056002251665115,193,1609056002251665115,-0.01362,-0.022747,0.002182,0.999463,-0.000194,0.032629,-0.002809,-0.009498,0.000529,0.00081,-1.8e-05,0.000883,0.00714
1609056002345260859,194,1609056002345260859,-0.012311,-0.022599,0.002781,0.99947,-0.000151,0.03242,-0.002833,-0.004247,-0.001066,0.001681,0.000332,-0.001657,0.008317
1609056002442515135,195,1609056002442515135,-0.01067,-0.022271,0.002985,0.999466,-0.000168,0.032519,-0.002919,-0.000593,-0.001791,0.001907,-0.001798,-0.002053,0.010607
1609056002551279306,196,1609056002551279306,-0.010235,-0.022466,0.002688,0.999462,-9.5e-05,0.032638,-0.00299,-0.000728,-0.001541,0.000643,-0.000132,-0.00048,0.006387
1609056002645958424,197,1609056002645958424,-0.010261,-0.021116,0.002599,0.999466,-2e-05,0.03252,-0.002887,-0.000976,0.000319,-7.5e-05,0.000459,-0.001195,0.008841
1609056002742298603,198,1609056002742298603,-0.005448,-0.014017,0.003916,0.999469,0.000176,0.032469,-0.002673,0.008617,0.010721,0.003733,-0.001326,-0.001457,0.009422
1609056002851812601,199,1609056002851812601,-0.005309,-0.014378,0.002756,0.999461,-5.6e-05,0.032695,-0.002837,0.005534,0.008921,0.000152,0.002481,-0.000705,0.006756
1609056002946768761,200,1609056002946768761,-0.008746,-0.017902,0.002531,0.999464,-6.7e-05,0.032587,-0.002957,-0.002453,0.001221,-0.001034,0.000559,-0.001159,0.008529
1609056003041858196,201,1609056003041858196,-0.011246,-0.018469,0.001567,0.99946,-0.000278,0.032716,-0.002968,-0.008313,0.000717,-0.002976,-0.001851,-0.001258,0.009361
1609056003151423216,202,1609056003151423216,-0.011688,-0.01685,0.001233,0.999456,-0.000187,0.032818,-0.003001,-0.008379,0.003894,-0.003473,0.001596,-0.00051,0.007371
1609056003245030880,203,1609056003245030880,-0.015057,-0.019914,0.000827,0.999456,-0.000388,0.032817,-0.003051,-0.013832,-0.00279,-0.002917,-0.000876,-0.000477,0.010161
1609056003342184782,204,1609056003342184782,-0.013485,-0.020361,0.001322,0.999461,-0.000271,0.032692,-0.002967,-0.007804,-0.003354,-0.001176,-0.000979,-0.001634,0.00964
1609056003451509476,205,1609056003451509476,-0.011895,-0.019969,0.001049,0.99946,-0.000255,0.032718,-0.002746,-0.004487,-0.00118,-0.001458,0.000626,-0.000298,0.007388
1609056003545015097,206,1609056003545015097,-0.009137,-0.0171,0.001748,0.999461,-0.000243,0.032696,-0.002819,0.002368,0.002344,2e-05,0.000488,-0.000393,0.007765
1609056003641527891,207,1609056003641527891,-0.010184,-0.021348,0.002005,0.999463,-0.000139,0.032616,-0.002999,7.6e-05,-0.006402,0.00065,-0.000617,-0.001091,0.009663
1609056003751260996,208,1609056003751260996,-0.009836,-0.023951,0.001837,0.999465,-0.000205,0.032576,-0.002848,0.000549,-0.007986,0.000945,-0.000327,-0.001601,0.007283
1609056003845069885,209,1609056003845069885,-0.009686,-0.019953,0.002392,0.999465,-0.00023,0.032575,-0.002677,-0.000603,-0.000923,0.001539,0.000484,-0.000675,0.010007
1609056003941593885,210,1609056003941593885,-0.00779,-0.01828,0.002673,0.999461,-1e-06,0.032672,-0.002871,0.003004,0.000456,0.002094,-0.001484,2e-06,0.009316
1609056004051305771,211,1609056004051305771,-0.008431,-0.017613,0.002968,0.999461,-0.000121,0.032678,-0.002886,-0.000221,0.002344,0.002139,0.002001,0.000982,0.006418
1609056004145229101,212,1609056004145229101,-0.008811,-0.017304,0.003279,0.999466,-0.000273,0.032537,-0.002784,-0.000341,0.002937,0.003197,0.001543,-0.000206,0.007135
1609056004242073059,213,1609056004242073059,-0.00794,-0.016149,0.00225,0.999455,-0.000231,0.032855,-0.002881,0.000419,0.003132,0.000179,-0.000923,-0.000999,0.010235
1609056004351456165,214,1609056004351456165,-0.006001,-0.014985,0.002462,0.999462,-7.7e-05,0.032662,-0.002766,0.002998,0.005775,0.000819,0.001178,-0.001233,0.0058
1609056004445245504,215,1609056004445245504,-0.004694,-0.01579,0.002543,0.99946,-0.000116,0.032726,-0.002822,0.005224,0.001914,0.000595,-0.003323,0.000926,0.008468
1609056004541931629,216,1609056004541931629,-0.005635,-0.016362,0.00225,0.999459,-8.7e-05,0.032737,-0.002938,0.000611,9.7e-05,-0.000171,-0.003677,-0.001959,0.009328
1609056004651268721,217,1609056004651268721,-0.004962,-0.014419,0.002827,0.999462,2e-06,0.03264,-0.002884,0.000842,0.004223,0.000966,0.000292,-0.001134,0.005498
1609056004744932175,218,1609056004744932175,-0.006781,-0.01452,0.002357,0.999458,-0.00017,0.032766,-0.002838,-0.004025,0.002858,-0.000191,0.000837,-0.001193,0.00778
1609056004841744184,219,1609056004841744184,-0.009375,-0.014741,0.002595,0.999458,-0.000187,0.032779,-0.002942,-0.009724,0.001758,0.000139,-0.00207,-0.000962,0.010041
1609056004951519251,220,1609056004951519251,-0.01015,-0.017035,0.002844,0.999462,-0.000209,0.032648,-0.003007,-0.009561,-0.001041,0.000604,0.000292,-0.000852,0.005736
1609056005044833183,221,1609056005044833183,-0.010969,-0.019117,0.003259,0.999464,-0.000189,0.032568,-0.003069,-0.00901,-0.005384,0.000996,0.000521,-0.001444,0.008052
1609056005141534805,222,1609056005141534805,-0.010079,-0.01747,0.002311,0.999463,-0.000158,0.032632,-0.002959,-0.005792,-0.003028,-0.00141,0.000738,-0.00093,0.009428
1609056005251033068,223,1609056005251033068,-0.011096,-0.01842,0.001631,0.999463,-0.000163,0.032643,-0.002788,-0.007014,-0.00298,-0.002373,0.001551,-5.8e-05,0.006694
1609056005344730616,224,1609056005344730616,-0.0088,-0.017763,0.001785,0.999464,-7.4e-05,0.032609,-0.002772,-0.000771,-0.003243,-0.001436,0.00024,0.000604,0.0093
1609056005441528320,225,1609056005441528320,-0.007795,-0.014221,0.002487,0.999465,0.000124,0.032578,-0.002825,9.7e-05,0.001661,0.000186,-0.001548,0.000177,0.009639
1609056005550956488,226,1609056005550956488,-0.004953,-0.013259,0.003015,0.999463,-1.8e-05,0.032612,-0.002908,0.005142,0.002846,0.001699,-0.00054,0.000271,0.008164
1609056005644596815,227,1609056005644596815,-0.005008,-0.015596,0.00246,0.999459,-0.00024,0.032726,-0.003069,0.003508,-0.00183,-0.000269,-0.000461,-0.001848,0.007893
1609056005741646051,228,1609056005741646051,-0.004338,-0.013183,0.002392,0.999459,-5.3e-05,0.032732,-0.003115,0.002065,0.002095,-0.000974,-0.001529,0.001288,0.00942
1609056005851104259,229,1609056005851104259,-0.003679,-0.010408,0.002286,0.999456,7.4e-05,0.032832,-0.002823,0.001398,0.008041,-0.000392,0.000768,-0.000431,0.006566
1609056005944968939,230,1609056005944968939,-0.006805,-0.014197,0.002419,0.999461,-0.000102,0.032661,-0.003033,-0.005233,-0.001531,-8.4e-05,-0.000362,-0.000472,0.00879
1609056006042444706,231,1609056006042444706,-0.008565,-0.010755,0.002813,0.999462,-0.000123,0.032643,-0.002865,-0.009602,0.005064,0.000739,-0.002587,-0.001197,0.00964
1609056006150946856,232,1609056006150946856,-0.007833,-0.012004,0.002703,0.999465,-0.000106,0.032553,-0.002885,-0.006892,0.002058,0.000599,0.000645,-0.001431,0.005921
1609056006245132446,233,1609056006245132446,-0.005078,-0.009471,0.003208,0.999464,-2.6e-05,0.032596,-0.002913,0.000128,0.004618,0.001573,0.001,-6.5e-05,0.008098
1609056006341852665,234,1609056006341852665,-0.003267,-0.007234,0.003551,0.999464,-3.3e-05,0.032597,-0.002757,0.002868,0.006286,0.001894,-0.000653,-0.000863,0.009714
1609056006451374769,235,1609056006451374769,-0.002694,-0.007695,0.003208,0.999457,-3.8e-05,0.032813,-0.002968,0.002361,0.004397,0.000936,0.000502,-0.001175,0.007864
1609056006544910908,236,1609056006544910908,-0.004435,-0.008129,0.002445,0.999455,7e-06,0.032852,-0.003053,-0.003008,0.002907,-0.001347,-0.000203,0.000803,0.00936
1609056006642136097,237,1609056006642136097,-0.00162,-0.008207,0.003017,0.999461,-9e-06,0.032668,-0.003104,0.003924,0.001146,7e-05,-0.000493,-0.002137,0.009706
1609056006751482487,238,1609056006751482487,-0.001963,-0.006291,0.003968,0.999466,0.000112,0.032527,-0.003028,0.001308,0.005749,0.00229,0.001555,4.6e-05,0.006099
1609056006844543457,239,1609056006844543457,-0.003167,-0.008696,0.003486,0.999464,2.1e-05,0.032581,-0.003107,-0.001277,-0.000498,0.00104,-0.000595,8.4e-05,0.009622
1609056006942154646,240,1609056006942154646,-0.001417,-0.00684,0.003497,0.999462,-1.2e-05,0.03265,-0.002952,0.00175,0.001836,0.001349,-0.000787,-0.002222,0.009995
1609056007051353455,241,1609056007051353455,-0.006086,-0.012822,0.002804,0.999455,-0.000185,0.032856,-0.003094,-0.009693,-0.006891,-0.000596,0.000525,0.001188,0.006982
1609056007144597054,242,1609056007144597054,-0.007632,-0.017006,0.002385,0.999458,-3.7e-05,0.032754,-0.003109,-0.010879,-0.014037,-0.001032,-0.000678,8e-05,0.009293
1609056007242010832,243,1609056007242010832,-0.009869,-0.022199,0.003074,0.999459,-5.8e-05,0.032739,-0.003065,-0.012958,-0.02115,0.001051,-0.000669,-0.001772,0.01017
1609056007350898981,244,1609056007350898981,-0.01052,-0.022918,0.002813,0.999459,-0.000205,0.032743,-0.002858,-0.01254,-0.018691,0.000724,0.001029,0.001734,0.007689
1609056007444784880,245,1609056007444784880,-0.010654,-0.024582,0.002733,0.99946,-9.9e-05,0.032702,-0.002978,-0.010953,-0.020036,0.000545,0.0009,-0.000502,0.009638
1609056007541299820,246,1609056007541299820,-0.010743,-0.02375,0.001478,0.999461,-0.000111,0.032679,-0.002788,-0.010814,-0.014986,-0.002395,-0.001134,-0.000536,0.009008
1609056007650983095,247,1609056007650983095,-0.010068,-0.021692,0.001032,0.99946,-4.1e-05,0.03271,-0.002842,-0.008136,-0.007619,-0.003222,0.000377,0.000466,0.006745
1609056007744776964,248,1609056007744776964,-0.009915,-0.021009,0.000824,0.999461,-0.000107,0.032679,-0.002919,-0.006402,-0.005779,-0.003121,0.000269,-0.001045,0.008469
1609056007841504812,249,1609056007841504812,-0.005181,-0.014732,0.00189,0.999462,-0.000143,0.032662,-0.002858,0.00363,0.00374,-0.000224,-0.002004,-0.000574,0.009043
1609056007950859547,250,1609056007950859547,-0.002835,-0.014645,0.002513,0.999462,9.8e-05,0.032646,-0.003001,0.006018,0.002996,0.001042,0.000799,-0.000845,0.006659
1609056008044640541,251,1609056008044640541,-0.002992,-0.013628,0.002771,0.999464,-2.2e-05,0.032588,-0.002935,0.004586,0.003759,0.001141,0.000338,-0.000989,0.009891
1609056008141311169,252,1609056008141311169,-0.002242,-0.010576,0.002295,0.999459,7.7e-05,0.032743,-0.003038,0.00373,0.006656,-0.00068,-0.00167,-0.001777,0.01069
1609056008250856638,253,1609056008250856638,-0.003369,-0.009477,0.002641,0.99946,9.7e-05,0.032712,-0.00299,-0.001365,0.008449,0.000189,0.00118,-0.001625,0.004801
1609056008344799995,254,1609056008344799995,-0.002872,-0.0074,0.002642,0.999461,8.3e-05,0.032699,-0.002879,-0.001083,0.009958,6.8e-05,0.000939,-0.000886,0.010398
1609056008441592216,255,1609056008441592216,-9e-05,-0.006387,0.002846,0.999461,0.000155,0.032679,-0.002963,0.004661,0.008182,-0.000307,-0.001096,-0.001584,0.00886
1609056008551826715,256,1609056008551826715,-0.000425,-0.008058,0.003088,0.999462,8.4e-05,0.032625,-0.003062,0.002407,0.003326,0.000837,0.000923,-0.001891,0.006247
1609056008644798040,257,1609056008644798040,-0.003277,-0.01014,0.002422,0.999456,9.5e-05,0.032831,-0.003119,-0.004859,-0.000561,-0.000941,-0.001699,-0.001166,0.008307
1609056008742173910,258,1609056008742173910,-0.003281,-0.012338,0.002771,0.999456,3.9e-05,0.032804,-0.0031,-0.003308,-0.004974,-0.00039,-0.00103,-0.000843,0.008654
1609056008850844145,259,1609056008850844145,-0.004957,-0.014688,0.00272,0.999464,-0.000126,0.03261,-0.002868,-0.007329,-0.006291,0.000787,0.001263,0.000339,0.007109
1609056008944663048,260,1609056008944663048,-0.006265,-0.016495,0.002594,0.999458,-6.9e-05,0.032755,-0.00297,-0.008374,-0.009532,0.00031,-0.002143,-0.001026,0.010283
1609056009041992426,261,1609056009041992426,-0.008452,-0.018642,0.001869,0.999456,-0.000192,0.032835,-0.002982,-0.012576,-0.011679,-0.001637,-0.000588,0.000932,0.010279
1609056009150979280,262,1609056009150979280,-0.007826,-0.018267,0.002863,0.999463,-0.000196,0.032605,-0.002933,-0.008916,-0.008439,0.000511,0.000218,-0.001487,0.006904
1609056009244320393,263,1609056009244320393,-0.007443,-0.01643,0.002594,0.999464,-4.6e-05,0.0326,-0.00295,-0.007795,-0.006108,-0.000118,1.1e-05,-8.8e-05,0.010126
1609056009342231989,264,1609056009342231989,-0.004563,-0.011532,0.003003,0.999467,0.000132,0.032515,-0.002857,-0.001671,0.001064,0.000607,-0.001684,-0.000239,0.010501
1609056009450739145,265,1609056009450739145,-0.004784,-0.010502,0.003756,0.999469,0.000105,0.032447,-0.002805,-0.002591,0.003216,0.002223,0.001893,-0.002978,0.006019
1609056009544654846,266,1609056009544654846,-0.008071,-0.015166,0.003433,0.999468,-2.5e-05,0.032464,-0.002982,-0.009032,-0.00476,0.001868,-0.000607,-0.001897,0.009404
1609056009641469955,267,1609056009641469955,-0.010863,-0.015513,0.002749,0.999466,-0.0001,0.032535,-0.002884,-0.014189,-0.004868,-0.000184,-0.001556,-0.004052,0.009685
1609056009751409769,268,1609056009751409769,-0.011333,-0.015974,0.002253,0.999465,-9.1e-05,0.032559,-0.002885,-0.013828,-0.004763,-0.000913,0.000685,0.001628,0.006622
1609056009844766378,269,1609056009844766378,-0.010263,-0.014127,0.002272,0.999465,-0.000182,0.032551,-0.00286,-0.010148,-0.002794,-0.000409,-0.001092,-0.002036,0.010904
1609056009941464186,270,1609056009941464186,-0.00889,-0.010234,0.001847,0.999462,-9.9e-05,0.032642,-0.002882,-0.007304,0.001747,-0.001652,-0.001446,-0.000164,0.008523
1609056010051091433,271,1609056010051091433,-0.008203,-0.011149,0.001375,0.999461,-7.7e-05,0.032683,-0.002897,-0.004499,-0.000981,-0.001895,0.000392,-0.001073,0.006083
1609056010144757509,272,1609056010144757509,-0.005413,-0.007406,0.00161,0.999458,0.00019,0.032777,-0.002881,0.000613,0.003999,-0.000976,0.001439,-0.001899,0.008106
1609056010241465092,273,1609056010241465092,-0.004246,-0.009427,0.00276,0.999465,-5.8e-05,0.032552,-0.003008,0.003168,-0.000791,0.002381,-0.001333,-0.001161,0.010232
1609056010350798368,274,1609056010350798368,-0.003483,-0.010187,0.002519,0.999465,-5e-05,0.032575,-0.002903,0.003572,-0.001508,0.001573,0.001825,0.002065,0.007023
1609056010444632769,275,1609056010444632769,-0.003373,-0.011764,0.002834,0.999464,0.000153,0.032585,-0.00302,0.003397,-0.005126,0.002357,-0.000425,0.00088,0.009567
1609056010541484356,276,1609056010541484356,-0.00159,-0.007083,0.002954,0.999461,4.3e-05,0.032668,-0.002992,0.004324,0.002175,0.001804,-0.001467,-0.000123,0.009774
1609056010651660681,277,1609056010651660681,0.000836,-0.005089,0.002772,0.999461,0.000166,0.032672,-0.002892,0.006993,0.005624,0.001147,0.001402,-0.002261,0.00611
1609056010744691372,278,1609056010744691372,0.000924,-0.003842,0.002361,0.999462,0.000111,0.03264,-0.002952,0.005035,0.005073,4.2e-05,0.000279,-0.002116,0.009285
1609056010841531754,279,1609056010841531754,0.000202,-0.004576,0.002265,0.999461,0.000208,0.032666,-0.003013,0.001075,0.001815,0.000279,-0.000291,-0.000291,0.008463
1609056010951144218,280,1609056010951144218,-0.002275,-0.007743,0.00305,0.999464,0.000146,0.032572,-0.002974,-0.004441,-0.001861,0.0026,0.001511,-0.001405,0.006581
1609056011044315338,281,1609056011044315338,-0.00061,-0.006893,0.003002,0.999464,9.8e-05,0.03258,-0.002884,-0.00021,-0.0014,0.00177,0.000402,7.8e-05,0.008321
1609056011141441345,282,1609056011141441345,-0.001725,-0.009489,0.002398,0.999453,9.8e-05,0.032913,-0.003023,-0.00333,-0.006052,0.00027,-5.7e-05,-0.002563,0.008527
1609056011250901461,283,1609056011250901461,-0.003322,-0.009388,0.001798,0.99945,6e-06,0.033006,-0.002926,-0.008141,-0.003311,-0.00057,0.001129,-0.001692,0.006289
1609056011344425917,284,1609056011344425917,-0.004337,-0.007184,0.00097,0.999451,-0.000129,0.032986,-0.002857,-0.009617,-0.000247,-0.003072,-0.000457,-0.000805,0.00955
1609056011442056894,285,1609056011442056894,-0.00228,-0.0046,0.00171,0.999458,-1e-05,0.032766,-0.002884,-0.004647,0.001706,-0.00063,-0.002022,-0.000745,0.008468
1609056011550900221,286,1609056011550900221,-0.00453,-0.006292,0.001661,0.999457,-9e-06,0.032821,-0.002875,-0.010122,-0.001099,-0.000544,0.000463,-0.001673,0.006286
1609056011644686460,287,1609056011644686460,-0.004306,-0.007067,0.002207,0.999463,0.000121,0.032619,-0.002944,-0.007855,-0.003014,0.001011,-0.000677,-0.001348,0.010269
1609056011741434336,288,1609056011741434336,-0.002327,-0.004857,0.001862,0.999461,0.000162,0.032681,-0.002922,-0.002947,0.000304,0.000101,-0.000112,0.001496,0.008719
1609056011850573778,289,1609056011850573778,-0.004451,-0.006758,0.002311,0.999463,9.6e-05,0.032627,-0.002984,-0.007424,-0.002509,0.00184,0.001174,0.001833,0.008539
1609056011945144176,290,1609056011945144176,-0.006971,-0.006916,0.001987,0.999461,7.2e-05,0.032689,-0.003,-0.012112,-0.002425,0.000903,0.000191,-0.001474,0.009368
1609056012041865587,291,1609056012041865587,-0.003904,-0.00737,0.002243,0.999461,3e-05,0.032681,-0.003064,-0.004102,-0.004321,0.001127,-0.001823,-0.000843,0.008862
1609056012151570320,292,1609056012151570320,-0.004641,-0.009069,0.00203,0.999457,0.000109,0.032799,-0.00304,-0.006481,-0.005985,0.000577,-0.001038,-0.001529,0.007553
1609056012245564461,293,1609056012245564461,-0.007085,-0.011454,0.001584,0.999453,-1.2e-05,0.032908,-0.003076,-0.011073,-0.009276,-0.000627,0.000735,0.000221,0.008976
1609056012342035294,294,1609056012342035294,-0.00605,-0.011874,0.001231,0.999455,-0.000139,0.03288,-0.002859,-0.007659,-0.009045,-0.001399,-0.001634,0.000442,0.010208
1609056012451623917,295,1609056012451623917,-0.005513,-0.011675,0.000993,0.999448,-5.4e-05,0.033086,-0.002946,-0.00742,-0.007063,-0.002036,0.00089,-0.002699,0.006728
1609056012544895411,296,1609056012544895411,-0.005954,-0.012155,0.001426,0.999456,1.7e-05,0.032841,-0.002973,-0.007261,-0.007287,-0.000511,0.002512,-0.00129,0.008045
1609056012641577005,297,1609056012641577005,-0.007735,-0.013194,0.001129,0.999453,-9.3e-05,0.032912,-0.002926,-0.010858,-0.008128,-0.000889,-0.000515,0.001824,0.010942
1609056012751698256,298,1609056012751698256,-0.007312,-0.013806,0.001968,0.999461,-0.000174,0.032693,-0.002901,-0.008585,-0.00799,0.00104,0.00205,0.000417,0.006097
1609056012844780922,299,1609056012844780922,-0.005925,-0.014363,0.001922,0.999458,-1.8e-05,0.032769,-0.002919,-0.00502,-0.008542,0.000392,0.000367,-0.001475,0.009164
1609056012942808628,300,1609056012942808628,-0.004093,-0.014394,0.002286,0.999457,0.000133,0.0328,-0.003042,-0.00231,-0.00962,0.001429,-0.001819,-0.000826,0.010607
1609056013051370859,301,1609056013051370859,-0.00378,-0.010497,0.001725,0.999459,6.1e-05,0.032759,-0.002857,-0.003808,-0.000547,0.000315,-0.000157,-0.001003,0.006274
1609056013144576311,302,1609056013144576311,-0.005992,-0.012946,0.001924,0.999461,-4.9e-05,0.032646,-0.00321,-0.007562,-0.006654,3e-06,0.000513,-0.002325,0.008736
1609056013241235256,303,1609056013241235256,-0.006847,-0.010949,0.002059,0.999459,-5.8e-05,0.032754,-0.00291,-0.010182,-0.002503,0.00069,-0.001937,-0.000322,0.010304
1609056013351263523,304,1609056013351263523,-0.005169,-0.011227,0.00224,0.99946,3.7e-05,0.032702,-0.002933,-0.005812,-0.002679,-2.9e-05,0.000194,-0.002998,0.006465
1609056013444447994,305,1609056013444447994,-0.003984,-0.007961,0.001737,0.999453,-1.2e-05,0.032919,-0.002876,-0.004321,0.001947,-0.00175,0.002949,9.4e-05,0.008409
1609056013541677237,306,1609056013541677237,-0.002889,-0.007654,0.002158,0.999458,-4.8e-05,0.032767,-0.002981,-0.002102,0.000611,8.6e-05,-0.001813,-0.002089,0.009557
1609056013650660038,307,1609056013650660038,-0.002084,-0.009756,0.002597,0.999463,-8.5e-05,0.032598,-0.003043,0.00036,-0.003956,0.001448,0.000481,8.3e-05,0.004465
1609056013744572163,308,1609056013744572163,-0.004982,-0.012377,0.002744,0.999462,-0.000201,0.032647,-0.003105,-0.006128,-0.008231,0.001348,0.001271,-0.000412,0.007597
1609056013841505051,309,1609056013841505051,-0.000877,-0.006654,0.002907,0.999461,-1.1e-05,0.032669,-0.003001,0.001801,0.000923,0.001571,-0.001792,0.000536,0.009847
1609056013950938463,310,1609056013950938463,-0.002539,-0.007166,0.003145,0.999459,-8.8e-05,0.032728,-0.003015,-0.004101,0.000843,0.001539,0.000538,0.000764,0.006559
1609056014044605970,311,1609056014044605970,-0.003233,-0.005779,0.002441,0.999457,9e-06,0.032785,-0.003067,-0.006328,0.001612,-0.00158,-0.000596,0.000818,0.008992
1609056014141125917,312,1609056014141125917,-0.003567,-0.005047,0.002216,0.999458,8.7e-05,0.032771,-0.003072,-0.006508,0.001325,-0.002204,-0.000934,-0.003204,0.010742
1609056014250652313,313,1609056014250652313,-0.005042,-0.010838,0.002425,0.999459,3.1e-05,0.032736,-0.003159,-0.007946,-0.008565,-0.001414,-0.000613,-0.000584,0.005536
1609056014344855309,314,1609056014344855309,-0.003322,-0.010406,0.002406,0.999457,6.2e-05,0.032791,-0.003043,-0.003395,-0.008319,-0.001735,-0.002142,-0.000536,0.010378
1609056014441550970,315,1609056014441550970,-0.005398,-0.013263,0.001636,0.999456,-0.000131,0.032835,-0.002931,-0.008371,-0.01221,-0.002491,-0.001768,-0.001022,0.010957
1609056014551293850,316,1609056014551293850,-0.005724,-0.011949,0.002102,0.999458,-0.00013,0.032793,-0.002832,-0.009283,-0.006752,-0.001274,0.000183,-0.002735,0.004742
1609056014644738913,317,1609056014644738913,-0.006345,-0.014559,0.002413,0.999464,-0.000117,0.032597,-0.002969,-0.008446,-0.011949,-0.000373,-0.000905,-0.000508,0.010511
1609056014741393089,318,1609056014741393089,-0.007888,-0.013054,0.001712,0.999458,-0.00021,0.032766,-0.002937,-0.01286,-0.008272,-0.001122,-0.001285,0.000957,0.010017
1609056014851256371,319,1609056014851256371,-0.005427,-0.010178,0.001575,0.999455,-0.000157,0.032876,-0.002878,-0.007909,0.000201,-0.001492,0.001664,-0.002172,-0.002328
1609056014944341898,320,1609056014944341898,-0.00732,-0.012263,0.001999,0.999456,-0.000153,0.032837,-0.002995,-0.010834,-0.010075,-0.0003,-0.007107,-0.002419,0.022107
1609056015041097879,321,1609056015041097879,-0.005907,-0.012268,0.002561,0.999462,-0.000126,0.032652,-0.003056,-0.005568,-0.008256,0.001995,-0.005107,0.001517,0.009138
1609056015151135206,322,1609056015151135206,-0.008177,-0.014322,0.002779,0.999462,3.1e-05,0.032649,-0.002864,-0.009519,-0.00982,0.001161,-0.005845,-0.00258,0.008003
1609056015244224310,323,1609056015244224310,-0.008267,-0.014414,0.002907,0.999461,2.5e-05,0.032658,-0.003044,-0.009573,-0.011924,0.001142,-0.005965,-0.000599,0.017058
1609056015341521502,324,1609056015341521502,-0.007143,-0.015509,0.002715,0.999459,-0.000175,0.032715,-0.003128,-0.005715,-0.010251,0.001215,0.002728,0.001208,0.007895
1609056015450983524,325,1609056015450983524,-0.006084,-0.012463,0.002408,0.999455,4.5e-05,0.032873,-0.002971,-0.003675,-0.002978,0.000395,0.007444,0.000619,0.003422
1609056015544438839,326,1609056015544438839,-0.005609,-0.012476,0.001526,0.999452,0.000185,0.032967,-0.002917,-0.002683,-0.005754,-0.001723,-0.002942,-0.002483,0.018069
1609056015641401052,327,1609056015641401052,-0.000449,-0.009768,0.002291,0.999454,2.4e-05,0.032888,-0.002844,0.007065,0.001222,0.0022,-0.002188,0.000527,0.002123
1609056015750290155,328,1609056015750290155,0.000787,-0.00718,0.002043,0.999455,0.00022,0.032863,-0.003001,0.005475,0.005313,0.00341,0.009688,0.009219,0.003106
1609056015844399214,329,1609056015844399214,-0.001106,-0.004813,0.002535,0.999455,0.000195,0.032893,-0.002759,-0.000274,0.004334,0.00407,0.00446,0.002239,0.018937
1609056015941080332,330,1609056015941080332,-0.000815,-0.00574,0.002575,0.999454,0.000158,0.032902,-0.002981,0.000469,0.001377,0.00383,-0.006698,0.005537,0.012732
1609056016050620317,331,1609056016050620317,5.3e-05,-0.006029,0.002812,0.999449,0.000307,0.033048,-0.002968,0.000189,-0.000123,0.005105,-0.012412,0.004853,0.011886
1609056016144357204,332,1609056016144357204,-0.001571,-0.003633,0.003629,0.99945,0.000301,0.032996,-0.003189,-0.005862,0.001555,0.008278,-0.005368,0.010085,0.016303
1609056016241121292,333,1609056016241121292,-0.003185,-0.004969,0.003339,0.999447,-7.9e-05,0.033095,-0.003096,-0.006262,0.001379,0.006778,0.0028,0.007725,0.007513
1609056016350661039,334,1609056016350661039,-0.00409,-0.00628,0.003054,0.999435,0.000169,0.033447,-0.003235,-0.010954,-0.002242,0.004568,0.012616,-0.004155,0.004586
1609056016444407463,335,1609056016444407463,-0.003671,-0.003744,0.002491,0.999432,0.000291,0.033539,-0.003017,-0.005959,0.003725,0.001423,-0.003435,-0.001464,0.004124
1609056016541186333,336,1609056016541186333,-0.005493,-0.008482,0.00249,0.999428,-0.00011,0.033645,-0.003269,-0.012331,-0.007472,0.001113,0.019538,0.010162,0.005733
1609056016650833845,337,1609056016650833845,-0.006338,-0.010784,0.002116,0.999413,-0.000333,0.034113,-0.002947,-0.011019,-0.00385,-0.004289,0.00048,0.002309,0.000602
1609056016744533777,338,1609056016744533777,-0.006098,-0.015556,0.001829,0.999436,-0.000495,0.033461,-0.002711,-0.00932,0.006134,-0.016879,-0.014142,-0.04408,-0.016574
1609056016841274977,339,1609056016841274977,-0.005045,-0.022907,0.000126,0.9995,-0.000117,0.031517,-0.002213,0.013532,-0.022154,-0.012062,0.015996,-0.025081,0.006248
1609056016951237202,340,1609056016951237202,-0.004852,-0.028739,0.000304,0.999573,0.000402,0.029081,-0.002642,-0.002957,-0.021019,0.00061,-0.016356,-0.020969,-0.005155
1609056017044466019,341,1609056017044466019,-0.004887,-0.024518,-0.001202,0.999603,0.000833,0.028058,-0.002292,-0.009575,-0.011359,-0.004341,0.014695,0.000961,0.004262
1609056017141134739,342,1609056017141134739,-0.005465,-0.024933,-0.001963,0.999602,0.001122,0.028102,-0.001969,-0.016208,-0.009157,0.0039,0.005029,0.056792,0.003513
1609056017250735283,343,1609056017250735283,-0.006924,-0.029687,-0.000912,0.999562,0.000763,0.029499,-0.001898,-0.016519,-0.012326,-0.020814,-0.038953,-0.027148,0.001597
1609056017344448566,344,1609056017344448566,-0.004664,-0.026942,0.001145,0.999511,0.00042,0.031185,-0.002091,-0.005996,-0.008662,0.007105,-0.036794,0.025026,0.002341
1609056017442029715,345,1609056017442029715,-0.003836,-0.025815,0.002898,0.999432,0.000137,0.033557,-0.002911,-0.009924,-0.009882,0.009401,0.023713,0.026834,0.010934
1609056017551559210,346,1609056017551559210,-0.008029,-0.023811,0.003347,0.999375,-0.000336,0.035253,-0.002467,-0.005422,0.000805,-0.001228,-0.014026,0.004293,0.001328
1609056017644587994,347,1609056017644587994,-0.007899,-0.023366,0.002114,0.999374,-0.000217,0.035225,-0.003007,-0.005013,0.003923,-0.005776,-0.026887,0.010728,0.007842
1609056017742115259,348,1609056017742115259,-0.00615,-0.016201,0.001035,0.999425,8.4e-05,0.033779,-0.002812,0.002409,0.019016,-0.011879,-0.013554,-0.021496,0.004829
1609056017851410151,349,1609056017851410151,-0.006291,-0.014626,0.000436,0.999466,0.000274,0.032535,-0.00271,-0.006508,0.017993,-0.001921,-0.013799,0.006385,0.005112
1609056017944707632,350,1609056017944707632,-0.006438,-0.013961,0.000616,0.999457,0.000288,0.032803,-0.002941,-0.011483,0.011324,-0.00174,0.026569,0.001879,0.00357
1609056018041077852,351,1609056018041077852,-0.007761,-0.013172,0.002702,0.999429,-7.8e-05,0.033636,-0.003003,-0.01651,0.011336,0.007037,-0.002708,0.037616,0.009119
1609056018150662184,352,1609056018150662184,-0.007986,-0.013801,0.003605,0.99941,-0.00027,0.034213,-0.002848,-0.008581,0.008787,0.004296,0.004205,0.020359,0.004683
1609056018244475126,353,1609056018244475126,-0.008497,-0.012953,0.00256,0.999422,-0.000106,0.033856,-0.003061,0.00083,0.013086,-0.009541,0.004386,-0.03284,-0.002062
1609056018341184378,354,1609056018341184378,-0.006765,-0.010516,0.002139,0.999453,0.000382,0.032907,-0.002945,0.003653,0.007666,-0.008175,0.010421,-0.029714,0.001244
1609056018450525522,355,1609056018450525522,-0.006389,-0.01124,0.002703,0.999462,3.6e-05,0.032651,-0.002945,-0.00365,0.003427,-0.000918,0.018332,-0.010474,0.008966
1609056018544160128,356,1609056018544160128,-0.007447,-0.013134,0.002405,0.999435,0.000135,0.033438,-0.003197,-0.014456,0.001257,0.0092,-0.020431,0.046762,0.01477
1609056018641171455,357,1609056018641171455,-0.005198,-0.011673,0.002066,0.999463,-7.1e-05,0.032621,-0.002946,0.012552,0.008592,-0.020911,0.002323,-0.059147,0.000852
1609056018750577688,358,1609056018750577688,-0.000302,-0.017713,0.002746,0.999544,0.000235,0.030029,-0.002932,0.029803,-0.001561,-0.013042,-0.001694,-0.078059,-0.003952
1609056018844377041,359,1609056018844377041,0.00212,-0.016192,0.001649,0.999615,0.000498,0.027604,-0.002688,0.016324,0.001524,-0.006045,-0.006912,-0.061284,-0.004768
