time,field.header.seq,field.header.stamp,field.pose.pose.position.x,field.pose.pose.position.y,field.pose.pose.position.z,field.pose.pose.orientation.x,field.pose.pose.orientation.y,field.pose.pose.orientation.z,field.pose.pose.orientation.w,field.twist.twist.linear.x,field.twist.twist.linear.y,field.twist.twist.linear.z,field.twist.twist.angular.x,field.twist.twist.angular.y,field.twist.twist.angular.z
1624181090361844540,3,1624181090361844540,0.002778,0.019204,-0.000827,0.999388,-0.000244,-0.03443,-0.006033,-0.005967,-0.008442,0.016214,0.022191,0.006915,-0.002537
1624181090461842060,4,1624181090461842060,0.001249,0.023294,-0.004046,0.999381,-0.000271,-0.034654,-0.005986,-0.008653,0.000651,0.006348,0.02264,0.006734,-0.002476
1624181090561839819,5,1624181090561839819,0.001811,0.020295,-0.004541,0.999379,-0.000229,-0.034743,-0.005784,-0.006336,-0.006441,0.004058,0.021191,0.006633,-0.002421
1624181090661837339,6,1624181090661837339,0.003857,0.016076,-0.003376,0.999377,-0.000114,-0.034833,-0.005597,-0.00132,-0.01285,0.00634,0.020774,0.006442,-0.003177
1624181090761834860,7,1624181090761834860,0.004762,0.015362,-0.004806,0.999379,-0.000199,-0.03475,-0.005781,-0.001006,-0.013154,0.003065,0.019531,0.005475,-0.001916
1624181090861832380,8,1624181090861832380,0.004364,0.014088,-0.004386,0.999379,-0.000212,-0.034737,-0.005789,-0.002865,-0.013732,0.00406,0.022559,0.006667,-0.003574
1624181090961829901,9,1624181090961829901,0.004422,0.014413,-0.002923,0.999385,-0.000139,-0.034555,-0.005907,-0.003509,-0.013078,0.006548,0.022653,0.006402,-0.00225
1624181091061827421,10,1624181091061827421,-0.001756,0.013053,-0.004959,0.999378,-0.000178,-0.03478,-0.00577,-0.014341,-0.014892,0.000727,0.020907,0.005417,-0.002257
1624181091161825180,11,1624181091161825180,0.001378,0.013332,-0.004436,0.999376,-0.000182,-0.034859,-0.005685,-0.005795,-0.012373,0.002007,0.021489,0.006445,-0.003238
1624181091261822701,12,1624181091261822701,0.004138,0.011354,-0.0037,0.999373,-0.000185,-0.034919,-0.00568,0.001058,-0.014809,0.005344,0.022162,0.008518,-0.000662
1624181091361820221,13,1624181091361820221,0.003923,0.014499,-0.005286,0.999379,-0.000193,-0.034765,-0.005706,-0.000232,-0.008438,0.002112,0.021737,0.005064,-0.003199
1624181091461817741,14,1624181091461817741,0.005888,0.013691,-0.003598,0.999382,-1.9e-05,-0.034663,-0.005678,0.002807,-0.008585,0.006103,0.019882,0.005121,-0.002725
1624181091561815262,15,1624181091561815262,0.009233,0.016926,-0.004965,0.999385,-0.000197,-0.034564,-0.005871,0.007133,-0.003966,0.002401,0.022503,0.006129,-0.002136
1624181091661813021,16,1624181091661813021,0.006524,0.018953,-0.006377,0.999385,-0.000188,-0.034529,-0.006031,-0.001951,-0.003365,0.001342,0.021679,0.009064,-0.002875
1624181091761810541,17,1624181091761810541,0.005752,0.020724,-0.005292,0.999388,-0.000236,-0.034414,-0.006157,-0.005434,-0.002924,0.004506,0.021592,0.003023,-0.002518
1624181091861808062,18,1624181091861808062,0.005245,0.020443,-0.006068,0.999385,-0.000162,-0.034534,-0.006058,-0.006759,-0.004624,0.00264,0.021477,0.005282,-0.003567
1624181091961805582,19,1624181091961805582,0.007348,0.016758,-0.006252,0.999385,-8.6e-05,-0.034557,-0.005906,-0.001867,-0.009783,0.001753,0.022436,0.006002,-0.002525
1624181092061803102,20,1624181092061803102,0.005047,0.013674,-0.004096,0.999381,-0.000186,-0.034678,-0.005757,-0.006883,-0.014183,0.007681,0.023881,0.003859,-0.003353
1624181092161800861,21,1624181092161800861,0.00407,0.014488,-0.003308,0.999382,-0.000226,-0.034665,-0.005667,-0.008727,-0.012328,0.009484,0.020439,0.005883,-0.001418
1624181092261798382,22,1624181092261798382,0.004563,0.013574,-0.002229,0.999378,-0.000102,-0.034782,-0.005647,-0.007028,-0.011896,0.011323,0.020673,0.006967,-0.003033
1624181092361795902,23,1624181092361795902,0.003212,0.014416,-0.003872,0.999375,-0.000168,-0.034893,-0.005629,-0.008715,-0.008872,0.006318,0.02213,0.004914,-0.001028
1624181092461793423,24,1624181092461793423,0.002628,0.014873,-0.003761,0.999378,-0.000169,-0.034788,-0.005693,-0.009694,-0.008364,0.007932,0.020878,0.005815,-0.002406
1624181092561790943,25,1624181092561790943,0.002938,0.016326,-0.003685,0.999379,-0.000141,-0.034757,-0.005687,-0.007972,-0.00566,0.006384,0.021897,0.004617,-0.001787
1624181092661788702,26,1624181092661788702,0.001133,0.016418,-0.003535,0.99938,-0.00018,-0.034745,-0.005642,-0.009769,-0.005753,0.005974,0.020753,0.003793,-0.002151
1624181092761786222,27,1624181092761786222,0.002497,0.017995,-0.004781,0.999381,-0.000202,-0.03466,-0.005893,-0.005826,-0.003292,0.00321,0.022049,0.005504,-0.002197
1624181092861783743,28,1624181092861783743,0.002638,0.017985,-0.004059,0.999384,-0.00017,-0.034586,-0.005919,-0.005976,-0.005368,0.006022,0.022553,0.005048,-0.003278
1624181092961781263,29,1624181092961781263,0.004498,0.017093,-0.005092,0.999381,-9.1e-05,-0.034665,-0.00589,-0.001675,-0.007691,0.003306,0.021119,0.004943,-0.002578
1624181093061778784,30,1624181093061778784,0.003428,0.018884,-0.005102,0.999389,-0.000231,-0.03441,-0.006056,-0.005512,-0.005143,0.003945,0.021269,0.005252,-0.002519
1624181093161776543,31,1624181093161776543,0.003648,0.021457,-0.005723,0.999394,-0.000151,-0.034228,-0.006175,-0.006728,-0.001881,0.003187,0.022181,0.006736,-0.001675
1624181093261774063,32,1624181093261774063,0.002326,0.022546,-0.006184,0.999386,-0.000163,-0.03449,-0.006035,-0.008565,-0.001205,0.002617,0.02156,0.003419,-0.002451
1624181093361771584,33,1624181093361771584,0.003698,0.024318,-0.00829,0.999388,-0.000253,-0.034444,-0.006058,-0.005816,-2e-05,-0.001492,0.019656,0.004421,-0.001652
1624181093461769104,34,1624181093461769104,0.001337,0.024334,-0.010259,0.999384,-0.000225,-0.034533,-0.006131,-0.010517,-0.001422,-0.004382,0.022159,0.006685,-0.002057
1624181093561766624,35,1624181093561766624,0.002469,0.023268,-0.010723,0.999387,-0.000183,-0.034443,-0.0062,-0.007595,-0.003946,-0.002642,0.022609,0.00679,-0.002282
1624181093661764145,36,1624181093661764145,0.001933,0.025236,-0.010352,0.99939,-0.000127,-0.034332,-0.006361,-0.008477,-0.003416,0.000482,0.021647,0.002781,-0.001879
1624181093761761904,37,1624181093761761904,0.004037,0.022814,-0.009698,0.999388,-0.000137,-0.034407,-0.006279,-0.004109,-0.009219,0.003183,0.020118,0.005751,-0.001905
1624181093861759424,38,1624181093861759424,0.003082,0.022482,-0.007822,0.999388,-0.000253,-0.034411,-0.006145,-0.00615,-0.009236,0.007331,0.022622,0.006911,-0.001763
1624181093961756945,39,1624181093961756945,0.004163,0.022237,-0.008466,0.999391,-0.000219,-0.034295,-0.00632,-0.005089,-0.011242,0.006061,0.021181,0.007414,-0.001788
1624181094061754465,40,1624181094061754465,0.004987,0.019235,-0.010281,0.999379,-0.000172,-0.034703,-0.005987,-0.002426,-0.015623,0.002159,0.019956,0.003879,-0.002159
1624181094161751986,41,1624181094161751986,0.005112,0.021165,-0.008549,0.999387,-0.000165,-0.034463,-0.006113,-0.003198,-0.011697,0.006764,0.022486,0.006734,-0.003205
1624181094261749744,42,1624181094261749744,0.003993,0.02183,-0.006268,0.999391,-0.000239,-0.034336,-0.006176,-0.006336,-0.011415,0.011887,0.022433,0.00507,-0.002191
1624181094361747265,43,1624181094361747265,0.003611,0.020997,-0.004731,0.999392,-0.000122,-0.034314,-0.006093,-0.006879,-0.012814,0.014416,0.021137,0.005762,-0.002029
1624181094461744785,44,1624181094461744785,0.001722,0.022812,-0.004162,0.999394,-0.000212,-0.034242,-0.006167,-0.010786,-0.010264,0.012709,0.021415,0.005386,-0.002911
1624181094561742306,45,1624181094561742306,0.00228,0.01962,-0.007129,0.999377,-0.000199,-0.034798,-0.005806,-0.007239,-0.014695,0.004502,0.020863,0.005656,-0.001558
1624181094661739826,46,1624181094661739826,0.001464,0.017037,-0.007914,0.999375,-0.000153,-0.034846,-0.005775,-0.007342,-0.017862,0.003493,0.019728,0.00578,-0.001263
1624181094761737585,47,1624181094761737585,0.003979,0.016846,-0.005571,0.999376,-0.000182,-0.034824,-0.005756,-0.000959,-0.017187,0.008309,0.022782,0.005921,-0.00327
1624181094861735106,48,1624181094861735106,0.006639,0.017241,-0.005887,0.999384,-0.000109,-0.034574,-0.005899,0.003136,-0.016382,0.008009,0.019738,0.005606,-0.002136
1624181094961732626,49,1624181094961732626,0.009104,0.014559,-0.005166,0.999389,-6.8e-05,-0.034424,-0.005997,0.005659,-0.019911,0.009768,0.021711,0.005631,-0.001493
1624181095061730146,50,1624181095061730146,0.008692,0.013018,-0.004282,0.999388,-8.8e-05,-0.034476,-0.005895,0.002319,-0.021157,0.010541,0.022048,0.005806,-0.002184
1624181095161727667,51,1624181095161727667,0.007691,0.014359,-0.0053,0.999387,-0.000156,-0.034474,-0.005959,-0.001229,-0.018025,0.007926,0.022131,0.005549,-0.00334
1624181095261725426,52,1624181095261725426,0.006007,0.011776,-0.004664,0.999383,-0.000158,-0.034629,-0.005719,-0.005508,-0.020541,0.009144,0.022166,0.005663,-0.002442
1624181095361722946,53,1624181095361722946,0.004499,0.009859,-0.003932,0.999381,-0.000152,-0.034734,-0.005529,-0.007319,-0.020563,0.009279,0.022457,0.005785,-0.001574
1624181095461720467,54,1624181095461720467,0.005338,0.009586,-0.004079,0.999385,-7.9e-05,-0.034572,-0.005728,-0.005872,-0.01951,0.008741,0.022546,0.006855,-0.001993
1624181095561717987,55,1624181095561717987,0.00278,0.009422,-0.004337,0.999383,-0.000181,-0.034645,-0.005684,-0.010186,-0.019058,0.007435,0.021482,0.005402,-0.002406
1624181095661715508,56,1624181095661715508,0.00351,0.011772,-0.005431,0.999388,-0.000122,-0.034492,-0.00578,-0.007762,-0.012608,0.004155,0.020387,0.004658,-0.002209
1624181095761713266,57,1624181095761713266,0.005923,0.015312,-0.007681,0.999385,-0.000144,-0.034554,-0.005804,-0.002327,-0.005934,-0.001249,0.021238,0.004378,-0.002381
1624181095861710787,58,1624181095861710787,0.00749,0.018626,-0.008597,0.999385,-0.000148,-0.034554,-0.005909,7e-05,-0.002232,-0.002397,0.02206,0.00614,-0.00291
1624181095961708307,59,1624181095961708307,0.005859,0.021662,-0.00921,0.999392,-0.000202,-0.034305,-0.006171,-0.005421,-0.000232,-0.000718,0.021897,0.003304,-0.001871
1624181096061705828,60,1624181096061705828,0.006393,0.020403,-0.00712,0.999384,-0.000109,-0.03456,-0.005961,-0.004173,-0.00266,0.005088,0.021198,0.00623,-0.001129
1624181096161703348,61,1624181096161703348,0.003987,0.021155,-0.004241,0.99939,-0.0001,-0.034384,-0.005965,-0.009727,-0.001992,0.010936,0.021677,0.004728,-0.002505
1624181096261700869,62,1624181096261700869,0.003569,0.021356,-0.004863,0.999386,-0.000123,-0.034506,-0.006027,-0.010484,-0.004332,0.008783,0.020609,0.006424,-0.001858
1624181096361698627,63,1624181096361698627,0.003577,0.021701,-0.005151,0.999389,-0.000148,-0.034424,-0.006017,-0.009829,-0.004812,0.007403,0.023206,0.006824,-0.002505
1624181096461696148,64,1624181096461696148,5.5e-05,0.019559,-0.003629,0.999387,-0.000252,-0.034479,-0.005926,-0.015958,-0.009433,0.009661,0.020714,0.007024,-0.002607
1624181096561693668,65,1624181096561693668,0.001348,0.017735,-0.003972,0.999381,-0.00016,-0.03469,-0.005793,-0.010532,-0.010922,0.00727,0.02327,0.005542,-0.003022
1624181096661691189,66,1624181096661691189,0.00197,0.016348,-0.003657,0.999381,-0.000137,-0.034707,-0.005672,-0.008162,-0.012351,0.006816,0.022607,0.003297,-0.003078
1624181096761688709,67,1624181096761688709,0.003466,0.020563,-0.006399,0.999391,-0.000162,-0.034327,-0.006107,-0.006104,-0.007204,0.001361,0.021426,0.00537,-0.002827
1624181096861686468,68,1624181096861686468,0.002613,0.019278,-0.008537,0.999388,-0.000217,-0.034453,-0.005956,-0.00714,-0.009563,-0.001435,0.021386,0.005616,-0.001313
1624181096961683989,69,1624181096961683989,0.003147,0.021565,-0.008898,0.999391,-0.000219,-0.034335,-0.006066,-0.006933,-0.006169,-0.000183,0.022166,0.004816,-0.001869
1624181097061681509,70,1624181097061681509,0.002672,0.023988,-0.009585,0.999392,-0.000245,-0.034299,-0.006236,-0.008329,-0.003988,-0.000315,0.020858,0.005928,-0.001332
1624181097161679029,71,1624181097161679029,0.003181,0.023065,-0.011525,0.999378,-0.000149,-0.034733,-0.006001,-0.006028,-0.005574,-0.003956,0.020982,0.00566,-0.003158
1624181097261676550,72,1624181097261676550,0.004882,0.022318,-0.010274,0.999386,-0.000245,-0.034491,-0.006123,-0.003107,-0.007521,0.001952,0.02,0.005413,-0.002547
1624181097361674309,73,1624181097361674309,0.003076,0.021247,-0.008306,0.999383,-0.000156,-0.034605,-0.005904,-0.00759,-0.008651,0.005736,0.022589,0.007534,-0.002988
1624181097461671829,74,1624181097461671829,0.0043,0.020434,-0.006739,0.999385,-0.000137,-0.034563,-0.005887,-0.005353,-0.010835,0.009761,0.021526,0.003748,-0.001655
1624181097561669350,75,1624181097561669350,0.001404,0.020691,-0.005438,0.999385,-0.000138,-0.034505,-0.006102,-0.011686,-0.010811,0.012112,0.020879,0.006723,-0.00213
1624181097661666870,76,1624181097661666870,0.004487,0.022101,-0.006529,0.999388,-0.000186,-0.034444,-0.006069,-0.005098,-0.008219,0.007153,0.021904,0.005834,-0.002914
1624181097761664391,77,1624181097761664391,0.005965,0.022192,-0.005898,0.999389,-0.000201,-0.034422,-0.006007,-0.002799,-0.007901,0.008302,0.022439,0.007363,-0.00328
1624181097861662149,78,1624181097861662149,0.005347,0.023058,-0.007297,0.999388,-0.000161,-0.034422,-0.006106,-0.005597,-0.007831,0.005558,0.021401,0.003697,-0.003469
1624181097961659670,79,1624181097961659670,0.006993,0.020543,-0.005684,0.999386,-7.9e-05,-0.0345,-0.005949,-0.003054,-0.011662,0.007973,0.021638,0.004967,-0.002864
1624181098061657190,80,1624181098061657190,0.007785,0.018811,-0.008226,0.999384,-9.6e-05,-0.034594,-0.005873,-0.00264,-0.013194,0.002253,0.020467,0.00516,-0.001174
1624181098161654711,81,1624181098161654711,0.006829,0.018828,-0.008263,0.999383,-6.5e-05,-0.034607,-0.005937,-0.004918,-0.012585,0.003687,0.021576,0.00551,-0.001443
1624181098261652231,82,1624181098261652231,0.006058,0.020704,-0.006439,0.999386,-0.000123,-0.034507,-0.00596,-0.007059,-0.009682,0.009007,0.020707,0.004365,-0.001765
1624181098361649990,83,1624181098361649990,0.004327,0.019894,-0.006244,0.999392,-0.000103,-0.034328,-0.00606,-0.011523,-0.010937,0.008501,0.021192,0.006624,-0.002571
1624181098461647511,84,1624181098461647511,0.000922,0.021819,-0.007803,0.999389,-0.000272,-0.034396,-0.006086,-0.017164,-0.008651,0.004448,0.02121,0.006136,-0.001054
1624181098561645031,85,1624181098561645031,0.002258,0.024098,-0.007529,0.999387,-0.000208,-0.034445,-0.00622,-0.012774,-0.004734,0.005478,0.02339,0.00733,-0.001888
1624181098661642551,86,1624181098661642551,0.004554,0.025661,-0.007762,0.999394,-0.000159,-0.034215,-0.006326,-0.007791,-0.00459,0.004923,0.020774,0.006972,-0.002232
1624181098761640072,87,1624181098761640072,0.006174,0.025311,-0.008618,0.999396,-0.000146,-0.034138,-0.006493,-0.005278,-0.006486,0.003753,0.020744,0.005872,-0.001222
1624181098861637831,88,1624181098861637831,0.005162,0.02645,-0.008416,0.999393,-0.000196,-0.034217,-0.006505,-0.007723,-0.006023,0.004605,0.020509,0.005931,-0.002789
1624181098961635351,89,1624181098961635351,0.005016,0.026288,-0.007456,0.999391,-0.000155,-0.034263,-0.006469,-0.00863,-0.007679,0.006648,0.022686,0.007853,-0.002383
1624181099061632872,90,1624181099061632872,0.002113,0.024804,-0.00651,0.999384,-0.000164,-0.03449,-0.006331,-0.013512,-0.010511,0.00828,0.022174,0.004002,-0.002323
1624181099161630392,91,1624181099161630392,0.000969,0.024099,-0.005489,0.999384,-0.000216,-0.034509,-0.006253,-0.014316,-0.010749,0.010237,0.020006,0.00447,-0.001353
1624181099261627913,92,1624181099261627913,0.000148,0.024286,-0.005592,0.999377,-0.000202,-0.034727,-0.006137,-0.01309,-0.01056,0.008194,0.021117,0.006132,-0.001792
1624181099361625433,93,1624181099361625433,0.000623,0.021898,-0.007197,0.999376,-0.000166,-0.0348,-0.006011,-0.01026,-0.014693,0.004512,0.02106,0.006546,-0.001688
1624181099461623192,94,1624181099461623192,0.000711,0.024229,-0.005828,0.999384,-0.000192,-0.034574,-0.006012,-0.009515,-0.01128,0.009466,0.020715,0.005106,-0.001844
1624181099561620712,95,1624181099561620712,0.001805,0.024763,-0.007085,0.999381,-0.000212,-0.034672,-0.00593,-0.006235,-0.00976,0.005644,0.020475,0.003785,-0.001127
1624181099661618233,96,1624181099661618233,0.001998,0.025366,-0.006228,0.999385,-0.000231,-0.034529,-0.005988,-0.004784,-0.008333,0.007742,0.022276,0.006122,-0.002761
1624181099761615753,97,1624181099761615753,0.002334,0.022412,-0.006918,0.999376,-0.000209,-0.034803,-0.005884,-0.003669,-0.01268,0.006377,0.021794,0.004835,-0.002275
1624181099861613274,98,1624181099861613274,0.001658,0.025183,-0.007077,0.999383,-0.000173,-0.034566,-0.006169,-0.005512,-0.009916,0.006952,0.020563,0.004921,-0.002759
1624181099961611032,99,1624181099961611032,0.001032,0.027529,-0.00592,0.999385,-0.000248,-0.034477,-0.006322,-0.006625,-0.007471,0.009547,0.020582,0.005107,-0.00069
1624181100061608553,100,1624181100061608553,0.001011,0.025278,-0.0034,0.999384,-0.00028,-0.034527,-0.006191,-0.006219,-0.011201,0.013697,0.021694,0.006668,-0.002818
1624181100161606073,101,1624181100161606073,0.002453,0.021489,-0.003348,0.999378,-0.000155,-0.03475,-0.005876,-0.002211,-0.017034,0.011777,0.022338,0.005619,-0.001891
1624181100261603594,102,1624181100261603594,0.00255,0.023083,-0.006946,0.999386,-0.000249,-0.034489,-0.006007,-0.002761,-0.013929,0.002602,0.02141,0.00441,-0.001861
1624181100361601114,103,1624181100361601114,0.004117,0.022683,-0.00813,0.999381,-0.000201,-0.034661,-0.005942,0.000383,-0.013893,-0.000432,0.021815,0.004915,-0.001833
1624181100461598873,104,1624181100461598873,0.001849,0.024685,-0.007442,0.999389,-0.000275,-0.034399,-0.006094,-0.005857,-0.011749,0.00261,0.021579,0.005446,-0.001588
1624181100561596394,105,1624181100561596394,0.002054,0.025406,-0.007129,0.999385,-0.000277,-0.034525,-0.006118,-0.004673,-0.010374,0.003843,0.020015,0.00661,-0.001977
1624181100661593914,106,1624181100661593914,0.000821,0.023349,-0.005693,0.999385,-0.000321,-0.034548,-0.005967,-0.006867,-0.012729,0.006491,0.021701,0.007804,-0.002771
1624181100761591434,107,1624181100761591434,0.002931,0.019377,-0.005411,0.999376,-0.000232,-0.034828,-0.005716,-0.000924,-0.016785,0.006991,0.021869,0.00555,-0.001668
1624181100861588955,108,1624181100861588955,0.002781,0.017066,-0.00425,0.999381,-0.00021,-0.03472,-0.005642,-0.002102,-0.019599,0.009662,0.022095,0.005872,-0.003036
1624181100961586714,109,1624181100961586714,0.003703,0.017501,-0.004601,0.99938,-0.000149,-0.03473,-0.005724,-0.001242,-0.017297,0.007795,0.020952,0.006679,-0.002111
1624181101061584234,110,1624181101061584234,0.002759,0.018525,-0.004167,0.99938,-0.000134,-0.034713,-0.005833,-0.004019,-0.013883,0.008585,0.022406,0.005868,-0.002499
1624181101161581755,111,1624181101161581755,0.002318,0.019439,-0.004672,0.999382,-0.000118,-0.034636,-0.005891,-0.003741,-0.01112,0.007053,0.019705,0.003948,-0.001678
1624181101261579275,112,1624181101261579275,0.004507,0.018792,-0.003844,0.999386,-8.5e-05,-0.034532,-0.005873,0.000827,-0.011842,0.009154,0.022023,0.006465,-0.002503
1624181101361576796,113,1624181101361576796,0.004667,0.020907,-0.006039,0.99938,-0.000181,-0.034707,-0.005833,0.000195,-0.008537,0.003544,0.02139,0.004752,-0.001336
1624181101461574554,114,1624181101461574554,0.005889,0.021069,-0.005851,0.999382,-0.000241,-0.034629,-0.005925,0.001056,-0.007668,0.004422,0.021413,0.004745,-0.002478
1624181101561572075,115,1624181101561572075,0.006502,0.020576,-0.00431,0.999385,-0.000106,-0.034531,-0.005931,0.001028,-0.00871,0.008145,0.021089,0.007145,-0.003155
1624181101661569595,116,1624181101661569595,0.004649,0.021362,-0.008042,0.999379,-0.000163,-0.03471,-0.005898,-0.002244,-0.00727,-0.000916,0.021655,0.006463,-0.00127
1624181101761567116,117,1624181101761567116,0.005697,0.022481,-0.007472,0.999383,-0.000123,-0.034601,-0.005965,-0.001011,-0.006408,0.003179,0.020487,0.00511,-0.003199
1624181101861564636,118,1624181101861564636,0.004502,0.019003,-0.004684,0.999379,-0.000114,-0.034738,-0.005836,-0.004196,-0.012638,0.011122,0.021047,0.007198,-0.003237
1624181101961562157,119,1624181101961562157,0.005038,0.017106,-0.003501,0.999377,-0.000189,-0.03482,-0.005711,-0.002159,-0.014582,0.012225,0.022352,0.006942,-0.002645
1624181102061559916,120,1624181102061559916,0.005424,0.016688,-0.003508,0.999382,-0.000162,-0.034655,-0.005757,-0.001775,-0.014795,0.010969,0.021792,0.006519,-0.004039
1624181102161557436,121,1624181102161557436,0.006636,0.0158,-0.002879,0.999382,-0.000156,-0.034664,-0.00572,4.6e-05,-0.015456,0.01131,0.022144,0.004669,-0.001939
1624181102261554956,122,1624181102261554956,0.00759,0.017145,-0.00371,0.999381,-0.000127,-0.034676,-0.005763,0.000857,-0.012091,0.007158,0.021557,0.003985,-0.003512
1624181102361552477,123,1624181102361552477,0.003652,0.019894,-0.002839,0.999381,-0.000114,-0.034688,-0.005747,-0.007491,-0.00698,0.007172,0.021514,0.00553,-0.002651
1624181102461549997,124,1624181102461549997,0.000914,0.016986,-0.004173,0.999375,-0.000192,-0.034854,-0.005804,-0.011946,-0.011866,0.004401,0.02386,0.006614,-0.001277
1624181102561547756,125,1624181102561547756,0.001439,0.016728,-0.003291,0.999376,-0.000162,-0.03484,-0.005708,-0.009223,-0.010936,0.006828,0.021624,0.004149,-0.002502
1624181102661545277,126,1624181102661545277,0.000842,0.014089,-0.002206,0.999378,-0.000222,-0.034799,-0.0057,-0.008595,-0.014738,0.008227,0.021667,0.004555,-0.002399
1624181102761542797,127,1624181102761542797,-0.000888,0.014783,-0.000402,0.999374,-0.000162,-0.034923,-0.005518,-0.009917,-0.011333,0.01096,0.020852,0.004979,-0.002224
1624181102861540318,128,1624181102861540318,0.002153,0.015323,-0.0023,0.999382,-0.000121,-0.034667,-0.005727,-0.003127,-0.00972,0.005339,0.021918,0.005494,-0.001603
1624181102961537838,129,1624181102961537838,0.001884,0.015391,-0.001843,0.99938,-0.000203,-0.034707,-0.005762,-0.002667,-0.009042,0.005714,0.021918,0.004473,-0.001776
1624181103061535597,130,1624181103061535597,0.002804,0.017885,-0.002655,0.99938,-0.00016,-0.034717,-0.005741,-0.00051,-0.004693,0.00419,0.02124,0.005767,-0.002784
1624181103161533117,131,1624181103161533117,0.004189,0.01452,-0.00493,0.999374,-0.000156,-0.03491,-0.005682,0.00234,-0.009885,-8.5e-05,0.021986,0.00479,-0.002042
1624181103261530638,132,1624181103261530638,0.004217,0.018318,-0.004784,0.999383,-0.000185,-0.034628,-0.005855,0.000836,-0.004474,0.002005,0.022268,0.006536,-0.001943
1624181103361528158,133,1624181103361528158,0.002549,0.016974,-0.005346,0.99938,-0.000117,-0.034711,-0.005754,-0.002842,-0.007403,0.001903,0.021388,0.00499,-0.002771
1624181103461525679,134,1624181103461525679,0.004779,0.017187,-0.003913,0.999385,-0.000134,-0.034582,-0.005797,0.001154,-0.006514,0.005607,0.021309,0.005495,-0.003177
1624181103561523438,135,1624181103561523438,0.005862,0.015883,-0.005858,0.999379,-0.000132,-0.034767,-0.005681,0.003346,-0.008527,0.000876,0.022262,0.007424,-0.003013
1624181103661520958,136,1624181103661520958,0.00539,0.016713,-0.005501,0.999389,-0.000197,-0.03442,-0.005977,0.000261,-0.008895,0.002689,0.020361,0.005032,-0.002094
1624181103761518478,137,1624181103761518478,0.00478,0.017264,-0.005663,0.999384,-7.9e-05,-0.034538,-0.006091,-0.002386,-0.008032,0.002548,0.021796,0.005922,-0.003262
1624181103861515999,138,1624181103861515999,0.005847,0.019942,-0.005766,0.999392,-0.000173,-0.034297,-0.006133,-0.001195,-0.003959,0.003328,0.020861,0.006536,-0.002297
1624181103961513519,139,1624181103961513519,0.005178,0.022783,-0.006574,0.999392,-0.000264,-0.034257,-0.006321,-0.003613,-0.000626,0.002018,0.021096,0.005317,-0.002704
1624181104061511278,140,1624181104061511278,0.005626,0.021511,-0.005969,0.99939,-0.000114,-0.034375,-0.006105,-0.003022,-0.004143,0.003544,0.022066,0.004782,-0.001104
1624181104161508799,141,1624181104161508799,0.005358,0.020967,-0.006744,0.99939,-0.000166,-0.034346,-0.006169,-0.004431,-0.005704,0.003268,0.020935,0.00474,-0.002353
1624181104261506319,142,1624181104261506319,0.003214,0.021574,-0.008389,0.999388,-0.000257,-0.034417,-0.006218,-0.00938,-0.006041,0.001951,0.020851,0.005248,-0.003656
1624181104361503839,143,1624181104361503839,0.003048,0.027231,-0.010408,0.999391,-0.000229,-0.034292,-0.006317,-0.008576,0.001033,-0.002101,0.020332,0.006068,-0.001538
1624181104461501360,144,1624181104461501360,0.004739,0.026011,-0.00971,0.999386,-0.000221,-0.034465,-0.006218,-0.004017,-0.002435,0.000522,0.02031,0.005162,-0.003268
1624181104561498880,145,1624181104561498880,0.003474,0.026087,-0.007777,0.999387,-0.000135,-0.034466,-0.006103,-0.006347,-0.004128,0.005631,0.022201,0.007052,-0.003026
1624181104661496639,146,1624181104661496639,0.007897,0.026369,-0.009606,0.999392,-0.000243,-0.034259,-0.006326,0.00159,-0.005926,0.001621,0.020811,0.00536,-0.002021
1624181104761494160,147,1624181104761494160,0.010355,0.027399,-0.01007,0.999395,-0.000139,-0.034187,-0.006331,0.003857,-0.00601,0.002274,0.023303,0.007522,-0.003038
1624181104861491680,148,1624181104861491680,0.007827,0.023308,-0.006674,0.99939,-0.000204,-0.034384,-0.006061,-0.00246,-0.013715,0.010027,0.023173,0.005875,-0.002416
1624181104961489201,149,1624181104961489201,0.008081,0.020857,-0.0085,0.999378,-6.2e-05,-0.034742,-0.005887,-0.002129,-0.016627,0.005776,0.020379,0.005894,-0.001842
1624181105061486721,150,1624181105061486721,0.005925,0.020409,-0.00707,0.999388,-0.000149,-0.034449,-0.006057,-0.00849,-0.01597,0.009189,0.021092,0.006456,-0.003525
1624181105161484480,151,1624181105161484480,0.006748,0.020527,-0.005278,0.999389,-0.000263,-0.034403,-0.006101,-0.006983,-0.015444,0.011379,0.021656,0.004399,-0.000218
1624181105261482000,152,1624181105261482000,0.005266,0.019384,-0.005307,0.999389,-0.000183,-0.034404,-0.006004,-0.009581,-0.015891,0.01003,0.021995,0.005415,-0.002301
1624181105361479521,153,1624181105361479521,0.004091,0.021036,-0.006819,0.999388,-0.000235,-0.034428,-0.00611,-0.01041,-0.012016,0.005422,0.021784,0.005296,-0.003135
1624181105461477041,154,1624181105461477041,0.005273,0.021198,-0.006162,0.999393,-9.6e-05,-0.034288,-0.006084,-0.007253,-0.010915,0.006393,0.020944,0.006307,-0.002494
1624181105561474562,155,1624181105561474562,0.003952,0.017947,-0.003458,0.999386,-0.000192,-0.034537,-0.005876,-0.009012,-0.015863,0.0118,0.020912,0.005206,-0.000752
1624181105661472321,156,1624181105661472321,0.003126,0.014417,-0.001924,0.999383,-0.000148,-0.034641,-0.005717,-0.009939,-0.020327,0.013924,0.020357,0.004731,-0.002486
1624181105761469841,157,1624181105761469841,0.003889,0.018741,-0.00421,0.999387,-0.00018,-0.034476,-0.005976,-0.007695,-0.012945,0.007529,0.020951,0.004275,-0.003053
1624181105861467361,158,1624181105861467361,0.00419,0.016887,-0.004974,0.999386,-0.000113,-0.034504,-0.005991,-0.006851,-0.014423,0.005735,0.020997,0.005777,-0.002616
1624181105961464882,159,1624181105961464882,0.003599,0.016497,-0.004486,0.999385,-0.000108,-0.03455,-0.00593,-0.007907,-0.013818,0.006986,0.021803,0.004874,-0.001135
1624181106061462402,160,1624181106061462402,0.001995,0.017603,-0.005616,0.999386,-0.000155,-0.034517,-0.005972,-0.010297,-0.012359,0.00429,0.021533,0.004476,-0.002547
1624181106161460161,161,1624181106161460161,0.001816,0.01779,-0.005382,0.999381,-0.000257,-0.03469,-0.005835,-0.008547,-0.011855,0.005417,0.021298,0.005203,-0.003555
1624181106261457682,162,1624181106261457682,0.005069,0.017881,-0.004729,0.999384,-0.000176,-0.034578,-0.005961,-0.001977,-0.012127,0.006737,0.021706,0.006935,-0.00231
1624181106361455202,163,1624181106361455202,0.003052,0.021281,-0.006451,0.999385,-0.00013,-0.03452,-0.006082,-0.006407,-0.006911,0.003389,0.023111,0.008039,-0.002548
1624181106461452723,164,1624181106461452723,0.004777,0.021591,-0.007572,0.999383,-8.6e-05,-0.034579,-0.005998,-0.002822,-0.006657,0.001919,0.022281,0.004628,-0.002434
1624181106561450243,165,1624181106561450243,0.00535,0.024118,-0.006867,0.999386,-0.000239,-0.034491,-0.00606,-0.001717,-0.003326,0.004875,0.020194,0.005781,-0.002578
1624181106661448002,166,1624181106661448002,0.004422,0.026345,-0.006543,0.999392,-0.000261,-0.034297,-0.006226,-0.005734,-0.002332,0.00634,0.022641,0.004922,-0.003321
1624181106761445522,167,1624181106761445522,0.005323,0.022444,-0.005546,0.999381,-0.000118,-0.034665,-0.00596,-0.003727,-0.008608,0.00841,0.020529,0.006448,-0.00322
1624181106861443043,168,1624181106861443043,0.002925,0.022393,-0.007126,0.999382,-0.000225,-0.034629,-0.006016,-0.008305,-0.009887,0.005321,0.020873,0.005013,-0.002686
1624181106961440563,169,1624181106961440563,0.004212,0.018805,-0.00605,0.999382,-0.000193,-0.034647,-0.00576,-0.00522,-0.014733,0.007653,0.020273,0.004962,-0.001572
1624181107061438084,170,1624181107061438084,0.003748,0.019589,-0.004987,0.999385,-0.000107,-0.034526,-0.005984,-0.006449,-0.013229,0.010175,0.022477,0.006308,-0.001512
1624181107161435843,171,1624181107161435843,0.003587,0.019747,-0.004968,0.99939,-0.00017,-0.03435,-0.006172,-0.00723,-0.014035,0.010518,0.020748,0.006482,-0.001919
1624181107261433363,172,1624181107261433363,0.002625,0.020057,-0.006103,0.999385,-0.000216,-0.034507,-0.006145,-0.007975,-0.013967,0.007538,0.020646,0.002295,-0.001351
1624181107361430883,173,1624181107361430883,0.000725,0.020017,-0.006484,0.999386,-0.000231,-0.034484,-0.006048,-0.010628,-0.013059,0.005256,0.021005,0.003924,-0.003164
1624181107461428404,174,1624181107461428404,0.000752,0.018709,-0.005667,0.999386,-0.000147,-0.03449,-0.00602,-0.009154,-0.014228,0.007452,0.022636,0.006568,-0.003548
1624181107561425924,175,1624181107561425924,0.004044,0.016842,-0.00687,0.999382,-0.000105,-0.034638,-0.005909,-0.001552,-0.014756,0.00495,0.023503,0.003948,-0.007841
1624181107661423445,176,1624181107661423445,0.006399,0.017466,-0.006626,0.999383,2e-05,-0.034624,-0.005767,0.003071,-0.016382,0.005259,0.024509,0.004588,0.003216
1624181107761421204,177,1624181107761421204,0.006867,0.018639,-0.008989,0.999385,-0.000245,-0.034535,-0.00592,0.002621,-0.008957,0.00116,0.031053,0.004889,-0.011448
1624181107861418724,178,1624181107861418724,0.007362,0.021915,-0.009474,0.999392,6.9e-05,-0.034314,-0.006148,0.002071,-0.002147,0.001121,0.039582,0.004,-0.022511
1624181107961416245,179,1624181107961416245,0.005229,0.020606,-0.008433,0.999388,-0.000567,-0.034448,-0.005915,-0.002214,-0.012931,0.003599,0.03298,0.004345,0.011539
1624181108061413765,180,1624181108061413765,0.00641,0.018247,-0.005003,0.99939,-0.000208,-0.034414,-0.005874,-0.001821,-0.004181,0.011044,0.016771,0.00254,-0.025129
1624181108161411285,181,1624181108161411285,0.005873,0.017403,-0.002861,0.999386,0.000195,-0.034544,-0.005837,-0.002325,-0.014054,0.016167,0.016331,0.01125,0.007132
1624181108261409044,182,1624181108261409044,0.004602,0.018633,-0.005342,0.999381,-0.000499,-0.034681,-0.005727,-0.00402,-0.011381,0.007248,0.011869,0.002008,0.010992
1624181108361406565,183,1624181108361406565,0.000692,0.019161,-0.006566,0.999378,-0.000123,-0.03476,-0.005827,-0.011473,-0.00277,0.005521,0.025869,0.009358,-0.011753
1624181108461404085,184,1624181108461404085,0.000935,0.018716,-0.004384,0.99938,-0.000143,-0.034733,-0.005679,-0.008571,-0.010161,0.009389,0.015431,0.004895,0.008896
1624181108561401606,185,1624181108561401606,0.003407,0.020546,-0.005291,0.999388,-0.000312,-0.034465,-0.005921,-0.005365,-0.007597,0.008547,0.030275,0.010624,0.009318
1624181108661399126,186,1624181108661399126,0.002261,0.019298,-0.005143,0.999391,-9.5e-05,-0.034406,-0.005765,-0.009465,-0.001712,0.004509,0.01965,-0.003064,-0.019518
1624181108761396885,187,1624181108761396885,0.002067,0.021657,-0.005148,0.999396,-0.000336,-0.03418,-0.006162,-0.006133,-0.007188,0.007279,0.001311,0.002868,-0.002771
1624181108861394405,188,1624181108861394405,0.007252,0.019388,-0.006581,0.999388,-0.000624,-0.034406,-0.006256,0.005313,-0.010871,0.008606,0.008264,0.023188,0.008591
1624181108961391926,189,1624181108961391926,0.006102,0.019469,-0.007399,0.999382,-0.000375,-0.03461,-0.006112,-0.001243,-0.015907,0.004264,-0.012836,0.013388,0.024636
1624181109061389446,190,1624181109061389446,0.005676,0.019428,-0.007066,0.999383,-0.000313,-0.034593,-0.006003,-0.006163,-0.012425,0.008115,-0.02858,0.024703,0.022353
1624181109161386967,191,1624181109161386967,0.004883,0.017078,-0.006946,0.999375,-0.000105,-0.03487,-0.005699,-0.006828,-0.009516,0.00196,0.027275,-0.002878,0.014767
1624181109261384726,192,1624181109261384726,0.001103,0.017956,-0.006476,0.999376,-0.000188,-0.034692,-0.006484,-0.013342,-0.015812,0.016336,0.036508,0.027184,0.014651
1624181109361382246,193,1624181109361382246,0.002426,0.019052,-0.005501,0.999383,-5.2e-05,-0.034644,-0.005654,-0.008498,0.002879,-0.008843,0.013173,-0.036806,0.007029
1624181109461379766,194,1624181109461379766,0.003733,0.019378,-0.004919,0.999384,-0.000102,-0.034638,-0.005481,-0.005738,0.015503,0.01239,-0.092937,0.03277,-0.018782
1624181109561377287,195,1624181109561377287,0.004198,0.02465,-0.007691,0.999379,-0.000302,-0.034594,-0.006583,-0.001964,0.018464,0.004089,-0.047719,0.009518,-0.005873
1624181109661374807,196,1624181109661374807,0.005808,0.029338,-0.010781,0.999368,-7.7e-05,-0.034981,-0.006203,-0.012195,0.017251,-0.000991,0.020011,0.011916,0.009459
1624181109761372566,197,1624181109761372566,0.009707,0.028788,-0.014014,0.999367,-0.000365,-0.035007,-0.006294,0.001318,0.026758,-0.013716,-0.020996,-0.012081,0.006593
1624181109861370087,198,1624181109861370087,0.01101,0.031459,-0.012369,0.999394,-0.000258,-0.034168,-0.006544,-0.003104,-0.003802,-0.001682,0.094073,-0.000247,0.009983
1624181109961367607,199,1624181109961367607,0.008761,0.033115,-0.010792,0.999396,1.2e-05,-0.034129,-0.006539,-0.010984,0.030621,4e-06,-0.065676,0.024928,-0.006255
1624181110061365128,200,1624181110061365128,0.003188,0.032836,-0.0103,0.999387,-0.000135,-0.034394,-0.006465,-0.009261,0.012754,-0.005973,0.034402,-0.019041,0.007986
1624181110161362648,201,1624181110161362648,0.00289,0.032811,-0.009004,0.999375,-0.000158,-0.034852,-0.005829,-0.014602,3.3e-05,0.007135,0.027766,0.013723,0.010232
1624181110261360168,202,1624181110261360168,0.003674,0.032313,-0.009159,0.999363,-0.00017,-0.035081,-0.006449,-0.003022,0.011718,-0.00277,-0.003095,-0.020542,-0.000826
1624181110361357927,203,1624181110361357927,0.007121,0.034296,-0.009735,0.999384,-0.000163,-0.034485,-0.006459,-0.001729,-0.016012,-0.001751,0.073316,0.007521,0.016172
1624181110461355448,204,1624181110461355448,0.009579,0.02669,-0.008776,0.999395,-0.000129,-0.03419,-0.00625,0.001064,-5e-05,0.004653,-0.054689,0.047306,-0.001665
1624181110561352968,205,1624181110561352968,0.004849,0.023823,-0.005404,0.999397,-2.8e-05,-0.034133,-0.006225,0.001044,-0.014084,0.006111,0.017606,-0.000356,-0.000704
1624181110661350489,206,1624181110661350489,0.00198,0.022536,-0.003711,0.99943,6e-06,-0.033254,-0.005653,-0.018482,-0.018852,0.028087,0.033121,0.0698,0.005419
1624181110761348009,207,1624181110761348009,0.001193,0.019879,-0.003658,0.999481,0.000357,-0.03163,-0.005977,-0.014915,-0.019267,0.012586,-0.007617,0.068034,-0.008833
1624181110861345768,208,1624181110861345768,-0.009418,0.013766,0.006533,0.999505,0.000649,-0.031007,-0.005274,-0.01657,-0.029441,0.020455,0.008965,0.003114,-0.003201
1624181110961343288,209,1624181110961343288,-0.016446,0.005493,0.015499,0.999499,0.000928,-0.031324,-0.004416,-0.017692,-0.036718,0.026964,-0.006051,0.005277,-0.000683
1624181111061340809,210,1624181111061340809,-0.016727,0.000341,0.019271,0.999472,0.000888,-0.032174,-0.004273,-0.004735,-0.036762,0.029825,-0.007484,6e-06,0.003958
1624181111161338329,211,1624181111161338329,-0.017531,0.001667,0.017946,0.999438,0.000602,-0.033167,-0.004785,-0.004047,-0.026503,0.02694,0.013793,0.003702,0.008408
1624181111261335850,212,1624181111261335850,-0.01758,0.003502,0.016672,0.999437,0.000367,-0.03307,-0.00548,0.005084,-0.016818,0.020972,0.024271,-0.044895,0.00518
1624181111361333609,213,1624181111361333609,-0.017751,0.006789,0.0198,0.999464,-0.000255,-0.032141,-0.006164,0.024504,-0.024412,0.060027,0.031574,0.054439,0.018163
1624181111461331129,214,1624181111461331129,-0.013134,0.000767,0.025892,0.999519,-0.001322,-0.029612,-0.00905,0.08781,-0.032535,0.139949,0.103211,0.13564,0.014925
1624181111561328650,215,1624181111561328650,-0.00449,-0.004018,0.057115,0.999705,-0.001333,-0.019462,-0.014453,0.163945,-0.045352,0.35063,0.119917,0.320629,-0.000789
1624181111661326170,216,1624181111661326170,0.015252,-0.012414,0.093224,0.999853,-0.000961,-0.005736,-0.016067,0.219247,-0.077152,0.485432,0.080703,0.307781,0.013438
1624181111761323690,217,1624181111761323690,0.034672,-0.024338,0.144816,0.999803,-0.001225,0.004723,-0.019201,0.223131,-0.118441,0.597423,0.046392,0.221732,0.021054
1624181111861321449,218,1624181111861321449,0.061191,-0.046365,0.213364,0.999686,-0.001044,0.014723,-0.02023,0.231309,-0.147151,0.737572,0.086375,0.140728,0.004957
1624181111961318970,219,1624181111961318970,0.082894,-0.063719,0.29396,0.999571,-0.000869,0.020532,-0.020835,0.212382,-0.192238,0.871976,0.01223,0.073778,0.001447
1624181112061316490,220,1624181112061316490,0.104015,-0.086857,0.375822,0.999533,-0.000942,0.021803,-0.021363,0.191673,-0.234882,0.986731,-0.001744,-0.050224,0.005531
1624181112161314011,221,1624181112161314011,0.118163,-0.112935,0.479228,0.999633,-0.000769,0.018795,-0.01949,0.167445,-0.265044,1.098841,-0.049038,-0.043125,-0.010847
1624181112261311531,222,1624181112261311531,0.133698,-0.138632,0.599412,0.999681,-0.000725,0.019153,-0.016441,0.150722,-0.298857,1.21391,-0.028328,-0.032397,-0.009176
1624181112361309290,223,1624181112361309290,0.145058,-0.166111,0.73078,0.999809,-0.000469,0.015987,-0.011201,0.132588,-0.316309,1.289892,-0.149369,-0.083033,-0.006714
1624181112461306810,224,1624181112461306810,0.153116,-0.189771,0.860793,0.999927,-0.000372,0.012019,-0.00092,0.120856,-0.2925,1.329082,-0.188083,-0.065738,-0.003329
1624181112561304331,225,1624181112561304331,0.170008,-0.237728,0.995066,0.999899,2e-06,0.008704,0.011221,0.135031,-0.305639,1.36413,-0.235496,-0.055248,-0.008214
1624181112661301851,226,1624181112661301851,0.182872,-0.260232,1.128712,0.999791,0.000217,0.006868,0.019238,0.144435,-0.246511,1.373956,-0.147248,-0.025089,0.001458
1624181112761299372,227,1624181112761299372,0.19792,-0.283803,1.264736,0.999636,0.000347,0.00659,0.026141,0.159849,-0.188276,1.387547,-0.077049,0.026506,0.006797
1624181112861296892,228,1624181112861296892,0.209868,-0.290271,1.397435,0.999608,0.000367,0.006935,0.02709,0.164001,-0.097643,1.371754,0.035719,-0.006347,0.007453
1624181112961294651,229,1624181112961294651,0.226783,-0.297767,1.533417,0.999734,0.000272,0.007258,0.021849,0.176131,-0.034738,1.379142,0.212499,0.042039,0.01297
1624181113061292171,230,1624181113061292171,0.242666,-0.301426,1.668695,0.999904,-0.000138,0.007239,0.011744,0.182591,0.007144,1.373353,0.19187,0.00844,0.019009
1624181113161289692,231,1624181113161289692,0.256726,-0.306853,1.814058,0.999981,-0.000731,0.006046,-0.000836,0.18531,0.018186,1.401367,0.351756,0.00446,0.028723
1624181113261287212,232,1624181113261287212,0.274206,-0.307514,1.95392,0.999885,-0.00099,0.006542,-0.013614,0.197694,0.000368,1.405055,0.197197,0.039814,0.018942
1624181113361284733,233,1624181113361284733,0.291711,-0.307792,2.091853,0.999776,-0.001283,0.008103,-0.019494,0.20316,-0.017871,1.399463,0.080581,0.047277,-0.002757
1624181113461282492,234,1624181113461282492,0.310092,-0.310573,2.235819,0.999735,-0.001251,0.009673,-0.02082,0.209341,-0.054565,1.40281,0.005947,0.07081,-0.000248
1624181113561280012,235,1624181113561280012,0.33499,-0.326059,2.374983,0.999757,-0.001296,0.011367,-0.018816,0.224293,-0.088753,1.38606,-0.051658,0.04703,-0.01229
1624181113661277533,236,1624181113661277533,0.361746,-0.34474,2.517176,0.999795,-0.001095,0.01315,-0.015321,0.234366,-0.128916,1.383886,-0.049406,0.053936,-0.010523
1624181113761275053,237,1624181113761275053,0.382047,-0.350812,2.652313,0.999825,-0.000785,0.013983,-0.012339,0.229765,-0.130998,1.374814,-0.061513,0.04399,0.000601
1624181113861272573,238,1624181113861272573,0.400655,-0.367768,2.787961,0.999858,-0.000583,0.014828,-0.007936,0.219824,-0.143731,1.341608,-0.062135,0.003275,0.000748
1624181113961270332,239,1624181113961270332,0.42898,-0.389559,2.917267,0.999907,-0.000638,0.012844,-0.00436,0.226556,-0.157207,1.256475,-0.062432,-0.10265,0.011229
1624181114061267853,240,1624181114061267853,0.443628,-0.400062,3.042327,0.99998,-0.000239,0.006235,-0.000557,0.219248,-0.146912,1.252404,-0.109828,-0.085,0.002377
1624181114161265373,241,1624181114161265373,0.461638,-0.403669,3.171211,0.999957,-0.000278,0.004062,0.008267,0.225752,-0.114159,1.272794,-0.246109,-0.026716,-0.016184
1624181114261262894,242,1624181114261262894,0.488546,-0.413863,3.292694,0.999881,0.000158,0.00246,0.015198,0.256793,-0.075255,1.263378,-0.119225,-0.019989,0.005986
1624181114361260414,243,1624181114361260414,0.516066,-0.432509,3.424411,0.999777,0.000188,0.002026,0.020978,0.286889,-0.05034,1.285219,-0.069234,0.005831,0.007235
1624181114461258173,244,1624181114461258173,0.53808,-0.413444,3.550413,0.99973,-0.000213,0.001967,0.023143,0.297717,0.049067,1.291787,0.04238,0.029259,-0.003359
1624181114561255693,245,1624181114561255693,0.569155,-0.429064,3.680271,0.999866,-0.000297,0.002635,0.016126,0.315122,0.079046,1.328028,0.258251,0.007849,0.007272
1624181114661253214,246,1624181114661253214,0.596132,-0.415493,3.818658,0.999992,-0.000967,0.002954,0.002275,0.326153,0.110392,1.348381,0.332252,0.000767,0.01049
1624181114761250734,247,1624181114761250734,0.622165,-0.392536,3.954288,0.99994,-0.001569,0.004205,-0.009939,0.333419,0.132464,1.351585,0.15389,0.046944,-0.001578
1624181114861248255,248,1624181114861248255,0.6571,-0.393176,4.096318,0.999749,-0.001581,0.015522,-0.016042,0.354431,0.079168,1.441187,0.081183,0.350467,0.002339
1624181114961246014,249,1624181114961246014,0.692393,-0.395689,4.242981,0.999304,-0.001801,0.033747,-0.015785,0.331944,0.035913,1.501675,-0.01157,0.432437,-0.000187
1624181115061243534,250,1624181115061243534,0.717807,-0.396166,4.397636,0.998598,-0.001752,0.051836,-0.010528,0.248267,0.022877,1.49304,-0.0363,0.304247,0.003393
1624181115161241055,251,1624181115161241055,0.735675,-0.399593,4.536469,0.998288,-0.000939,0.05715,-0.012344,0.154982,0.002168,1.348355,-5.6e-05,-0.167826,0.011467
1624181115261238575,252,1624181115261238575,0.738101,-0.385971,4.657865,0.99884,-0.00068,0.04667,-0.011828,0.055831,0.019146,1.291191,0.00622,-0.259093,0.007851
1624181115361236095,253,1624181115361236095,0.741939,-0.394724,4.790909,0.999425,-0.000587,0.031742,-0.011849,0.000756,-0.015843,1.289785,-0.012613,-0.372626,0.009048
1624181115461233854,254,1624181115461233854,0.736514,-0.395396,4.926263,0.999811,-0.000953,0.015497,-0.01162,-0.03013,-0.024337,1.37237,-0.009142,-0.23484,0.004011
1624181115561231375,255,1624181115561231375,0.734222,-0.407073,5.067844,0.999935,-0.000435,0.005483,-0.009931,-0.010805,-0.059241,1.45095,-0.031566,-0.152206,0.014792
1624181115661228895,256,1624181115661228895,0.733679,-0.415241,5.216734,0.999965,-0.000692,-0.000386,-0.008247,0.023056,-0.068407,1.532098,-0.016048,-0.059969,0.003095
1624181115761226416,257,1624181115761226416,0.737276,-0.424247,5.371472,0.999972,-0.00031,-0.00147,-0.007314,0.061958,-0.074585,1.589442,0.018642,0.013246,-0.010813
1624181115861223936,258,1624181115861223936,0.747147,-0.437382,5.527867,0.999982,-0.000566,-0.000742,-0.00592,0.100744,-0.087251,1.612133,-0.006514,0.034285,0.003311
1624181115961221457,259,1624181115961221457,0.759397,-0.450724,5.686254,0.999991,-0.00058,0.001287,-0.0039,0.136733,-0.097211,1.651758,-0.050475,0.052161,0.000754
1624181116061219215,260,1624181116061219215,0.771901,-0.45547,5.8536,0.999986,-0.000478,0.004697,-0.002365,0.155919,-0.080164,1.707655,0.006696,0.095318,5.1e-05
1624181116161216736,261,1624181116161216736,0.783523,-0.46118,6.028025,0.999974,-0.000809,0.006985,-0.001126,0.169561,-0.07349,1.7475,-0.012554,0.051527,0.003605
1624181116261214256,262,1624181116261214256,0.796296,-0.465867,6.202338,0.999945,-0.001249,0.010194,0.001925,0.171621,-0.054584,1.773119,-0.049435,0.069921,0.01389
1624181116361211777,263,1624181116361211777,0.806426,-0.469045,6.383495,0.999905,-0.001981,0.013123,0.003526,0.161678,-0.035857,1.793119,-0.024922,0.065823,0.007669
1624181116461209297,264,1624181116461209297,0.819144,-0.472651,6.563443,0.999864,-0.002045,0.015801,0.004205,0.15397,-0.015512,1.807872,0.044787,0.084155,0.003766
1624181116561207056,265,1624181116561207056,0.83014,-0.467487,6.73977,0.999846,-0.002016,0.017182,0.002838,0.141331,0.020922,1.778088,0.083119,-0.02675,0.007302
1624181116661204576,266,1624181116661204576,0.841933,-0.462597,6.925767,0.999764,-0.001893,0.021608,-0.000904,0.132703,0.045529,1.832783,0.048545,0.184515,-0.014218
1624181116761202097,267,1624181116761202097,0.850742,-0.457373,7.106403,0.999605,-0.002056,0.027911,-0.002394,0.105363,0.058588,1.788843,0.022522,0.123076,0.022253
1624181116861199617,268,1624181116861199617,0.854942,-0.453791,7.284907,0.999482,-0.002229,0.031926,-0.003153,0.062569,0.056404,1.777909,0.017537,0.126031,0.017732
1624181116961197138,269,1624181116961197138,0.855259,-0.455207,7.468661,0.999256,-0.002158,0.038355,-0.003348,0.010973,0.048332,1.753591,0.00414,0.093108,0.016227
1624181117061194897,270,1624181117061194897,0.849057,-0.453104,7.640998,0.999233,-0.002502,0.038887,-0.003792,-0.057854,0.054856,1.663874,-0.001734,-0.055839,0.005635
1624181117161192417,271,1624181117161192417,0.838778,-0.455342,7.809748,0.999444,-0.00266,0.033082,-0.00297,-0.112222,0.043505,1.624051,-0.009821,-0.157954,0.01315
1624181117261189938,272,1624181117261189938,0.826051,-0.445443,7.967906,0.999762,-0.002504,0.021297,-0.003907,-0.136641,0.068169,1.562332,0.011293,-0.281767,-0.007258
1624181117361187458,273,1624181117361187458,0.814231,-0.444591,8.122611,0.999928,-0.00242,0.010992,-0.003989,-0.130723,0.058646,1.575644,0.058878,-0.171342,-0.008699
1624181117461184978,274,1624181117461184978,0.801781,-0.447415,8.274675,0.999985,-0.002487,0.00373,-0.003054,-0.110298,0.050818,1.570598,0.044137,-0.086528,-0.00332
1624181117561182737,275,1624181117561182737,0.790539,-0.445424,8.432863,0.999989,-0.002523,0.001329,-0.003468,-0.083296,0.039369,1.605859,0.028306,-0.012041,0.000771
1624181117661180258,276,1624181117661180258,0.778549,-0.43487,8.592443,0.999991,-0.002704,0.00078,-0.002913,-0.06215,0.052982,1.628327,-0.007254,0.030401,0.013621
1624181117761177778,277,1624181117761177778,0.773375,-0.426508,8.753165,0.999989,-0.002944,0.001968,-0.003035,-0.030591,0.071692,1.640065,0.049532,0.027579,0.006222
1624181117861175299,278,1624181117861175299,0.761685,-0.426017,8.916053,0.999952,-0.002597,0.003561,-0.008655,-0.017944,0.072753,1.659306,0.217542,0.043608,0.016153
1624181117961172819,279,1624181117961172819,0.760536,-0.420498,9.086687,0.999706,-0.0025,0.005477,-0.02347,0.001525,0.056212,1.670788,0.311983,0.027354,0.021595
1624181118061170578,280,1624181118061170578,0.753207,-0.414654,9.252344,0.999348,-0.002819,0.006466,-0.035403,0.002378,0.003407,1.668736,0.118634,0.025861,0.013905
1624181118161168098,281,1624181118161168098,0.752459,-0.418913,9.428938,0.999154,-0.001898,0.00828,-0.040215,0.013273,-0.060187,1.716281,0.14868,0.065038,0.004981
1624181118261165619,282,1624181118261165619,0.744873,-0.427789,9.600677,0.998668,-0.00268,0.00993,-0.05055,0.000721,-0.137377,1.72783,0.203948,0.010785,0.010116
1624181118361163139,283,1624181118361163139,0.744058,-0.446173,9.776313,0.998305,-0.002213,0.010566,-0.057187,0.006327,-0.233798,1.754118,0.195534,0.038429,0.000198
1624181118461160660,284,1624181118461160660,0.744483,-0.470025,9.951018,0.997966,-0.00283,0.010533,-0.0628,0.014055,-0.337037,1.76314,0.151039,-0.011708,0.018283
1624181118561158180,285,1624181118561158180,0.747142,-0.504162,10.125775,0.997595,-0.003035,0.009958,-0.068523,0.024718,-0.448918,1.784663,0.073921,0.027098,0.00275
1624181118661155939,286,1624181118661155939,0.750636,-0.555132,10.303313,0.997501,-0.00309,0.009913,-0.069879,0.034683,-0.574665,1.788479,-0.007011,-0.024439,0.002717
1624181118761153460,287,1624181118761153460,0.755663,-0.618109,10.4792,0.997573,-0.00377,0.00994,-0.068802,0.043046,-0.69519,1.796455,0.013077,-0.016195,-0.000192
1624181118861150980,288,1624181118861150980,0.759983,-0.692564,10.653072,0.997437,-0.004105,0.010882,-0.070585,0.051189,-0.805487,1.774647,0.053434,-0.004874,0.002958
1624181118961148500,289,1624181118961148500,0.764992,-0.776955,10.833552,0.997188,-0.003761,0.010151,-0.074144,0.056127,-0.922213,1.756791,0.113274,-0.005107,0.012514
1624181119061146021,290,1624181119061146021,0.767936,-0.874979,11.009797,0.996748,-0.003962,0.008679,-0.080011,0.060926,-1.047235,1.727113,0.107491,-0.01015,0.013478
1624181119161143780,291,1624181119161143780,0.77479,-0.997387,11.18444,0.996354,-0.004054,0.008976,-0.084739,0.069869,-1.206525,1.695888,0.088343,0.002297,0.006861
1624181119261141300,292,1624181119261141300,0.782576,-1.133004,11.347886,0.996349,-0.003952,0.009507,-0.084743,0.0813,-1.364895,1.62969,0.027314,0.014101,0.010225
1624181119361138821,293,1624181119361138821,0.790056,-1.280693,11.506532,0.996165,-0.004594,0.011317,-0.086627,0.088308,-1.508243,1.565275,0.065933,0.011433,0.010975
1624181119461136341,294,1624181119461136341,0.797111,-1.43624,11.665124,0.995819,-0.004502,0.011048,-0.09056,0.088553,-1.648294,1.530907,0.05509,0.014465,0.009501
1624181119561133862,295,1624181119561133862,0.808456,-1.614949,11.818661,0.995865,-0.004606,0.011826,-0.089945,0.098878,-1.810748,1.513037,-0.100991,0.005989,0.005032
1624181119661131620,296,1624181119661131620,0.813825,-1.80537,11.963308,0.996639,-0.004579,0.012268,-0.080856,0.09757,-1.956264,1.485687,-0.184058,-0.008182,0.004817
1624181119761129141,297,1624181119761129141,0.820814,-2.015288,12.110673,0.997072,-0.004521,0.011839,-0.075397,0.09827,-2.092277,1.508043,-0.136407,-0.000492,-0.002373
1624181119861126661,298,1624181119861126661,0.828545,-2.228992,12.264094,0.997088,-0.004541,0.012712,-0.075052,0.098264,-2.200031,1.562116,-0.004776,0.031963,0.004399
1624181119961124182,299,1624181119961124182,0.833047,-2.455599,12.419634,0.9972,-0.004812,0.013324,-0.073418,0.090687,-2.308941,1.576896,-0.005156,0.024642,0.000835
1624181120061121702,300,1624181120061121702,0.84361,-2.696723,12.579345,0.997517,-0.004625,0.011728,-0.069274,0.097623,-2.421773,1.604887,-0.125769,-0.022723,0.003021
1624181120161119461,301,1624181120161119461,0.855111,-2.937897,12.743128,0.997882,-0.00423,0.010566,-0.064038,0.112956,-2.502502,1.651238,-0.122826,-0.010829,-0.008937
1624181120261116982,302,1624181120261116982,0.865798,-3.198257,12.90725,0.998507,-0.00375,0.009467,-0.053662,0.121337,-2.596993,1.691002,-0.102189,0.014614,-0.005795
1624181120361114502,303,1624181120361114502,0.884299,-3.457776,13.073942,0.998624,-0.00346,0.009313,-0.051487,0.151617,-2.650473,1.71771,0.006558,0.019275,-0.021308
1624181120461112022,304,1624181120461112022,0.896836,-3.728775,13.247245,0.998726,-0.003186,0.008426,-0.049638,0.163826,-2.709359,1.72611,0.006895,-0.001299,-0.002775
1624181120561109543,305,1624181120561109543,0.902786,-4.007626,13.416095,0.998833,-0.003954,0.007795,-0.047479,0.162033,-2.765656,1.728343,-0.024142,-0.010499,-0.00296
1624181120661107302,306,1624181120661107302,0.915088,-4.283903,13.586779,0.998919,-0.004714,0.008115,-0.045508,0.176288,-2.804049,1.727792,-0.030346,0.031281,0.026114
1624181120761104822,307,1624181120761104822,0.934856,-4.568678,13.763674,0.998938,-0.005056,0.009177,-0.044846,0.195656,-2.848865,1.753386,0.02717,0.051499,0.020879
1624181120861102343,308,1624181120861102343,0.957342,-4.863629,13.938707,0.998937,-0.005507,0.010343,-0.044566,0.215727,-2.901876,1.757212,-0.016969,-0.008667,0.011697
1624181120961099863,309,1624181120961099863,0.973905,-5.158693,14.114646,0.998992,-0.005872,0.011632,-0.042937,0.219579,-2.935738,1.744631,-0.022341,0.022886,0.00081
1624181121061097383,310,1624181121061097383,0.999807,-5.45927,14.286115,0.99916,-0.005687,0.012919,-0.038459,0.239617,-2.981947,1.73423,-0.042392,0.049289,-0.00081
1624181121161094904,311,1624181121161094904,1.026518,-5.749475,14.455372,0.999189,-0.005959,0.014037,-0.037241,0.250116,-2.973713,1.640206,0.017592,0.033063,-0.002447
1624181121261092663,312,1624181121261092663,1.047179,-6.048458,14.615232,0.999244,-0.005928,0.014986,-0.035355,0.241165,-2.996181,1.565981,-0.080101,0.038927,-0.011698
1624181121361090183,313,1624181121361090183,1.072097,-6.353743,14.768314,0.999457,-0.006053,0.015796,-0.028252,0.241152,-3.014417,1.511749,-0.16671,0.038059,0.006463
1624181121461087704,314,1624181121461087704,1.094856,-6.658059,14.915043,0.999614,-0.005876,0.017435,-0.020781,0.235711,-3.010684,1.464708,-0.148636,0.085435,-0.00814
1624181121561085224,315,1624181121561085224,1.119397,-6.970139,15.056331,0.999678,-0.005501,0.020709,-0.013548,0.225643,-3.013064,1.421837,-0.137337,0.064468,-0.011116
1624181121661082745,316,1624181121661082745,1.140403,-7.260763,15.196429,0.999764,-0.005648,0.020501,-0.004214,0.210399,-2.952898,1.403477,-0.080479,0.039761,-0.014681
1624181121761080503,317,1624181121761080503,1.157877,-7.550425,15.334973,0.999764,-0.005728,0.020902,-0.001001,0.188961,-2.903021,1.370747,-0.013722,-0.023676,0.000991
1624181121861078024,318,1624181121861078024,1.171902,-7.83881,15.467427,0.999722,-0.00607,0.022607,0.002775,0.171757,-2.852251,1.326036,-0.107284,0.063231,-0.005185
1624181121961075544,319,1624181121961075544,1.194304,-8.112562,15.600127,0.999643,-0.005307,0.025484,0.005922,0.165243,-2.779368,1.304872,-0.098447,0.071729,0.003192
1624181122061073065,320,1624181122061073065,1.208858,-8.404801,15.726949,0.999526,-0.005088,0.028292,0.010964,0.136754,-2.745194,1.276969,-0.10985,0.049567,0.002784
1624181122161070585,321,1624181122161070585,1.219142,-8.676113,15.849841,0.999435,-0.005515,0.028814,0.016365,0.105359,-2.657621,1.232174,-0.004881,-0.018897,0.000802
1624181122261068344,322,1624181122261068344,1.232028,-8.941268,15.971336,0.99942,-0.005195,0.028956,0.017098,0.08116,-2.584282,1.233624,-0.014374,-0.029822,0.006362
1624181122361065865,323,1624181122361065865,1.232765,-9.19806,16.092242,0.999456,-0.005263,0.027657,0.017176,0.045204,-2.500748,1.244644,0.039832,-0.005816,0.005568
1624181122461063385,324,1624181122461063385,1.232677,-9.449183,16.223243,0.999483,-0.005347,0.027444,0.015849,0.011312,-2.435688,1.266674,0.041925,0.002162,0.005114
1624181122561060905,325,1624181122561060905,1.231069,-9.690335,16.34877,0.999486,-0.005505,0.028174,0.01424,-0.012428,-2.357861,1.271253,0.040264,-0.039669,-0.012724
1624181122661058426,326,1624181122661058426,1.227353,-9.935506,16.478916,0.999515,-0.005081,0.028426,0.01159,-0.037726,-2.316708,1.28954,0.063959,0.001102,0.0019
1624181122761056185,327,1624181122761056185,1.212072,-10.149828,16.603306,0.99958,-0.005569,0.026868,0.009307,-0.090039,-2.215969,1.257694,0.060674,-0.039419,-0.00746
1624181122861053705,328,1624181122861053705,1.199115,-10.363957,16.731347,0.999717,-0.005323,0.022023,0.007173,-0.11242,-2.147405,1.275759,0.117677,-0.077608,-0.008096
1624181122961051226,329,1624181122961051226,1.184435,-10.568644,16.85825,0.999803,-0.004988,0.018991,0.002718,-0.127778,-2.073001,1.264643,0.12934,-0.080435,-0.001177
1624181123061048746,330,1624181123061048746,1.163589,-10.782401,16.97987,0.999829,-0.005194,0.017376,-0.003581,-0.151464,-2.061893,1.24289,0.050562,-0.031546,-0.00142
1624181123161046267,331,1624181123161046267,1.140378,-10.988347,17.097827,0.999844,-0.005555,0.015168,-0.007118,-0.158698,-2.029468,1.209681,0.194385,-0.041262,0.010356
1624181123261044025,332,1624181123261044025,1.125487,-11.186903,17.216702,0.999802,-0.005755,0.014639,-0.012132,-0.151153,-2.007266,1.214197,0.136404,0.026163,0.01326
1624181123361041546,333,1624181123361041546,1.113739,-11.393371,17.338875,0.999706,-0.00592,0.014563,-0.018446,-0.138527,-2.00999,1.204434,0.170632,0.031235,0.010183
1624181123461039066,334,1624181123461039066,1.099273,-11.579223,17.461315,0.999613,-0.006441,0.014877,-0.022583,-0.135306,-1.97778,1.161745,0.037594,-0.008761,0.003845
1624181123561036587,335,1624181123561036587,1.088975,-11.785263,17.573785,0.999552,-0.006865,0.016284,-0.024146,-0.121446,-1.993677,1.07651,0.044192,0.010469,-0.004265
1624181123661034107,336,1624181123661034107,1.079445,-11.98639,17.674243,0.999519,-0.00658,0.0177,-0.024565,-0.109178,-1.997242,1.024636,0.018207,0.010539,-0.011291
1624181123761031866,337,1624181123761031866,1.072163,-12.183505,17.771551,0.999514,-0.006364,0.019505,-0.023445,-0.092274,-2.000866,0.990045,-0.05105,0.044424,-0.007089
1624181123861029387,338,1624181123861029387,1.059181,-12.386684,17.867182,0.999631,-0.006013,0.019114,-0.018319,-0.106912,-2.001626,0.934754,-0.000913,-0.078248,-0.008365
1624181123961026907,339,1624181123961026907,1.05218,-12.6019,17.964877,0.999884,-0.005539,0.006631,-0.012538,-0.116334,-2.031625,0.885356,-0.160583,-0.351394,-0.009025
1624181124061024427,340,1624181124061024427,1.0384,-12.799677,18.053787,0.999855,-0.005416,-0.016092,-0.001038,-0.099107,-1.987993,0.870451,-0.196783,-0.526668,-0.012005
1624181124161021948,341,1624181124161021948,1.035425,-12.994117,18.150518,0.999139,-0.004709,-0.040368,0.00831,-0.007062,-1.935041,0.937966,-0.22897,-0.420586,0.002732
1624181124261019468,342,1624181124261019468,1.04283,-13.185727,18.24714,0.998066,-0.004316,-0.05983,0.016294,0.142615,-1.861096,1.008812,-0.15249,-0.233934,-0.000847
1624181124361017227,343,1624181124361017227,1.067135,-13.374257,18.348082,0.99798,-0.004088,-0.059829,0.020942,0.355697,-1.785589,1.171467,0.017142,0.395956,0.015242
1624181124461014748,344,1624181124461014748,1.106286,-13.544681,18.464684,0.998998,-0.004641,-0.039956,0.019599,0.487077,-1.692511,1.224522,0.068907,0.555671,0.028635
1624181124561012268,345,1624181124561012268,1.157182,-13.714025,18.589702,0.999717,-0.005994,-0.016046,0.016455,0.546245,-1.622501,1.210149,0.054224,0.377865,0.019238
1624181124661009789,346,1624181124661009789,1.2065,-13.855926,18.706732,0.999898,-0.007017,0.002021,0.012203,0.559487,-1.517489,1.179142,0.117324,0.280625,0.024316
1624181124761007309,347,1624181124761007309,1.260677,-14.008235,18.821225,0.999868,-0.007411,0.014148,0.002829,0.550556,-1.457813,1.146652,0.289431,0.199422,0.022509
1624181124861005068,348,1624181124861005068,1.311486,-14.155104,18.9379,0.999686,-0.007529,0.021796,-0.009769,0.525714,-1.431381,1.113596,0.259435,0.08193,0.020381
1624181124961002588,349,1624181124961002588,1.364245,-14.302933,19.052513,0.999155,-0.007548,0.025478,-0.03134,0.504597,-1.432601,1.115286,0.495788,0.085533,0.03383
1624181125061000109,350,1624181125061000109,1.408922,-14.447667,19.167937,0.998224,-0.00788,0.026318,-0.052845,0.464087,-1.480088,1.116604,0.389248,0.011253,0.041112
1624181125160997629,351,1624181125160997629,1.451053,-14.604294,19.286636,0.997049,-0.008787,0.027044,-0.071305,0.427799,-1.569764,1.131485,0.340246,0.004964,0.026332
1624181125260995150,352,1624181125260995150,1.491646,-14.767145,19.401345,0.995981,-0.008616,0.026432,-0.085131,0.39007,-1.691495,1.133508,0.210347,0.013651,0.027305
1624181125360992908,353,1624181125360992908,1.526317,-14.933806,19.511569,0.995252,-0.009155,0.025425,-0.093499,0.357196,-1.807549,1.115644,0.16272,-0.015662,0.010966
1624181125460990429,354,1624181125460990429,1.564523,-15.130422,19.619581,0.994415,-0.009709,0.024879,-0.102098,0.340147,-1.984871,1.105212,0.190762,-0.002939,0.015172
1624181125560987949,355,1624181125560987949,1.594892,-15.328103,19.732072,0.993653,-0.010205,0.024462,-0.109312,0.304846,-2.134009,1.11227,0.301838,0.010557,0.025304
1624181125660985470,356,1624181125660985470,1.620105,-15.549381,19.843962,0.991146,-0.010208,0.02469,-0.130058,0.262256,-2.315606,1.110182,0.421273,0.011266,0.020967
1624181125760982990,357,1624181125760982990,1.64234,-15.796034,19.955404,0.989154,-0.010733,0.024452,-0.144429,0.218325,-2.56641,1.092962,0.074151,0.01875,0.015091
1624181125860980749,358,1624181125860980749,1.671194,-16.069645,20.066,0.98893,-0.009919,0.024662,-0.145975,0.205938,-2.820482,1.098601,-0.025128,0.00941,-0.002357
1624181125960978270,359,1624181125960978270,1.686645,-16.373719,20.174521,0.98996,-0.009338,0.024356,-0.138918,0.164147,-3.086553,1.098904,-0.205527,-0.018888,-0.009613
