time,field.header.seq,field.header.stamp,field.pose.pose.position.x,field.pose.pose.position.y,field.pose.pose.position.z,field.pose.pose.orientation.x,field.pose.pose.orientation.y,field.pose.pose.orientation.z,field.pose.pose.orientation.w,field.twist.twist.linear.x,field.twist.twist.linear.y,field.twist.twist.linear.z,field.twist.twist.angular.x,field.twist.twist.angular.y,field.twist.twist.angular.z
1624180455210554600,3,1624180455210554600,-0.004325,-0.005544,0.009331,0.999995,-0.000403,0.002405,-0.001854,0.009205,0.009198,0.001755,0.011524,2.8e-05,0.003952
1624180455310552835,4,1624180455310552835,-0.000837,-0.004593,0.009473,0.999995,-0.000382,0.002472,-0.001864,0.013268,0.007415,0.001634,0.009321,0.001262,0.005705
1624180455410551071,5,1624180455410551071,0.002308,-0.003389,0.007564,0.999994,-0.000403,0.00244,-0.00222,0.016745,0.006598,-0.00192,0.011751,-0.003223,0.003808
1624180455510549307,6,1624180455510549307,0.005574,-0.003545,0.008797,0.999994,-0.000422,0.002528,-0.002,0.018765,0.004126,0.001614,0.009796,-0.00126,0.00361
1624180455610547543,7,1624180455610547543,0.000256,-0.005793,0.009059,0.999996,-0.000582,0.002442,-0.001286,0.006487,1e-05,0.002666,0.008095,0.00017,0.004149
1624180455710545778,8,1624180455710545778,-0.003504,-0.007283,0.010605,0.999995,-0.000589,0.002339,-0.001524,-0.000721,-0.004711,0.006692,0.010865,-0.000886,0.003275
1624180455810544014,9,1624180455810544014,0.000649,-0.008149,0.011281,0.999994,-0.000539,0.002525,-0.001932,0.004141,-0.009912,0.007694,0.008359,-0.001313,0.004411
1624180455910542250,10,1624180455910542250,0.00202,-0.005536,0.010599,0.999995,-0.000203,0.002458,-0.001799,0.00381,-0.003722,0.005354,0.010501,-0.000476,0.004383
1624180456010540724,11,1624180456010540724,0.003173,-0.004591,0.011242,0.999994,-0.000257,0.002502,-0.002038,0.003805,-0.000347,0.006716,0.013525,-0.001646,0.003173
1624180456110538960,12,1624180456110538960,0.005715,-0.005376,0.011892,0.999995,-0.00021,0.00248,-0.001905,0.006209,-0.003227,0.007671,0.012379,0.000202,0.004671
1624180456210537195,13,1624180456210537195,0.000246,-0.007428,0.013167,0.999994,-0.000424,0.002545,-0.001876,-0.003917,-0.005585,0.010359,0.014849,-2.1e-05,0.00306
1624180456310535431,14,1624180456310535431,-0.002919,-0.009919,0.013874,0.999995,-0.000742,0.002485,-0.001795,-0.009118,-0.008725,0.010841,0.012423,-0.002239,0.004009
1624180456410533667,15,1624180456410533667,-0.004178,-0.010954,0.012996,0.999995,-0.000677,0.002378,-0.001732,-0.01043,-0.009837,0.008684,0.01657,0.002416,0.002496
1624180456510531902,16,1624180456510531902,-0.003641,-0.012427,0.013354,0.999995,-0.000655,0.002456,-0.001827,-0.009168,-0.013323,0.008882,0.00949,0.001431,0.005104
1624180456610530138,17,1624180456610530138,-0.001868,-0.011937,0.012879,0.999994,-0.000414,0.002442,-0.002099,-0.005853,-0.010963,0.00622,0.012068,-0.001732,0.003243
1624180456710528374,18,1624180456710528374,0.000778,-0.010634,0.010991,0.999995,-0.000578,0.002413,-0.001883,-0.00139,-0.005779,0.001397,0.014427,-0.001621,0.002422
1624180456810526609,19,1624180456810526609,0.005076,-0.009165,0.011521,0.999994,-0.000377,0.002345,-0.002101,0.004567,-0.003601,0.003229,0.008833,0.001712,0.005684
1624180456910524845,20,1624180456910524845,0.007918,-0.010019,0.011346,0.999995,-0.000376,0.002365,-0.001679,0.007311,-0.005002,0.004103,0.011692,-0.003044,0.003754
1624180457010523081,21,1624180457010523081,0.001538,-0.009921,0.011268,0.999995,-0.000433,0.002403,-0.001487,-0.003451,-0.002316,0.003054,0.008696,0.001279,0.004209
1624180457110521317,22,1624180457110521317,0.000276,-0.00842,0.008467,0.999995,-0.000635,0.002377,-0.001705,-0.006062,0.000149,-0.002559,0.012621,-0.000673,0.003854
1624180457210519791,23,1624180457210519791,-0.001263,-0.006527,0.009529,0.999996,-0.000526,0.002344,-0.001455,-0.00808,0.005005,0.001901,0.014178,-0.003396,0.003684
1624180457310518026,24,1624180457310518026,0.004074,-0.0029,0.012488,0.999994,-0.000284,0.002444,-0.002319,0.000165,0.007304,0.008553,0.012135,-0.000665,0.003853
1624180457410516262,25,1624180457410516262,0.00489,-0.004045,0.011229,0.999995,-0.000345,0.00232,-0.002014,0.000613,0.003657,0.004628,0.014118,-0.001916,0.003318
1624180457510514498,26,1624180457510514498,0.00045,-0.005044,0.010055,0.999995,-0.000328,0.002365,-0.001809,-0.007439,0.001674,0.003313,0.014048,-0.000764,0.001851
1624180457610512733,27,1624180457610512733,-0.002225,-0.005278,0.010868,0.999995,-0.000309,0.002468,-0.00174,-0.011924,0.000136,0.005209,0.009428,-0.001287,0.003441
1624180457710510969,28,1624180457710510969,-0.002883,-0.006364,0.011036,0.999995,-0.000319,0.002392,-0.001799,-0.010812,-0.002582,0.00602,0.011633,-0.001463,0.003945
1624180457810509205,29,1624180457810509205,-0.009003,-0.008331,0.011508,0.999995,-0.000582,0.002483,-0.001831,-0.019674,-0.00596,0.006683,0.01324,-0.002125,0.003748
1624180457910507441,30,1624180457910507441,-0.005934,-0.006801,0.011224,0.999996,-0.000478,0.002263,-0.001378,-0.012945,-0.000491,0.006576,0.015254,-0.001936,0.002624
1624180458010505676,31,1624180458010505676,-0.002479,-0.004105,0.011145,0.999995,-0.000359,0.002372,-0.00155,-0.006362,0.00403,0.005515,0.013589,-0.000795,0.002746
1624180458110503912,32,1624180458110503912,-7.4e-05,0.000192,0.009534,0.999995,-0.000193,0.002297,-0.002035,-0.001762,0.01009,0.001815,0.011159,-0.001965,0.003051
1624180458210502148,33,1624180458210502148,0.001609,-0.001398,0.008844,0.999994,-0.00026,0.002373,-0.002137,0.000502,0.003495,0.000886,0.013051,0.000454,0.004392
1624180458310500383,34,1624180458310500383,0.001919,-0.00343,0.009608,0.999995,-0.000342,0.002329,-0.001843,0.000626,-0.000997,0.003855,0.014971,-0.00177,0.002284
1624180458410498619,35,1624180458410498619,0.002267,-0.003447,0.009214,0.999996,-0.000411,0.002142,-0.001221,0.00064,-0.000957,0.003938,0.013511,-0.002226,0.003745
1624180458510497093,36,1624180458510497093,0.001968,-0.003699,0.008211,0.999996,-0.000343,0.002344,-0.001386,-0.000727,-0.002368,0.001489,0.011828,-0.00029,0.003853
1624180458610495329,37,1624180458610495329,0.002509,-0.005792,0.009471,0.999995,-0.000308,0.002382,-0.001593,-0.000946,-0.009055,0.005477,0.011249,0.001488,0.00303
1624180458710493565,38,1624180458710493565,-0.001349,-0.008167,0.010064,0.999996,-0.000455,0.002293,-0.001356,-0.007266,-0.011516,0.007422,0.012406,-0.002688,0.003516
1624180458810491800,39,1624180458810491800,-0.00086,-0.007263,0.010732,0.999996,-0.000466,0.002202,-0.001398,-0.005476,-0.006711,0.008532,0.015985,-0.001257,0.002313
1624180458910490036,40,1624180458910490036,-0.005676,-0.008355,0.011463,0.999996,-0.000394,0.002322,-0.00146,-0.013571,-0.008314,0.010195,0.014304,-0.000378,0.002604
1624180459010488272,41,1624180459010488272,-0.00435,-0.006188,0.011164,0.999996,-0.000438,0.002285,-0.001333,-0.009911,-0.002232,0.008487,0.012717,-0.00094,0.003081
1624180459110486507,42,1624180459110486507,-0.007993,-0.007158,0.011331,0.999995,-0.000487,0.002341,-0.001629,-0.014581,-0.003688,0.007496,0.009509,-0.002077,0.005244
1624180459210484743,43,1624180459210484743,-0.008819,-0.00787,0.010558,0.999995,-0.00063,0.00229,-0.001559,-0.013646,-0.003355,0.005951,0.016158,-0.001786,0.003616
1624180459310482979,44,1624180459310482979,-0.007936,-0.007406,0.010088,0.999996,-0.000589,0.002273,-0.00144,-0.009793,-0.002465,0.004711,0.010514,-0.00135,0.004834
1624180459410481215,45,1624180459410481215,-0.007076,-0.004104,0.00863,0.999995,-0.000458,0.002282,-0.002106,-0.007572,0.002188,0.001652,0.013516,-8.9e-05,0.003568
1624180459510479450,46,1624180459510479450,-0.007008,-0.003131,0.00819,0.999995,-0.000474,0.002261,-0.001883,-0.006575,0.003468,0.001826,0.015293,-0.00243,0.003235
1624180459610477686,47,1624180459610477686,-0.002945,-0.00091,0.009229,0.999994,-0.000243,0.002349,-0.002331,-0.002015,0.003908,0.004479,0.013902,-0.002555,0.003584
1624180459710476160,48,1624180459710476160,-0.001956,0.000592,0.009566,0.999995,-0.000136,0.002287,-0.001911,0.000855,0.006449,0.006111,0.015319,-0.001316,0.001941
1624180459810474396,49,1624180459810474396,0.007702,0.002428,0.009867,0.999995,-7.7e-05,0.002265,-0.001919,0.017034,0.00801,0.005639,0.009263,-0.000344,0.00451
1624180459910472631,50,1624180459910472631,0.008731,-0.000818,0.011092,0.999994,-0.000261,0.002484,-0.002171,0.014621,-0.002909,0.008323,0.012017,-0.002346,0.003706
1624180460010470867,51,1624180460010470867,0.005675,-0.002376,0.011006,0.999994,-0.000427,0.002509,-0.002313,0.006211,-0.007423,0.007601,0.015408,-0.001116,0.003069
1624180460110469103,52,1624180460110469103,0.007714,-0.005256,0.012394,0.999995,-0.000255,0.002498,-0.001899,0.008981,-0.010953,0.010236,0.013466,-0.000941,0.002784
1624180460210467339,53,1624180460210467339,0.004248,-0.009777,0.012193,0.999994,-0.000554,0.002533,-0.001992,0.000531,-0.01888,0.009941,0.010802,-0.001258,0.002293
1624180460310465574,54,1624180460310465574,0.002215,-0.010256,0.010826,0.999995,-0.000631,0.002419,-0.001741,-0.003413,-0.015432,0.005557,0.013095,-1.8e-05,0.00311
1624180460410463810,55,1624180460410463810,8e-05,-0.011035,0.010177,0.999995,-0.000292,0.002429,-0.001991,-0.008071,-0.015183,0.004764,0.012949,0.00053,0.004451
1624180460510462046,56,1624180460510462046,0.003411,-0.011538,0.011157,0.999995,-0.00042,0.002405,-0.001884,-0.001479,-0.014013,0.006889,0.014426,-0.003331,0.002351
1624180460610460281,57,1624180460610460281,0.007539,-0.010741,0.010382,0.999995,-0.000259,0.002394,-0.001568,0.004575,-0.008497,0.003665,0.011986,-0.001901,0.004558
1624180460710458517,58,1624180460710458517,0.008779,-0.010394,0.010205,0.999995,-0.000408,0.00248,-0.001742,0.006019,-0.007633,0.003456,0.010495,0.000205,0.003925
1624180460810456753,59,1624180460810456753,0.007739,-0.00776,0.010637,0.999995,-0.000306,0.002344,-0.001571,0.002358,0.000335,0.00559,0.012566,-0.000834,0.003069
1624180460910454988,60,1624180460910454988,0.007098,-0.008436,0.009922,0.999995,-0.000412,0.002444,-0.001687,0.000214,-0.000522,0.003751,0.015023,5e-05,0.001852
1624180461010453463,61,1624180461010453463,0.008992,-0.005026,0.010868,0.999995,-0.00042,0.002406,-0.001823,0.001507,0.005757,0.005818,0.01523,-0.000805,0.00336
1624180461110451698,62,1624180461110451698,0.006012,-0.00542,0.011776,0.999995,-0.000515,0.002409,-0.001917,-0.004244,0.002163,0.007583,0.010029,-0.00218,0.004372
1624180461210449934,63,1624180461210449934,0.000669,-0.005625,0.011016,0.999995,-0.000403,0.002317,-0.002047,-0.012938,-0.000149,0.005875,0.013315,-0.000574,0.003742
1624180461310448170,64,1624180461310448170,-0.00174,-0.005176,0.011163,0.999995,-0.000514,0.002373,-0.001847,-0.015731,0.000704,0.006238,0.015068,-0.001646,0.003541
1624180461410446405,65,1624180461410446405,-0.007523,-0.005193,0.011222,0.999994,-0.000608,0.002416,-0.002051,-0.023392,-0.000937,0.007196,0.013178,-0.002504,0.003249
1624180461510444641,66,1624180461510444641,-9.1e-05,-0.003807,0.010266,0.999993,-0.000494,0.002432,-0.002461,-0.008507,-0.000964,0.004194,0.015279,0.001133,0.002984
1624180461610442877,67,1624180461610442877,-0.000808,-0.004366,0.010305,0.999994,-0.000438,0.002417,-0.002017,-0.008728,-0.002536,0.004981,0.009587,-0.000589,0.003989
1624180461710441113,68,1624180461710441113,-0.002321,-0.007331,0.01202,0.999995,-0.000422,0.002463,-0.001923,-0.010552,-0.0085,0.008189,0.012132,-0.00222,0.003967
1624180461810439348,69,1624180461810439348,0.000418,-0.005421,0.010637,0.999994,-0.000373,0.002402,-0.002268,-0.005864,-0.00538,0.004141,0.010944,-0.00051,0.00502
1624180461910437584,70,1624180461910437584,-0.001866,-0.002696,0.009635,0.999994,-0.000279,0.002308,-0.002267,-0.009815,-1.2e-05,0.001961,0.013007,0.000366,0.003271
1624180462010435820,71,1624180462010435820,-0.004812,-0.003753,0.009503,0.999994,-0.000409,0.002537,-0.002146,-0.014213,-0.002148,0.002658,0.013483,-0.000428,0.002701
1624180462110434055,72,1624180462110434055,-0.007888,-0.003375,0.009109,0.999995,-0.000439,0.002207,-0.001957,-0.016233,-0.001767,0.002653,0.012786,-0.001194,0.003287
1624180462210432529,73,1624180462210432529,-0.009231,-0.004283,0.007666,0.999995,-0.000621,0.002282,-0.001784,-0.016184,-0.003523,0.000289,0.016346,-0.001209,0.002408
1624180462310430765,74,1624180462310430765,-0.00798,-0.006966,0.008097,0.999995,-0.000471,0.002289,-0.001665,-0.011389,-0.009925,0.002417,0.012747,-0.001822,0.003659
1624180462410429001,75,1624180462410429001,-0.008552,-0.005331,0.007828,0.999996,-0.000293,0.002273,-0.001631,-0.010961,-0.006299,0.002392,0.010614,-0.000321,0.004401
1624180462510427237,76,1624180462510427237,-0.009003,-0.005423,0.008096,0.999994,-0.00054,0.002405,-0.002123,-0.009838,-0.00666,0.002365,0.01077,-0.001534,0.004177
1624180462610425472,77,1624180462610425472,-0.005988,-0.004984,0.006473,0.999995,-0.000555,0.002371,-0.001894,-0.003813,-0.003765,-0.001257,0.016236,0.001306,0.002041
1624180462710423708,78,1624180462710423708,-0.008057,-0.00447,0.006368,0.999995,-0.00053,0.002253,-0.001694,-0.006093,-0.00182,-0.000421,0.01353,-0.000365,0.003249
1624180462810421944,79,1624180462810421944,-0.0068,-0.005915,0.006248,0.999995,-0.000585,0.002364,-0.00184,-0.003192,-0.006287,-0.000772,0.011331,-0.001741,0.003951
1624180462910420179,80,1624180462910420179,-0.000324,-0.006369,0.005369,0.999994,-0.000407,0.002498,-0.00196,0.00783,-0.007422,-0.00343,0.012426,-0.002704,0.002814
1624180463010418415,81,1624180463010418415,-0.000787,-0.008086,0.003736,0.999995,-0.000477,0.002459,-0.001732,0.005603,-0.008852,-0.006942,0.01562,-0.002407,0.002969
1624180463110416651,82,1624180463110416651,-0.004527,-0.007758,0.005029,0.999995,-0.000539,0.002475,-0.001624,-0.001861,-0.005725,-0.002273,0.014542,-0.000147,0.002239
1624180463210414886,83,1624180463210414886,0.000122,-0.005491,0.006455,0.999995,-0.000308,0.002367,-0.001731,0.004956,-0.0012,0.000533,0.011879,-0.002029,0.002859
1624180463310413122,84,1624180463310413122,-0.003195,-0.008184,0.005332,0.999995,-0.000515,0.002399,-0.001418,-0.001498,-0.006501,-0.002632,0.015477,-0.001391,0.00307
1624180463410411596,85,1624180463410411596,-0.000553,-0.006482,0.005452,0.999996,-0.000323,0.002285,-0.001057,0.003278,-0.001093,-0.002003,0.01407,0.000519,0.00299
1624180463510409832,86,1624180463510409832,-0.000481,-0.005563,0.003183,0.999996,-0.0004,0.002386,-0.00111,0.002154,0.000915,-0.006898,0.014896,-0.000769,0.002447
1624180463610408068,87,1624180463610408068,-0.002346,-0.003612,0.004776,0.999996,-0.000486,0.002361,-0.001436,-0.001067,0.004665,-0.002979,0.01254,-0.000697,0.00333
1624180463710406303,88,1624180463710406303,-0.002214,-0.003031,0.005983,0.999996,-0.000223,0.002406,-0.001403,-0.002362,0.004013,0.000219,0.011191,-0.000339,0.00487
1624180463810404539,89,1624180463810404539,-0.005154,-0.005358,0.005194,0.999996,-0.00047,0.002407,-0.001273,-0.005534,-0.001218,-0.002172,0.013109,-0.002972,0.003174
1624180463910402775,90,1624180463910402775,-0.00445,-0.004057,0.004367,0.999995,-0.000471,0.002473,-0.001513,-0.004602,0.001526,-0.004358,0.015324,0.000444,0.00307
1624180464010401011,91,1624180464010401011,-0.00454,-0.005185,0.00367,0.999995,-0.000546,0.00253,-0.001699,-0.004746,-0.002774,-0.005531,0.010113,-0.000123,0.00455
1624180464110399246,92,1624180464110399246,-0.00694,-0.006432,0.003714,0.999995,-0.000389,0.002421,-0.001611,-0.008416,-0.005141,-0.004934,0.012344,-0.001129,0.002817
1624180464210397482,93,1624180464210397482,-0.00306,-0.006469,0.00355,0.999996,-0.000429,0.002338,-0.001388,-0.001491,-0.005153,-0.005229,0.015651,-0.002473,0.002672
1624180464310395718,94,1624180464310395718,-0.004568,-0.008577,0.00462,0.999995,-0.000551,0.002533,-0.001426,-0.004014,-0.008833,-0.002965,0.013207,-0.000196,0.002742
1624180464410393953,95,1624180464410393953,-0.007169,-0.010056,0.003266,0.999995,-0.000605,0.002482,-0.00149,-0.008283,-0.010596,-0.006262,0.011849,-0.001826,0.003365
1624180464510392189,96,1624180464510392189,-0.006674,-0.00807,0.003123,0.999995,-0.000545,0.002464,-0.001676,-0.006876,-0.00498,-0.006823,0.014514,-0.001747,0.003984
1624180464610390425,97,1624180464610390425,-0.007897,-0.01003,0.002751,0.999995,-0.000562,0.002464,-0.001853,-0.008556,-0.009488,-0.006955,0.013517,-0.000169,0.00369
1624180464710388899,98,1624180464710388899,-0.010617,-0.012063,0.004344,0.999994,-0.000568,0.002469,-0.00209,-0.012483,-0.013046,-0.004158,0.011265,-0.001143,0.001775
1624180464810387135,99,1624180464810387135,-0.012453,-0.012874,0.00595,0.999994,-0.000733,0.002421,-0.001925,-0.013806,-0.013416,-0.000504,0.014886,0.000541,0.002766
1624180464910385370,100,1624180464910385370,-0.007251,-0.008626,0.005677,0.999994,-0.000542,0.002478,-0.002277,-0.00404,-0.004613,-0.003039,0.01527,-0.002181,0.001984
1624180465010383606,101,1624180465010383606,-0.002745,-0.006882,0.005487,0.999993,-0.000617,0.002567,-0.00256,0.004848,-0.00395,-0.005219,0.010495,-0.001584,0.003482
1624180465110381842,102,1624180465110381842,-0.001093,-0.005508,0.00506,0.999993,-0.000435,0.002432,-0.002499,0.006409,-0.001665,-0.006065,0.016541,-0.000883,0.001888
1624180465210380077,103,1624180465210380077,-0.00095,-0.005635,0.007571,0.999994,-0.000531,0.002359,-0.002185,0.005666,-0.002192,0.000378,0.013434,-0.000921,0.002735
1624180465310378313,104,1624180465310378313,0.000178,-0.006096,0.00782,0.999994,-0.0006,0.002441,-0.002209,0.006268,-0.003887,0.001312,0.015678,-0.000706,0.002336
1624180465410376549,105,1624180465410376549,0.004459,-0.005719,0.008281,0.999995,-0.000636,0.002418,-0.00193,0.011374,-0.002958,0.001364,0.01324,-0.00016,0.003458
1624180465510374784,106,1624180465510374784,0.002914,-0.004283,0.005998,0.999995,-0.000445,0.002411,-0.001966,0.006622,0.000541,-0.003813,0.016372,0.000219,0.001313
1624180465610373020,107,1624180465610373020,0.002024,-0.003496,0.005173,0.999994,-0.000316,0.002428,-0.002085,0.002627,-0.000652,-0.004648,0.010586,-0.001844,0.003335
1624180465710371256,108,1624180465710371256,0.002255,-0.004492,0.005415,0.999994,-0.00028,0.002419,-0.002112,0.002641,-0.003655,-0.002435,0.014565,0.000186,0.003381
1624180465810369492,109,1624180465810369492,0.000441,-0.006001,0.006993,0.999995,-0.000501,0.002405,-0.001952,-0.001134,-0.00546,0.002593,0.015803,-0.001654,0.001657
1624180465910367966,110,1624180465910367966,-0.00388,-0.005247,0.009177,0.999995,-0.000492,0.002467,-0.001874,-0.008692,-0.002777,0.008205,0.015146,0.000143,0.002417
1624180466010366201,111,1624180466010366201,-0.004458,-0.005373,0.009162,0.999994,-0.000474,0.002504,-0.002031,-0.008634,-0.003719,0.005669,0.012885,-0.001614,0.0039
1624180466110364437,112,1624180466110364437,-0.005262,-0.005741,0.009413,0.999995,-0.000658,0.00237,-0.001554,-0.009318,-0.002159,0.005993,0.015437,-0.000466,0.002248
1624180466210362673,113,1624180466210362673,-0.005268,-0.009324,0.009054,0.999995,-0.000626,0.002497,-0.001673,-0.00892,-0.010567,0.004595,0.009358,-0.001057,0.004223
1624180466310360909,114,1624180466310360909,-0.008356,-0.009209,0.007144,0.999994,-0.000601,0.00247,-0.002051,-0.013075,-0.010186,0.000278,0.016627,-0.000533,0.002229
1624180466410359144,115,1624180466410359144,-0.004369,-0.008009,0.006828,0.999995,-0.000624,0.002382,-0.001636,-0.005331,-0.00627,-6.8e-05,0.011378,-0.001927,0.004057
1624180466510357380,116,1624180466510357380,-0.00156,-0.007317,0.006298,0.999996,-0.000519,0.00246,-0.001242,-0.00075,-0.002661,-0.00015,0.012263,-0.001552,0.00398
1624180466610355616,117,1624180466610355616,-0.005209,-0.008104,0.004663,0.999996,-0.000537,0.00235,-0.001244,-0.00609,-0.004165,-0.003985,0.014486,-0.000282,0.003803
1624180466710353851,118,1624180466710353851,-0.000143,-0.004213,0.003612,0.999995,-0.000482,0.002456,-0.001841,0.001302,0.002866,-0.00523,0.015343,-0.002168,0.002561
1624180466810352087,119,1624180466810352087,0.001811,-0.002256,0.004152,0.999993,-0.000631,0.002493,-0.002398,0.003442,0.003643,-0.002849,0.011869,-0.001169,0.004543
1624180466910350323,120,1624180466910350323,0.001203,-0.001774,0.003639,0.999995,-0.000559,0.002377,-0.001658,0.002258,0.005499,-0.003281,0.01025,-0.000224,0.004012
1624180467010348558,121,1624180467010348558,-0.001662,-0.00284,0.006175,0.999995,-0.000439,0.002294,-0.001656,-0.00351,0.001799,0.004602,0.015703,-0.000348,0.002209
1624180467110347033,122,1624180467110347033,-0.007829,-0.006073,0.004518,0.999995,-0.000509,0.002344,-0.001498,-0.012821,-0.004817,0.001205,0.013231,-0.002598,0.003271
1624180467210345268,123,1624180467210345268,-0.008707,-0.008036,0.005206,0.999995,-0.000747,0.002363,-0.001447,-0.013025,-0.008054,0.003697,0.016109,0.000598,0.002333
1624180467310343504,124,1624180467310343504,0.002318,-0.002895,0.005607,0.999996,-0.000394,0.002302,-0.001542,0.005656,0.001439,0.004479,0.010804,0.000647,0.004063
1624180467410341740,125,1624180467410341740,-0.003611,-0.00495,0.007044,0.999994,-0.000481,0.002449,-0.002052,-0.004078,-0.004459,0.007228,0.011587,-0.001263,0.002504
1624180467510339975,126,1624180467510339975,0.00018,-0.003727,0.006112,0.999996,-0.000241,0.002336,-0.00125,0.002104,0.000916,0.004493,0.014961,-0.000748,0.002956
1624180467610338211,127,1624180467610338211,-0.00274,-0.006887,0.006711,0.999995,-0.000327,0.0025,-0.001543,-0.004184,-0.006669,0.00561,0.013689,0.000157,0.003397
1624180467710336447,128,1624180467710336447,0.001671,-0.005762,0.00661,0.999995,-0.000323,0.002346,-0.001634,0.003203,-0.003738,0.005393,0.012247,-0.001422,0.003668
1624180467810334682,129,1624180467810334682,0.003637,-0.004201,0.006878,0.999995,-0.00025,0.002355,-0.001579,0.005419,0.00042,0.004834,0.013941,-0.002112,0.001867
1624180467910332918,130,1624180467910332918,-0.002124,-0.006377,0.006674,0.999994,-0.000453,0.00243,-0.00199,-0.005147,-0.0046,0.004192,0.012491,-0.001941,0.003368
1624180468010331154,131,1624180468010331154,-0.001755,-0.002461,0.007538,0.999994,-0.000382,0.002418,-0.002078,-0.004637,0.00313,0.005605,0.009995,0.000181,0.003957
1624180468110329390,132,1624180468110329390,0.006871,-0.001826,0.007947,0.999995,-8e-05,0.002366,-0.001769,0.009628,0.003196,0.006419,0.013608,-3.3e-05,0.004461
1624180468210327625,133,1624180468210327625,0.008127,-0.002421,0.006416,0.999995,-0.000216,0.002368,-0.001813,0.010734,0.001406,0.002696,0.016258,-0.000735,0.002043
1624180468310325861,134,1624180468310325861,0.006203,-0.00325,0.006742,0.999995,-0.000227,0.0024,-0.001983,0.005225,-0.001352,0.003318,0.014345,-0.002301,0.001294
1624180468410324335,135,1624180468410324335,0.007749,-0.004213,0.006585,0.999995,-0.000277,0.002394,-0.001882,0.006913,-0.004051,0.002601,0.01192,-0.000143,0.003758
1624180468510322571,136,1624180468510322571,0.0049,-0.00584,0.006697,0.999995,-0.000278,0.002462,-0.001863,0.00054,-0.007937,0.003384,0.014261,-0.00043,0.00321
1624180468610320807,137,1624180468610320807,-0.00227,-0.008409,0.008341,0.999995,-0.000605,0.00248,-0.001682,-0.011801,-0.011601,0.006615,0.01267,-0.001003,0.004011
1624180468710319042,138,1624180468710319042,-0.001127,-0.007195,0.009573,0.999994,-0.000314,0.002531,-0.002063,-0.008635,-0.007264,0.007884,0.014721,-0.000169,0.002587
1624180468810317278,139,1624180468810317278,-0.000781,-0.008217,0.008749,0.999995,-0.00041,0.002473,-0.001651,-0.0072,-0.008289,0.005544,0.011433,0.001136,0.004346
1624180468910315514,140,1624180468910315514,-0.005488,-0.010318,0.008363,0.999995,-0.000694,0.002482,-0.001696,-0.013095,-0.010092,0.004634,0.017228,-0.003622,0.002586
1624180469010313749,141,1624180469010313749,-0.006902,-0.009863,0.007608,0.999996,-0.00053,0.002321,-0.001486,-0.013042,-0.006379,0.002285,0.012612,-0.001004,0.003478
1624180469110311985,142,1624180469110311985,-0.015708,-0.012335,0.00864,0.999995,-0.000796,0.002496,-0.001481,-0.025474,-0.010013,0.004557,0.010758,0.001994,0.004474
1624180469210310221,143,1624180469210310221,-0.010306,-0.009587,0.006252,0.999996,-0.000597,0.00227,-0.0015,-0.014286,-0.00354,1.5e-05,0.01275,-0.0005,0.002015
1624180469310308456,144,1624180469310308456,-0.00831,-0.008576,0.007412,0.999995,-0.000525,0.0024,-0.001708,-0.010101,-0.002272,0.003462,0.014424,-0.000464,0.002849
1624180469410306692,145,1624180469410306692,-0.004681,-0.010435,0.007429,0.999995,-0.00036,0.002399,-0.001892,-0.002788,-0.006988,0.003135,0.013074,-0.001365,0.003688
1624180469510304928,146,1624180469510304928,-0.004278,-0.011398,0.007732,0.999996,-0.000672,0.002258,-0.001545,-0.000387,-0.006711,0.005192,0.016111,-0.003118,0.003378
1624180469610303402,147,1624180469610303402,-0.001543,-0.009337,0.009261,0.999995,-0.000476,0.00245,-0.001867,0.002229,-0.002725,0.007923,0.014578,-0.001907,0.003345
1624180469710301638,148,1624180469710301638,-0.007201,-0.010098,0.008865,0.999995,-0.000504,0.002407,-0.001716,-0.008398,-0.003952,0.006124,0.017095,0.000258,0.002419
1624180469810299873,149,1624180469810299873,0.000635,-0.007045,0.009116,0.999994,-0.000493,0.002448,-0.002116,0.004013,0.001164,0.006501,0.014648,-0.000392,0.002875
1624180469910298109,150,1624180469910298109,0.005201,-0.006095,0.009328,0.999995,-0.000214,0.002534,-0.001608,0.00978,0.003411,0.006445,0.015065,-0.001078,0.002557
1624180470010296345,151,1624180470010296345,0.000318,-0.008473,0.009106,0.999994,-0.000645,0.002562,-0.001807,-0.000869,-0.003426,0.006113,0.01342,-0.000361,0.00303
1624180470110294580,152,1624180470110294580,-0.00068,-0.008226,0.008738,0.999995,-0.000526,0.002396,-0.001767,-0.003634,-0.001021,0.004408,0.017912,-0.001132,-0.000479
1624180470210292816,153,1624180470210292816,0.002671,-0.006685,0.008942,0.999995,-0.000379,0.002443,-0.00158,0.001187,0.000372,0.004016,0.016649,-0.001865,0.005126
1624180470310291052,154,1624180470310291052,0.002865,-0.006864,0.007854,0.999995,-0.000415,0.002457,-0.001756,0.000789,0.000649,0.001644,0.012781,0.001229,0.002492
1624180470410289288,155,1624180470410289288,-0.000407,-0.006253,0.006536,0.999995,-0.000536,0.002387,-0.001596,-0.005222,0.002213,-0.000652,0.012312,-0.0023,0.005299
1624180470510287523,156,1624180470510287523,0.004941,-0.005898,0.006447,0.999995,-0.000642,0.002461,-0.001323,0.002916,0.002468,0.001452,0.010695,-0.000146,0.005369
1624180470610285759,157,1624180470610285759,0.006982,-0.00533,0.007255,0.999995,-0.00027,0.002441,-0.001501,0.0048,0.004042,0.004074,0.014635,-0.000273,-0.002166
1624180470710283995,158,1624180470710283995,0.001844,-0.006055,0.008078,0.999995,-0.000101,0.0024,-0.001584,-0.005046,-0.00238,0.006163,0.007808,-0.003714,0.013034
1624180470810282230,159,1624180470810282230,0.000617,-0.005789,0.008774,0.999995,-0.000506,0.002443,-0.001517,-0.006946,0.001595,0.008565,0.007261,0.000129,0.003435
1624180470910280704,160,1624180470910280704,-0.004445,-0.006589,0.007448,0.999996,-0.00039,0.002412,-0.00139,-0.013936,0.003022,0.005136,0.012541,0.00054,-0.006252
1624180471010278940,161,1624180471010278940,-0.005121,-0.006554,0.00665,0.999996,-0.000376,0.002358,-0.001161,-0.012463,-0.000994,0.002681,0.005724,-0.000527,0.009314
1624180471110277176,162,1624180471110277176,-0.008282,-0.007539,0.005966,0.999996,-0.000792,0.002394,-0.000943,-0.015964,-0.000724,0.000848,0.009924,-0.00343,0.005636
1624180471210275412,163,1624180471210275412,-0.006106,-0.004965,0.004602,0.999996,-0.000431,0.002351,-0.001291,-0.011845,0.006188,-0.001895,0.011793,0.000443,-0.006344
1624180471310273647,164,1624180471310273647,-0.003103,-0.004443,0.005691,0.999996,-0.000356,0.002466,-0.001284,-0.005059,0.003175,0.001027,0.012345,-0.00526,0.007754
1624180471410271883,165,1624180471410271883,0.000299,-0.004221,0.006353,0.999995,-0.000524,0.002499,-0.001364,0.001458,0.002708,0.006035,0.008552,0.002879,0.007353
1624180471510270119,166,1624180471510270119,-0.003236,-0.00678,0.006236,0.999995,-0.000471,0.002529,-0.001496,-0.00531,-0.001243,0.006337,0.011636,0.003366,-0.001238
1624180471610268354,167,1624180471610268354,-0.000579,-0.005399,0.007224,0.999994,-0.000309,0.002618,-0.001864,-0.002298,-0.002638,0.00792,0.009175,0.009181,0.007519
1624180471710266590,168,1624180471710266590,-0.002905,-0.005862,0.007095,0.999994,-0.000576,0.002645,-0.001994,-0.0059,-0.002948,0.007107,-0.002194,0.002508,0.005331
1624180471810264826,169,1624180471810264826,-0.00051,-0.004937,0.005548,0.999995,-0.000354,0.002584,-0.001707,-0.001184,0.0019,0.00407,-0.001625,0.00483,-0.00361
1624180471910263062,170,1624180471910263062,0.003209,-0.003347,0.005374,0.999994,-0.000331,0.002657,-0.001763,0.00591,0.00217,0.004622,0.007747,0.010399,0.005418
1624180472010261297,171,1624180472010261297,-0.005059,-0.006895,0.004937,0.999993,-0.000683,0.002813,-0.002083,-0.008171,-0.00532,0.001954,0.014625,-0.002435,0.002094
1624180472110259771,172,1624180472110259771,0.002061,-0.006343,0.006444,0.999994,-0.000387,0.002625,-0.002101,0.00327,-0.001113,0.005069,-0.019556,-0.013294,0.000598
1624180472210258007,173,1624180472210258007,-0.004322,-0.005275,0.005236,0.999994,-0.000249,0.002801,-0.001679,-0.010229,0.002724,0.005899,-0.024572,0.019113,0.004888
1624180472310256243,174,1624180472310256243,-0.006847,-0.007459,0.003998,0.999995,-0.000478,0.002618,-0.00143,-0.010283,0.001361,0.0022,0.007721,0.009251,0.007317
1624180472410254478,175,1624180472410254478,-0.009346,-0.007143,0.003026,0.999993,-0.000613,0.003087,-0.001507,-0.016119,0.006422,0.000334,-0.029186,-0.005935,-0.001699
1624180472510252714,176,1624180472510252714,-0.010921,-0.008112,0.002463,0.999991,-0.000687,0.003375,-0.00221,-0.01572,-0.007367,-0.001357,0.028547,0.005371,0.006085
1624180472610250950,177,1624180472610250950,-0.004678,-0.007294,-0.001692,0.999993,-0.000488,0.003381,-0.001493,0.000923,0.003184,-0.01484,-0.013598,-0.000646,0.004151
1624180472710249186,178,1624180472710249186,-0.005314,-0.006957,-0.003407,0.999992,-0.00072,0.00328,-0.001772,-0.000296,0.003802,-0.016997,-0.036986,-0.015733,-0.000687
1624180472810247421,179,1624180472810247421,-0.00439,-0.006433,-0.002107,0.999994,-0.000566,0.002657,-0.002103,0.002878,-0.004097,-0.008351,0.00144,-0.015962,0.004276
1624180472910245657,180,1624180472910245657,-0.007939,-0.006993,0.002838,0.999995,-0.000567,0.00253,-0.001636,-0.004666,-0.00655,0.003702,0.022865,-0.011199,0.012339
1624180473010243893,181,1624180473010243893,-0.009363,-0.005859,0.003572,0.999994,-0.000643,0.00261,-0.002084,-0.011246,0.002442,0.007621,-0.004276,0.011788,0.004798
1624180473110242128,182,1624180473110242128,-0.006342,-0.006018,0.004182,0.999994,-0.000484,0.002675,-0.00162,-0.004663,0.006212,0.010745,-0.022205,0.017838,0.006433
1624180473210240364,183,1624180473210240364,-0.006808,-0.008194,0.002819,0.999992,-0.000888,0.003052,-0.002057,-0.003614,-0.00864,-0.00233,-0.002042,-0.01662,0.006553
1624180473310238838,184,1624180473310238838,-0.010852,-0.010737,0.003676,0.999993,-0.000852,0.003259,-0.001553,-0.005056,-0.015248,0.002704,0.031448,-0.000975,0.008189
1624180473410237074,185,1624180473410237074,-0.01489,-0.009772,0.003152,0.999994,-0.000782,0.003014,-0.001453,-0.012136,-0.007179,0.001874,-7.1e-05,0.007637,0.008068
1624180473510235310,186,1624180473510235310,-0.009837,-0.008544,0.00375,0.999994,-0.000704,0.002747,-0.001462,-0.004794,0.000521,0.003358,-0.014377,0.005433,0.003314
1624180473610233545,187,1624180473610233545,-0.010092,-0.011214,0.004789,0.999995,-0.000669,0.002496,-0.001792,-0.001498,-0.006027,0.001774,0.005123,-0.017491,0.00378
1624180473710231781,188,1624180473710231781,-0.00794,-0.009572,0.005859,0.999995,-0.000525,0.002402,-0.001846,-0.000566,-0.007267,0.004428,0.013601,-0.01435,0.004309
1624180473810230017,189,1624180473810230017,-0.00705,-0.006716,0.007514,0.999996,-0.000473,0.002383,-0.00141,0.001616,0.007834,0.013301,0.000307,0.012509,0.002891
1624180473910228252,190,1624180473910228252,0.003275,-0.002787,0.006072,0.999993,-0.000331,0.002557,-0.002319,0.014631,0.014419,0.00713,0.011876,-0.014738,0.003247
1624180474010226488,191,1624180474010226488,0.010013,-0.00192,0.00539,0.999989,-0.000504,0.003581,-0.002748,0.018223,0.011787,0.003804,0.011807,0.000111,0.003012
1624180474110224724,192,1624180474110224724,0.00721,-0.000284,0.002601,0.999989,-0.000591,0.00411,-0.001815,0.01104,0.019202,0.01102,0.023986,0.029404,0.002034
1624180474210222960,193,1624180474210222960,0.001682,0.000441,0.001273,0.999985,-0.000361,0.005209,-0.001195,-0.003379,0.024888,0.021952,-0.008457,0.020958,-0.001526
1624180474310221195,194,1624180474310221195,-0.009892,0.00286,0.003425,0.999984,-0.001005,0.005432,-0.00099,-0.014809,0.037997,0.120454,-0.080908,0.057349,-0.004565
1624180474410219431,195,1624180474410219431,-0.026676,-0.000807,0.021011,0.999956,-0.002182,0.008638,-0.002875,-0.025267,0.035436,0.302938,0.049879,0.118541,0.010844
1624180474510217667,196,1624180474510217667,-0.048159,-0.000754,0.057474,0.999909,-0.002821,0.011483,-0.006369,-0.053655,0.047624,0.487785,0.100146,0.032325,0.010345
1624180474610216141,197,1624180474610216141,-0.060668,0.000535,0.13117,0.999828,-0.002942,0.015036,-0.010383,-0.073303,0.054262,0.765567,0.092276,0.034706,-0.001735
1624180474710214376,198,1624180474710214376,-0.051626,0.00718,0.236715,0.999719,-0.002929,0.017404,-0.015766,-0.060181,0.043218,1.074048,0.061015,0.031475,0.023587
1624180474810212612,199,1624180474810212612,-0.043103,0.015641,0.364193,0.999612,-0.002637,0.018996,-0.020161,-0.054218,0.041347,1.337236,0.046075,0.027361,0.018482
1624180474910210848,200,1624180474910210848,-0.044188,0.016983,0.512514,0.999629,-0.002567,0.019393,-0.018945,-0.067185,0.026172,1.542609,-0.051451,-0.000763,0.001935
1624180475010209084,201,1624180475010209084,-0.051393,0.020831,0.669138,0.99972,-0.002348,0.015687,-0.017534,-0.080363,0.017669,1.684723,-0.067644,-0.060258,-0.002973
1624180475110207319,202,1624180475110207319,-0.069893,0.020613,0.847305,0.999766,-0.002189,0.012804,-0.017286,-0.102645,0.00118,1.81573,-0.054202,-0.034151,-0.006363
1624180475210205555,203,1624180475210205555,-0.076568,0.021442,1.026807,0.999837,-0.001882,0.00934,-0.015292,-0.090741,-0.007344,1.857224,-0.068914,-0.059982,0.000103
1624180475310203791,204,1624180475310203791,-0.083632,0.020212,1.208139,0.999909,-0.001409,0.007072,-0.011315,-0.07541,-0.003012,1.862047,-0.063709,-0.014233,-0.007209
1624180475410202026,205,1624180475410202026,-0.083391,0.020335,1.391311,0.999916,-0.000775,0.006371,-0.011176,-0.044224,0.002423,1.848721,0.011323,0.042302,-0.003291
1624180475510200262,206,1624180475510200262,-0.078509,0.019599,1.573501,0.999889,-0.000618,0.007725,-0.012667,-0.015374,-0.001651,1.807322,0.064648,0.003507,0.007504
1624180475610198498,207,1624180475610198498,-0.081619,0.021788,1.758513,0.999851,-0.000586,0.008663,-0.014907,-0.010724,0.002365,1.772769,0.025461,-6.6e-05,0.001068
1624180475710196733,208,1624180475710196733,-0.081152,0.018198,1.931699,0.999792,-0.00049,0.009824,-0.01786,-0.003148,-0.009591,1.703562,0.047474,0.016105,0.004743
1624180475810195208,209,1624180475810195208,-0.091376,0.018798,2.099345,0.999682,-0.000233,0.011576,-0.022385,-0.012178,-0.011895,1.639646,0.183656,0.051718,0.012752
1624180475910193443,210,1624180475910193443,-0.09511,0.015374,2.253704,0.999593,-0.000272,0.013255,-0.025245,-0.00942,-0.039492,1.541547,0.061145,0.002306,0.006069
1624180476010191679,211,1624180476010191679,-0.105225,0.006629,2.402706,0.999443,-0.000418,0.014162,-0.030208,-0.026566,-0.077127,1.485567,0.038441,0.01192,0.00332
1624180476110189915,212,1624180476110189915,-0.108401,-0.002615,2.555833,0.999386,-0.000476,0.016126,-0.03107,-0.037814,-0.112094,1.46526,0.004586,0.023108,0.004016
1624180476210188150,213,1624180476210188150,-0.099692,-0.008462,2.695489,0.99941,-0.000115,0.016189,-0.030284,-0.024215,-0.133859,1.441964,0.016407,-0.013131,0.002331
1624180476310186386,214,1624180476310186386,-0.107633,-0.023224,2.838363,0.999396,-0.000246,0.016897,-0.030355,-0.036948,-0.170915,1.448687,-0.010759,0.016441,-0.001191
1624180476410184622,215,1624180476410184622,-0.110845,-0.043991,2.978614,0.999434,-0.000452,0.017041,-0.028994,-0.046021,-0.210282,1.438285,-0.032267,-0.006098,0.002256
1624180476510182858,216,1624180476510182858,-0.116301,-0.067161,3.12068,0.999551,-0.00033,0.016612,-0.024923,-0.052135,-0.24616,1.444351,-0.114712,-0.032127,-0.003231
1624180476610181093,217,1624180476610181093,-0.123165,-0.093017,3.270821,0.999688,-0.000427,0.015549,-0.0195,-0.061365,-0.265362,1.484117,-0.084821,-0.034204,-0.001344
1624180476710179329,218,1624180476710179329,-0.12856,-0.11758,3.420017,0.999773,-0.000536,0.014598,-0.015446,-0.059988,-0.270072,1.512385,-0.077308,0.003104,0.001246
1624180476810177565,219,1624180476810177565,-0.124013,-0.137993,3.568842,0.999838,-0.000298,0.014368,-0.010824,-0.036298,-0.255881,1.52894,-0.066218,-0.010288,-0.00063
1624180476910175800,220,1624180476910175800,-0.12375,-0.16155,3.721276,0.999865,-0.000347,0.014645,-0.00743,-0.02819,-0.240472,1.565164,-0.032523,0.01459,0.005458
1624180477010174274,221,1624180477010174274,-0.106045,-0.183358,3.875306,0.999868,8e-05,0.015279,-0.005373,0.011424,-0.227013,1.582448,-0.051454,0.022531,0.001887
1624180477110172510,222,1624180477110172510,-0.112989,-0.206065,4.033707,0.999881,-0.000295,0.015056,-0.003055,6e-06,-0.21559,1.597865,-0.018518,-0.005547,0.005504
1624180477210170746,223,1624180477210170746,-0.114096,-0.233517,4.191234,0.999865,-0.000506,0.015519,-0.005245,-0.005515,-0.219376,1.639904,0.032991,-0.018558,0.011084
1624180477310168982,224,1624180477310168982,-0.116701,-0.259033,4.354229,0.999857,-0.000608,0.015155,-0.007468,-0.011938,-0.2208,1.647832,0.084347,-0.001111,0.014527
1624180477410167217,225,1624180477410167217,-0.121561,-0.276501,4.517912,0.999865,-0.000677,0.014206,-0.008147,-0.022975,-0.204877,1.64854,0.054758,-0.018023,0.011819
1624180477510165453,226,1624180477510165453,-0.123295,-0.293003,4.684038,0.999862,-0.000763,0.013706,-0.009266,-0.018185,-0.193785,1.659863,-0.01406,0.004896,0.006869
1624180477610163689,227,1624180477610163689,-0.139859,-0.315515,4.845701,0.99987,-0.000935,0.013253,-0.009057,-0.041482,-0.19545,1.629288,-0.02611,-0.009142,0.001116
1624180477710161924,228,1624180477710161924,-0.142527,-0.33107,5.003814,0.999847,-0.000843,0.014589,-0.009536,-0.033484,-0.183021,1.601288,0.003823,0.041537,0.001615
1624180477810160160,229,1624180477810160160,-0.144334,-0.353308,5.162647,0.999757,-0.001075,0.020129,-0.008825,-0.033969,-0.195305,1.588453,-0.034546,0.158768,-0.003065
1624180477910158396,230,1624180477910158396,-0.141168,-0.369512,5.320924,0.999513,-0.000904,0.030386,-0.007015,-0.046058,-0.181307,1.564982,0.012484,0.224822,0.00717
1624180478010156631,231,1624180478010156631,-0.1487,-0.383641,5.471311,0.999333,-0.001088,0.035929,-0.006281,-0.084788,-0.168889,1.460474,-0.057328,0.112462,-0.001529
1624180478110154867,232,1624180478110154867,-0.148759,-0.393066,5.615762,0.999106,-0.001184,0.041801,-0.006051,-0.119691,-0.140901,1.404916,0.000544,-0.004439,0.002025
1624180478210153103,233,1624180478210153103,-0.158054,-0.408632,5.754765,0.999065,-0.001165,0.04261,-0.007214,-0.169774,-0.136045,1.390205,0.025119,0.006738,-0.000124
1624180478310151577,234,1624180478310151577,-0.185569,-0.417258,5.884891,0.999164,-0.001127,0.040359,-0.00633,-0.236749,-0.121063,1.339309,0.02152,-0.054459,0.002453
1624180478410149813,235,1624180478410149813,-0.208206,-0.429267,6.014685,0.999259,-0.001053,0.037973,-0.006191,-0.28144,-0.114685,1.319873,-0.020355,-0.041099,0.001645
1624180478510148048,236,1624180478510148048,-0.239783,-0.44132,6.142325,0.999532,-0.001017,0.030133,-0.005123,-0.331942,-0.115906,1.279435,-0.03549,-0.192134,0.008997
1624180478610146284,237,1624180478610146284,-0.263484,-0.447463,6.265421,0.999776,-0.001158,0.020495,-0.004972,-0.332353,-0.095125,1.263132,0.035017,-0.214008,0.010035
1624180478710144520,238,1624180478710144520,-0.296099,-0.452949,6.387509,0.999951,-0.001289,0.008426,-0.005029,-0.326281,-0.076527,1.290894,0.002063,-0.208858,0.006213
1624180478810142756,239,1624180478810142756,-0.328828,-0.461697,6.520448,0.999991,-0.001392,-0.000632,-0.003874,-0.30403,-0.066938,1.328615,0.044528,-0.145172,0.00829
1624180478910140991,240,1624180478910140991,-0.36313,-0.462724,6.651216,0.999981,-0.001506,-0.004663,-0.00365,-0.280362,-0.043237,1.316921,-0.060913,-0.044187,0.001718
1624180479010139227,241,1624180479010139227,-0.392854,-0.466769,6.767769,0.999983,-0.001789,-0.00473,-0.002749,-0.242983,-0.02737,1.292647,-0.031695,0.042767,0.002045
1624180479110137463,242,1624180479110137463,-0.411879,-0.468345,6.892226,0.999991,-0.00152,-0.002624,-0.002945,-0.194857,-0.015065,1.303518,-0.001133,0.030214,0.004151
1624180479210135698,243,1624180479210135698,-0.427801,-0.472636,7.02158,0.999991,-0.001617,-0.000163,-0.003665,-0.155405,-0.011727,1.299648,0.022188,0.057784,0.002172
1624180479310133934,244,1624180479310133934,-0.438284,-0.470005,7.145815,0.999986,-0.00153,0.002195,-0.004476,-0.11668,0.001634,1.257422,0.007048,0.040167,0.014555
1624180479410132170,245,1624180479410132170,-0.450267,-0.468408,7.271531,0.99998,-0.001398,0.003986,-0.004671,-0.097362,0.008951,1.269831,0.020987,0.076818,0.004465
1624180479510130644,246,1624180479510130644,-0.456725,-0.467183,7.401702,0.999969,-0.001447,0.005959,-0.004877,-0.076167,0.015934,1.265249,0.014959,0.032468,0.007607
1624180479610128880,247,1624180479610128880,-0.457639,-0.461092,7.52959,0.999958,-0.001334,0.007709,-0.004577,-0.047053,0.035532,1.267716,0.028768,0.023251,0.002748
1624180479710127115,248,1624180479710127115,-0.455146,-0.45712,7.656996,0.999938,-0.001659,0.00943,-0.005576,-0.02044,0.03846,1.292356,0.035587,0.040858,0.011793
1624180479810125351,249,1624180479810125351,-0.457973,-0.451769,7.784222,0.999916,-0.001729,0.011335,-0.005932,-0.015567,0.050224,1.31104,-0.018309,0.03172,0.006894
1624180479910123587,250,1624180479910123587,-0.466825,-0.442667,7.911467,0.999902,-0.001843,0.012601,-0.005754,-0.029121,0.064532,1.315483,-0.021087,0.027996,0.00175
1624180480010121822,251,1624180480010121822,-0.471134,-0.430912,8.037697,0.999884,-0.001802,0.013799,-0.006091,-0.028939,0.08749,1.325721,0.049305,0.024516,0.002033
1624180480110120058,252,1624180480110120058,-0.4769,-0.415911,8.166962,0.999846,-0.00166,0.015178,-0.008603,-0.03855,0.111437,1.348992,0.116385,0.06496,-0.005454
1624180480210118294,253,1624180480210118294,-0.48427,-0.402613,8.297563,0.999787,-0.001457,0.016813,-0.01186,-0.053502,0.112014,1.349537,0.073215,0.022904,0.001492
1624180480310116529,254,1624180480310116529,-0.494185,-0.395142,8.429596,0.999739,-0.001434,0.017388,-0.014746,-0.07192,0.091557,1.360721,0.012386,-0.008537,0.002178
1624180480410114765,255,1624180480410114765,-0.501376,-0.391249,8.563537,0.999735,-0.0012,0.016229,-0.016259,-0.079496,0.070953,1.367205,0.015516,-0.056186,0.005503
1624180480510113001,256,1624180480510113001,-0.509152,-0.387497,8.700241,0.999777,-0.001361,0.013789,-0.015893,-0.081076,0.046229,1.387388,-0.014799,-0.03283,0.015028
1624180480610111237,257,1624180480610111237,-0.514735,-0.381991,8.837282,0.999808,-0.001566,0.011356,-0.015868,-0.076511,0.036856,1.400308,-0.017087,-0.029952,0.00749
1624180480710109472,258,1624180480710109472,-0.518389,-0.378769,8.964585,0.99985,-0.001787,0.008947,-0.014654,-0.064377,0.024845,1.295262,-0.027066,-0.053394,0.003685
1624180480810107946,259,1624180480810107946,-0.515914,-0.375005,9.06559,0.999886,-0.001522,0.007137,-0.013163,-0.037892,0.025788,1.037444,0.017911,-0.041922,-0.002331
1624180480910106182,260,1624180480910106182,-0.522002,-0.366593,9.150611,0.999887,0.000535,0.006844,-0.013317,-0.032224,0.096862,0.807417,0.021428,-0.001425,-0.223332
1624180481010104418,261,1624180481010104418,-0.519508,-0.341408,9.224555,0.999642,0.020919,0.008713,-0.014203,-0.023368,0.207214,0.690572,0.008763,0.04049,-0.503983
1624180481110102654,262,1624180481110102654,-0.517881,-0.314702,9.284691,0.998668,0.047891,0.010535,-0.016044,-0.020087,0.231384,0.598021,0.086058,0.028771,-0.544704
1624180481210100889,263,1624180481210100889,-0.518228,-0.288333,9.338566,0.996977,0.074984,0.011962,-0.016433,-0.024778,0.226477,0.536442,0.003221,0.031734,-0.542745
1624180481310099125,264,1624180481310099125,-0.52064,-0.267776,9.386442,0.994622,0.101191,0.013368,-0.017536,-0.024075,0.202268,0.484652,0.043294,-0.00852,-0.494533
1624180481410097361,265,1624180481410097361,-0.523645,-0.249175,9.434799,0.991869,0.12511,0.015004,-0.01783,-0.025156,0.169429,0.479978,-0.021436,0.063005,-0.45168
1624180481510095596,266,1624180481510095596,-0.532838,-0.231239,9.478796,0.988936,0.146354,0.016111,-0.018011,-0.045,0.150879,0.459366,-0.00946,-0.026778,-0.413684
1624180481610093832,267,1624180481610093832,-0.53026,-0.212061,9.51049,0.985741,0.166682,0.016794,-0.015754,-0.047972,0.137549,0.456815,-0.037103,-0.031903,-0.40475
1624180481710092068,268,1624180481710092068,-0.531746,-0.198609,9.546925,0.982202,0.186576,0.017051,-0.013299,-0.057778,0.12476,0.462478,0.001054,-0.013983,-0.397343
1624180481810090303,269,1624180481810090303,-0.53725,-0.186811,9.589851,0.978315,0.206062,0.015602,-0.013899,-0.071494,0.114121,0.486961,0.029073,-0.01878,-0.380958
1624180481910088539,270,1624180481910088539,-0.546797,-0.173704,9.637729,0.97432,0.224387,0.013544,-0.012899,-0.090307,0.11393,0.47235,0.004492,-0.05096,-0.373194
1624180482010087013,271,1624180482010087013,-0.565617,-0.164594,9.685861,0.97002,0.24255,0.010386,-0.011001,-0.116563,0.108089,0.464732,-0.030406,-0.010282,-0.36928
1624180482110085249,272,1624180482110085249,-0.584514,-0.155896,9.729456,0.965498,0.260014,0.010348,-0.009931,-0.135491,0.104521,0.477046,0.013735,-0.013306,-0.360551
1624180482210083485,273,1624180482210083485,-0.598955,-0.147917,9.772556,0.960577,0.277578,0.011403,-0.010492,-0.150295,0.101303,0.500793,0.011768,0.002754,-0.361633
1624180482310081720,274,1624180482310081720,-0.612139,-0.13757,9.820938,0.955357,0.294946,0.01269,-0.011729,-0.16555,0.098091,0.538911,0.059062,0.047646,-0.365584
1624180482410079956,275,1624180482410079956,-0.620849,-0.127695,9.865197,0.94974,0.312394,0.014043,-0.014346,-0.156504,0.084722,0.53399,0.025934,0.030912,-0.340225
1624180482510078192,276,1624180482510078192,-0.624814,-0.119026,9.906854,0.944595,0.327486,0.016811,-0.014475,-0.145814,0.070397,0.467114,-0.016759,-0.003118,-0.304247
1624180482610076427,277,1624180482610076427,-0.63298,-0.106021,9.929078,0.939576,0.34165,0.016686,-0.013915,-0.141241,0.068491,0.386772,0.003498,0.016645,-0.262577
1624180482710074663,278,1624180482710074663,-0.641218,-0.10275,9.954403,0.935444,0.35281,0.016157,-0.014396,-0.139731,0.050956,0.305707,0.018751,-0.00849,-0.243771
1624180482810072899,279,1624180482810072899,-0.652272,-0.096868,9.974691,0.931046,0.364273,0.01455,-0.015658,-0.148468,0.052154,0.241006,0.028767,-0.044967,-0.248204
1624180482910071135,280,1624180482910071135,-0.659638,-0.088097,10.00247,0.925114,0.378828,0.014503,-0.021017,-0.159887,0.068174,0.297714,0.087008,0.060079,-0.346425
1624180483010069370,281,1624180483010069370,-0.67009,-0.086936,10.027238,0.917665,0.396468,0.014529,-0.022149,-0.168279,0.037978,0.277554,0.021956,0.009397,-0.389693
1624180483110067606,282,1624180483110067606,-0.672201,-0.085543,10.048091,0.909052,0.415756,0.014234,-0.023827,-0.156409,0.021237,0.246758,-0.003305,-0.031927,-0.444358
1624180483210066080,283,1624180483210066080,-0.689293,-0.082875,10.05747,0.899033,0.437148,0.014179,-0.020947,-0.185287,0.005356,0.186079,0.02697,-0.06335,-0.479219
1624180483310064316,284,1624180483310064316,-0.707449,-0.084652,10.070172,0.888366,0.458627,0.012447,-0.017652,-0.203811,-0.012232,0.158289,-0.032494,-0.031141,-0.488062
1624180483410062551,285,1624180483410062551,-0.724112,-0.090246,10.084137,0.877614,0.478935,0.011536,-0.016753,-0.20285,-0.036516,0.16568,-0.01348,-0.063076,-0.437913
1624180483510060787,286,1624180483510060787,-0.739194,-0.098688,10.098205,0.867327,0.497415,0.010392,-0.01458,-0.181567,-0.064103,0.157761,0.053135,-0.046374,-0.390445
1624180483610059023,287,1624180483610059023,-0.753518,-0.105808,10.107941,0.858976,0.511779,0.010398,-0.011567,-0.16609,-0.08207,0.142008,0.00218,-0.040811,-0.299118
1624180483710057259,288,1624180483710057259,-0.761317,-0.114256,10.119495,0.85096,0.525046,0.010617,-0.008908,-0.167677,-0.073859,0.148481,-0.027596,-0.012186,-0.311647
1624180483810055494,289,1624180483810055494,-0.776031,-0.127836,10.133294,0.841503,0.540081,0.009541,-0.00959,-0.204335,-0.079784,0.161402,-0.019536,-0.010376,-0.366693
1624180483910053730,290,1624180483910053730,-0.787105,-0.1376,10.148714,0.830892,0.556269,0.009317,-0.009734,-0.202339,-0.079307,0.167868,0.041205,-0.005048,-0.385387
1624180484010051966,291,1624180484010051966,-0.8008,-0.142838,10.164168,0.819469,0.57295,0.009589,-0.010261,-0.208821,-0.071128,0.173814,0.043361,0.001259,-0.394762
1624180484110050201,292,1624180484110050201,-0.814028,-0.146424,10.167496,0.808693,0.588036,0.012221,-0.008874,-0.191236,-0.065158,0.13307,-0.033827,0.038712,-0.324334
1624180484210048437,293,1624180484210048437,-0.824469,-0.151614,10.173691,0.800955,0.598518,0.01223,-0.009857,-0.160564,-0.073117,0.089863,0.005208,-0.019347,-0.186941
1624180484310046673,294,1624180484310046673,-0.835978,-0.161775,10.181675,0.794645,0.606866,0.012505,-0.009784,-0.176081,-0.075386,0.081497,0.015492,0.00285,-0.219914
1624180484410044909,295,1624180484410044909,-0.843279,-0.174699,10.188,0.790515,0.612224,0.012219,-0.010774,-0.126623,-0.099021,0.064707,0.039132,-0.004875,-0.033628
1624180484510043383,296,1624180484510043383,-0.841043,-0.18842,10.190519,0.789936,0.612968,0.011339,-0.011878,-0.098798,-0.110653,0.047837,-0.029901,-0.037237,-0.013973
1624180484610041618,297,1624180484610041618,-0.839398,-0.202232,10.191359,0.789831,0.613112,0.011685,-0.011037,-0.085112,-0.116605,8.1e-05,-0.026079,-0.029392,-0.000859
1624180484710039854,298,1624180484710039854,-0.838877,-0.2208,10.18948,0.790188,0.612618,0.010396,-0.013888,-0.074328,-0.130577,-0.001589,0.021283,-0.000656,0.00968
1624180484810038090,299,1624180484810038090,-0.83732,-0.235815,10.186723,0.790268,0.612523,0.010601,-0.013357,-0.06379,-0.135012,-0.023911,0.021618,-0.008359,0.015411
1624180484910036325,300,1624180484910036325,-0.838597,-0.249658,10.180389,0.790286,0.612533,0.010288,-0.012001,-0.066312,-0.138199,-0.053334,-0.002243,-0.060582,0.008092
1624180485010034561,301,1624180485010034561,-0.843461,-0.26235,10.175923,0.790236,0.612638,0.009238,-0.010668,-0.076615,-0.130725,-0.041485,0.06084,-0.008868,0.007261
1624180485110032797,302,1624180485110032797,-0.83815,-0.276146,10.171413,0.79039,0.612445,0.007063,-0.011993,-0.049548,-0.126509,-0.051896,-0.074846,-0.03762,-0.001253
1624180485210031033,303,1624180485210031033,-0.847122,-0.286996,10.160538,0.790369,0.61251,0.009149,-0.007955,-0.068436,-0.114649,-0.072974,-0.050151,-0.019166,0.010321
1624180485310029268,304,1624180485310029268,-0.855031,-0.297047,10.15309,0.790188,0.612746,0.009845,-0.00684,-0.089254,-0.098535,-0.074451,-0.000551,-3.5e-05,0.00114
1624180485410027504,305,1624180485410027504,-0.859415,-0.308693,10.142213,0.790152,0.612778,0.010741,-0.006756,-0.100058,-0.094338,-0.080867,0.039929,0.004687,0.006257
1624180485510025740,306,1624180485510025740,-0.861575,-0.320743,10.13146,0.790155,0.61276,0.009337,-0.009545,-0.105606,-0.08675,-0.087248,0.129289,0.006594,0.002521
1624180485610023975,307,1624180485610023975,-0.85422,-0.335157,10.121614,0.790052,0.612866,0.007824,-0.012233,-0.071236,-0.100049,-0.08341,-0.011006,0.000731,-0.004885
1624180485710022449,308,1624180485710022449,-0.845357,-0.34892,10.108115,0.789023,0.614184,0.006694,-0.013249,-0.081415,-0.094758,-0.090134,0.013077,0.001626,-0.123112
1624180485810020685,309,1624180485810020685,-0.839899,-0.363275,10.098954,0.784267,0.620231,0.006401,-0.014037,-0.072699,-0.100373,-0.08369,0.018721,-0.001742,-0.173807
1624180485910018921,310,1624180485910018921,-0.842405,-0.378869,10.087905,0.776818,0.629548,0.00597,-0.013635,-0.090713,-0.105955,-0.078113,0.051715,0.000995,-0.259675
1624180486010017157,311,1624180486010017157,-0.847273,-0.389328,10.08162,0.76626,0.642369,0.006138,-0.012975,-0.129253,-0.100214,-0.058623,0.006604,-0.014039,-0.409373
1624180486110015392,312,1624180486110015392,-0.857454,-0.395618,10.072906,0.752692,0.658233,0.006485,-0.011904,-0.138358,-0.091747,-0.053519,0.011933,-0.028183,-0.419143
1624180486210013628,313,1624180486210013628,-0.869835,-0.406022,10.066234,0.739148,0.673436,0.006193,-0.0102,-0.135071,-0.091388,-0.038217,-0.010976,-0.020028,-0.381438
1624180486310011864,314,1624180486310011864,-0.874038,-0.419597,10.061622,0.730307,0.683038,0.005039,-0.009179,-0.082078,-0.098499,-0.022328,0.011634,-0.044545,-0.188579
1624180486410010099,315,1624180486410010099,-0.873221,-0.427741,10.060426,0.725366,0.688301,0.004908,-0.00778,-0.046737,-0.084341,0.011134,0.016276,0.018127,-0.092918
1624180486510008335,316,1624180486510008335,-0.867168,-0.43457,10.060253,0.722168,0.691617,0.004096,-0.011033,-0.019769,-0.07517,0.013151,0.154668,-0.019462,-0.025965
1624180486610006571,317,1624180486610006571,-0.860227,-0.444646,10.064123,0.721423,0.692348,0.001827,-0.014062,0.013408,-0.07645,0.04293,-0.078621,-0.007897,-0.014338
1624180486710004807,318,1624180486710004807,-0.852047,-0.453133,10.063006,0.721285,0.69249,0.001632,-0.014222,0.02706,-0.073267,0.053011,-0.038574,0.01537,0.004118
1624180486810003042,319,1624180486810003042,-0.838966,-0.465782,10.06371,0.721519,0.692217,0.000426,-0.015626,0.044204,-0.078955,0.06024,0.063162,-0.020094,0.015638
1624180486910001516,320,1624180486910001516,-0.828667,-0.467613,10.066437,0.721162,0.692553,-0.002062,-0.017007,0.052525,-0.058035,0.059575,0.135583,0.007278,0.009139
1624180487009999752,321,1624180487009999752,-0.823488,-0.472304,10.065305,0.721266,0.692404,-0.003609,-0.018352,0.057853,-0.045356,0.052475,0.075581,0.01375,0.002264
1624180487109997988,322,1624180487109997988,-0.804622,-0.476936,10.060184,0.721161,0.692442,-0.005907,-0.020382,0.099824,-0.028275,0.023293,-0.005392,-0.01458,0.00209
1624180487209996223,323,1624180487209996223,-0.778917,-0.474226,10.05481,0.721199,0.692444,-0.00627,-0.01877,0.155767,-0.01066,-0.020046,-0.089457,-0.102243,0.007754
1624180487309994459,324,1624180487309994459,-0.754123,-0.478343,10.05259,0.721331,0.692514,-0.005174,-0.008831,0.182452,-0.002271,-0.006597,-0.107122,-0.154044,0.012227
1624180487409992695,325,1624180487409992695,-0.716614,-0.480325,10.046511,0.721388,0.692502,-0.006185,0.000755,0.217437,0.019053,-0.029668,-0.154322,-0.232193,0.003978
1624180487509990931,326,1624180487509990931,-0.692468,-0.480558,10.036639,0.721413,0.692187,-0.013275,0.016226,0.200258,0.054336,-0.067888,-0.115133,-0.321669,0.014655
1624180487609989166,327,1624180487609989166,-0.671441,-0.475935,10.032837,0.721296,0.691585,-0.023162,0.030082,0.174084,0.13369,-0.064764,0.001444,-0.327573,0.011508
1624180487709987402,328,1624180487709987402,-0.64906,-0.458406,10.027672,0.720542,0.691124,-0.036118,0.043142,0.157761,0.266804,-0.031192,-0.019588,-0.237063,0.00328
1624180487809985638,329,1624180487809985638,-0.616176,-0.424689,10.035886,0.720616,0.691291,-0.034085,0.040821,0.164586,0.45793,0.153705,0.047061,0.35967,0.003555
1624180487909983873,330,1624180487909983873,-0.591275,-0.379309,10.045838,0.720877,0.691948,-0.027041,0.028505,0.139976,0.548428,0.106383,0.360575,0.200861,-0.007634
1624180488009982109,331,1624180488009982109,-0.563325,-0.317803,10.060361,0.721085,0.692093,-0.032171,0.002756,0.165527,0.651148,0.155133,0.458692,0.31919,-0.015109
1624180488109980345,332,1624180488109980345,-0.536182,-0.250999,10.075332,0.720798,0.69187,-0.033779,-0.024986,0.233968,0.694227,0.14173,0.377175,0.288596,-0.012708
1624180488209978819,333,1624180488209978819,-0.507191,-0.176257,10.079982,0.720186,0.691317,-0.036523,-0.045578,0.325069,0.719342,0.062862,0.161506,0.187955,-0.003159
1624180488309977055,334,1624180488309977055,-0.452539,-0.10423,10.076395,0.719897,0.690876,-0.036101,-0.055979,0.458043,0.715726,0.027547,0.185206,0.157056,0.012141
1624180488409975290,335,1624180488409975290,-0.404762,-0.036141,10.075383,0.719278,0.690955,-0.036954,-0.062073,0.564359,0.6943,0.006724,0.022996,0.030667,0.010347
1624180488509973526,336,1624180488509973526,-0.334099,0.026668,10.076726,0.719462,0.690929,-0.034812,-0.061462,0.696528,0.661707,0.027583,-0.072936,0.003938,-0.000514
1624180488609971762,337,1624180488609971762,-0.241652,0.095523,10.072154,0.720035,0.691317,-0.026772,-0.053969,0.842427,0.657824,0.031753,-0.267596,-0.017043,-0.009341
1624180488709969997,338,1624180488709969997,-0.147179,0.159842,10.075307,0.720443,0.691909,-0.017573,-0.04374,0.935676,0.644846,0.057658,-0.452109,-0.032798,-0.018755
1624180488809968233,339,1624180488809968233,-0.048212,0.226386,10.084435,0.720935,0.692414,-0.003995,-0.028234,0.983043,0.643764,0.094156,-0.426751,-0.037522,-0.017075
1624180488909966469,340,1624180488909966469,0.061733,0.29299,10.099483,0.721089,0.692611,0.0165,-0.006849,0.991852,0.651741,0.141549,-0.518743,0.049057,-0.023712
1624180489009964705,341,1624180489009964705,0.167218,0.363843,10.110172,0.720494,0.692749,0.031104,0.004319,0.928027,0.665937,0.132593,-0.181672,0.062966,-0.006936
1624180489109962940,342,1624180489109962940,0.264041,0.431953,10.122272,0.720531,0.692589,0.033624,0.004765,0.853302,0.658592,0.119453,-0.001551,-0.024125,0.002115
1624180489209961176,343,1624180489209961176,0.357462,0.492192,10.135337,0.720696,0.692452,0.032983,0.004285,0.789828,0.637938,0.133589,0.039369,0.002997,0.000958
1624180489309959412,344,1624180489309959412,0.441493,0.55188,10.148085,0.720896,0.692358,0.030701,0.002189,0.726398,0.614304,0.142515,0.115673,0.008335,0.007599
1624180489409957886,345,1624180489409957886,0.519116,0.605713,10.1609,0.721046,0.692244,0.029789,-0.000913,0.671693,0.593289,0.168236,0.107747,0.072763,0.011935
1624180489509956121,346,1624180489509956121,0.601632,0.659718,10.173451,0.720903,0.692065,0.03523,-0.010151,0.641222,0.567053,0.218221,0.098101,0.311593,0.005366
1624180489609954357,347,1624180489609954357,0.67465,0.714911,10.194279,0.720023,0.691792,0.048256,-0.025716,0.608223,0.511744,0.273045,0.006664,0.41352,0.009765
1624180489709952593,348,1624180489709952593,0.746749,0.762963,10.217058,0.719084,0.690503,0.064656,-0.044068,0.575945,0.412271,0.253269,0.098311,0.403281,0.014937
1624180489809950829,349,1624180489809950829,0.807858,0.798291,10.217784,0.719133,0.690184,0.065665,-0.046691,0.529513,0.284852,0.015727,-0.006787,-0.296478,0.004181
1624180489909949064,350,1624180489909949064,0.867548,0.817163,10.211138,0.720189,0.690747,0.04821,-0.043248,0.495092,0.162548,0.018133,0.294531,-0.244018,0.02862
1624180490009947300,351,1624180490009947300,0.931672,0.826096,10.204022,0.720429,0.691593,0.028306,-0.043342,0.493537,0.075116,-0.01208,0.305201,-0.302369,0.036633
1624180490109945536,352,1624180490109945536,0.983376,0.826822,10.199102,0.720597,0.69209,0.010803,-0.040418,0.502235,0.014384,0.004868,0.190808,-0.21591,0.029865
1624180490209943771,353,1624180490209943771,1.041294,0.82196,10.194892,0.720498,0.692334,-0.00344,-0.039281,0.534958,-0.023997,0.025853,0.145428,-0.212054,0.008915
1624180490309942007,354,1624180490309942007,1.101983,0.817493,10.194164,0.720185,0.692481,-0.01343,-0.040277,0.590725,-0.0205,0.038743,0.067062,-0.11454,0.005117
1624180490409940243,355,1624180490409940243,1.1824,0.813608,10.1953,0.72024,0.692206,-0.01932,-0.041592,0.685595,-0.020418,0.057296,0.069088,-0.033624,0.004218
1624180490509938478,356,1624180490509938478,1.256842,0.817736,10.198936,0.720015,0.692283,-0.022346,-0.042684,0.75282,0.000735,0.07156,0.071619,-0.01835,0.003046
1624180490609936953,357,1624180490609936953,1.344162,0.818872,10.208995,0.719782,0.692315,-0.024255,-0.044993,0.846394,0.006501,0.099791,-0.068102,-0.013917,-0.001802
1624180490709935188,358,1624180490709935188,1.446388,0.82148,10.216236,0.719907,0.692526,-0.021113,-0.041152,0.937426,0.017051,0.112919,-0.045569,0.007436,0.003658
1624180490809933424,359,1624180490809933424,1.553521,0.824287,10.220775,0.72004,0.692578,-0.019443,-0.038713,1.013597,0.027634,0.107143,0.019605,0.008373,0.005244
1624180490909931660,360,1624180490909931660,1.675238,0.826014,10.229943,0.720156,0.692524,-0.019617,-0.037414,1.108377,0.033055,0.094795,-0.032385,-0.033766,0.006757
