time,field.header.seq,field.header.stamp,field.pose.pose.position.x,field.pose.pose.position.y,field.pose.pose.position.z,field.pose.pose.orientation.x,field.pose.pose.orientation.y,field.pose.pose.orientation.z,field.pose.pose.orientation.w,field.twist.twist.linear.x,field.twist.twist.linear.y,field.twist.twist.linear.z,field.twist.twist.angular.x,field.twist.twist.angular.y,field.twist.twist.angular.z
1624182043131761074,2,1624182043131761074,-0.00056,0.00691,-0.000628,0.999713,0.000106,0.019454,-0.013976,0.011179,-0.0323,0.012635,0.012919,0.004402,-0.005924
1624182043231758356,3,1624182043231758356,-0.002402,0.009531,-0.000508,0.999713,0.000115,0.019409,-0.014007,0.002693,-0.019645,0.012149,0.011163,0.000966,-0.005668
1624182043331755638,4,1624182043331755638,-0.003183,0.008369,-0.001025,0.999714,0.000132,0.01938,-0.013991,-7e-05,-0.019621,0.008904,0.010214,0.002422,-0.005335
1624182043431752920,5,1624182043431752920,-0.004055,0.007718,-0.001534,0.999711,0.000165,0.019475,-0.014037,-0.00275,-0.019097,0.007007,0.010121,0.002709,-0.004203
1624182043531750441,6,1624182043531750441,-0.006157,0.009932,-0.002026,0.999713,0.000156,0.019374,-0.014028,-0.007622,-0.011634,0.006161,0.011029,0.002803,-0.004959
1624182043631747723,7,1624182043631747723,-0.007312,0.011113,-0.002393,0.999714,-5.3e-05,0.019375,-0.014001,-0.008931,-0.007763,0.006762,0.010134,0.001364,-0.005097
1624182043731745005,8,1624182043731745005,-0.006838,0.014094,-0.000285,0.999719,-3.4e-05,0.019141,-0.013971,-0.004911,-0.001633,0.012364,0.010831,0.003232,-0.005505
1624182043831742287,9,1624182043831742287,-0.006465,0.014399,-0.000283,0.999716,8e-06,0.019223,-0.014014,-0.003171,-0.002375,0.012104,0.009666,0.00163,-0.006488
1624182043931739569,10,1624182043931739569,-0.00625,0.012303,-0.000892,0.999711,0.000125,0.019471,-0.014073,-0.003715,-0.006251,0.010619,0.013664,0.004642,-0.005192
1624182044031737089,11,1624182044031737089,-0.004776,0.010053,-0.0019,0.999708,0.00015,0.019586,-0.014086,-0.00066,-0.010289,0.007255,0.010022,0.001893,-0.005213
1624182044131734371,12,1624182044131734371,-0.005691,0.014511,-0.002021,0.999712,9.3e-05,0.019444,-0.014034,-0.001791,-0.000488,0.005881,0.010918,0.002737,-0.005365
1624182044231731653,13,1624182044231731653,-0.005702,0.012479,-0.002065,0.999711,0.000139,0.019469,-0.014079,-0.001966,-0.004322,0.006139,0.009589,0.001837,-0.005177
1624182044331728935,14,1624182044331728935,-0.006633,0.012739,-0.00234,0.999711,0.0002,0.019442,-0.014085,-0.003991,-0.005403,0.005408,0.011805,0.002314,-0.005468
1624182044431726217,15,1624182044431726217,-0.004633,0.014727,-0.002064,0.999709,0.000134,0.019547,-0.014095,0.001184,-0.001577,0.006577,0.013551,0.00373,-0.006662
1624182044531723499,16,1624182044531723499,-0.005541,0.011687,-0.001013,0.999712,0.000163,0.019403,-0.01407,-0.002206,-0.008232,0.009647,0.009059,0.002626,-0.005462
1624182044631721020,17,1624182044631721020,-0.004596,0.011588,0.000139,0.999718,7.6e-05,0.019117,-0.014025,0.001272,-0.006768,0.011897,0.011381,0.003019,-0.005011
1624182044731718302,18,1624182044731718302,-0.005033,0.010357,-0.001049,0.999712,0.000166,0.019413,-0.014055,-0.000555,-0.009383,0.008452,0.010777,0.004108,-0.004099
1624182044831715584,19,1624182044831715584,-0.004945,0.010118,-0.001174,0.999708,0.000121,0.019599,-0.014102,-0.001149,-0.009294,0.008395,0.011525,0.003153,-0.00445
1624182044931712866,20,1624182044931712866,-0.006288,0.010952,-0.001259,0.999714,0.000122,0.019332,-0.014022,-0.004035,-0.00707,0.007137,0.013052,0.003548,-0.005904
1624182045031710148,21,1624182045031710148,-0.005451,0.009006,-0.001135,0.999715,0.0001,0.019279,-0.014027,-0.00199,-0.011194,0.007676,0.011005,0.002325,-0.006077
1624182045131707668,22,1624182045131707668,-0.007797,0.011159,-0.002225,0.999712,-1e-06,0.019443,-0.014029,-0.007105,-0.006728,0.00469,0.008672,0.006126,-0.003833
1624182045231704950,23,1624182045231704950,-0.006669,0.010566,-0.002739,0.999711,4.4e-05,0.01948,-0.014074,-0.003588,-0.006707,0.004595,0.01037,0.004638,-0.005342
1624182045331702232,24,1624182045331702232,-0.00681,0.010788,-0.002162,0.999712,5.5e-05,0.019411,-0.014067,-0.003815,-0.006109,0.007027,0.011911,0.005276,-0.005419
1624182045431699514,25,1624182045431699514,-0.003973,0.009391,-0.002294,0.999712,0.000179,0.019378,-0.014087,0.003265,-0.008863,0.007818,0.010714,0.002406,-0.004503
1624182045531696796,26,1624182045531696796,-0.004522,0.010856,-0.002598,0.99971,0.000182,0.019499,-0.014099,0.000428,-0.006063,0.006868,0.010709,0.001766,-0.005533
1624182045631694317,27,1624182045631694317,-0.005837,0.015514,-0.000563,0.999718,4e-06,0.01916,-0.014016,-0.001533,0.002967,0.012096,0.010442,0.001294,-0.004255
1624182045731691599,28,1624182045731691599,-0.004371,0.012313,-0.001185,0.999713,0.000108,0.019376,-0.014076,0.000609,-0.004161,0.010956,0.00889,0.002946,-0.004658
1624182045831688881,29,1624182045831688881,-0.005611,0.0113,-0.000895,0.999715,9.2e-05,0.019245,-0.014071,-0.002896,-0.006327,0.011346,0.010771,0.002619,-0.004942
1624182045931686163,30,1624182045931686163,-0.006864,0.011177,-0.000585,0.999715,9.9e-05,0.019273,-0.014042,-0.005644,-0.007219,0.011491,0.010278,0.002531,-0.005614
1624182046031683445,31,1624182046031683445,-0.005652,0.013401,-0.001233,0.999712,0.000119,0.01942,-0.014052,-0.002191,-0.002082,0.009109,0.011216,0.002729,-0.004758
1624182046131680727,32,1624182046131680727,-0.004319,0.014202,-0.001649,0.999711,0.000161,0.01945,-0.014078,0.0011,-0.000847,0.008216,0.013017,0.003517,-0.005594
1624182046231678247,33,1624182046231678247,-0.003823,0.011604,-0.001565,0.999711,0.000264,0.019448,-0.01408,0.001078,-0.008058,0.007728,0.009678,0.001978,-0.004748
1624182046331675529,34,1624182046331675529,-0.00293,0.008293,-0.002201,0.999709,0.000235,0.019513,-0.014119,0.001967,-0.012944,0.006385,0.011756,0.001825,-0.006411
1624182046431672812,35,1624182046431672812,-0.00081,0.00757,-0.002388,0.999711,0.000303,0.019447,-0.014065,0.005769,-0.013369,0.007565,0.010001,0.003436,-0.004091
1624182046531670094,36,1624182046531670094,0.001407,0.002113,-0.001917,0.999711,0.000416,0.019441,-0.014119,0.008739,-0.022627,0.009715,0.013392,0.003047,-0.00592
1624182046631667376,37,1624182046631667376,0.001916,0.003629,-0.002954,0.99971,0.000389,0.019531,-0.014079,0.00731,-0.016763,0.007718,0.012745,0.001837,-0.006159
1624182046731664896,38,1624182046731664896,0.002525,0.006176,-0.002656,0.999712,0.000268,0.019436,-0.014058,0.006865,-0.009046,0.008503,0.014452,0.004422,-0.005801
1624182046831662178,39,1624182046831662178,0.002138,0.004518,-0.002239,0.999713,0.000362,0.019394,-0.014054,0.003078,-0.011734,0.010688,0.010131,0.003866,-0.005575
1624182046931659460,40,1624182046931659460,0.002468,0.006972,-0.003049,0.999708,0.00037,0.019606,-0.014085,0.001913,-0.004586,0.008011,0.012996,0.001986,-0.005334
1624182047031656742,41,1624182047031656742,0.000859,0.00734,-0.003342,0.999705,0.000252,0.019718,-0.014144,-0.00398,-0.003669,0.007479,0.013742,0.004819,-0.006123
1624182047131654024,42,1624182047131654024,0.001626,0.006558,-0.00346,0.999709,0.000279,0.019528,-0.014115,-0.001843,-0.00554,0.007266,0.009504,0.002458,-0.005308
1624182047231651306,43,1624182047231651306,0.001489,0.004592,-0.003298,0.99971,0.00036,0.019508,-0.014106,-0.003187,-0.00979,0.00894,0.009026,0.001484,-0.00525
1624182047331648827,44,1624182047331648827,0.001133,0.004549,-0.002444,0.999712,0.000342,0.019443,-0.01406,-0.003211,-0.008468,0.011019,0.007694,0.001979,-0.003912
1624182047431646109,45,1624182047431646109,0.002509,0.006073,-0.001526,0.999711,0.000341,0.019471,-0.014065,0.000492,-0.004641,0.013304,0.011372,0.003733,-0.00536
1624182047531643391,46,1624182047531643391,0.000212,0.007872,-0.000143,0.999716,0.000275,0.01928,-0.013998,-0.004946,-0.001962,0.014715,0.010951,0.002007,-0.004733
1624182047631640673,47,1624182047631640673,0.000715,0.009006,9.7e-05,0.999715,0.000308,0.019304,-0.014018,-0.003263,0.000698,0.014645,0.010374,0.00308,-0.004658
1624182047731637955,48,1624182047731637955,-0.000808,0.006418,-3.7e-05,0.999711,0.000209,0.019455,-0.014084,-0.007874,-0.005452,0.012689,0.014772,0.004072,-0.005401
1624182047831635475,49,1624182047831635475,-0.00131,0.006186,-0.000896,0.999712,0.000185,0.019451,-0.014045,-0.007906,-0.005212,0.009163,0.011474,0.001969,-0.005168
1624182047931632757,50,1624182047931632757,-0.001832,0.006568,-0.001577,0.999711,7.5e-05,0.019499,-0.014024,-0.008288,-0.005577,0.006756,0.010109,0.002545,-0.004271
1624182048031630039,51,1624182048031630039,-0.002819,0.010313,-0.001261,0.999713,7.4e-05,0.019411,-0.01403,-0.008772,0.002345,0.008162,0.011304,0.004076,-0.006353
1624182048131627321,52,1624182048131627321,-0.001148,0.00577,-0.00247,0.999712,0.000265,0.01941,-0.014053,-0.003994,-0.007295,0.005524,0.01142,0.000786,-0.005046
1624182048231624603,53,1624182048231624603,-0.003076,0.010497,-0.001754,0.999712,0.000264,0.019423,-0.014057,-0.00737,0.002946,0.008181,0.012788,0.003244,-0.004881
1624182048331622124,54,1624182048331622124,-0.003273,0.010964,-0.00157,0.999714,0.000156,0.019307,-0.014043,-0.006802,0.001524,0.009032,0.010267,0.002179,-0.005421
1624182048431619406,55,1624182048431619406,-0.001637,0.010179,-0.001448,0.999715,0.000217,0.019256,-0.014051,-0.001907,-0.000267,0.008414,0.012583,0.003932,-0.005019
1624182048531616688,56,1624182048531616688,-0.000819,0.008326,-0.001998,0.99971,0.000217,0.019519,-0.014074,-0.001005,-0.005396,0.007106,0.009479,0.003064,-0.003916
1624182048631613970,57,1624182048631613970,0.001212,0.007972,-0.002478,0.999711,0.000303,0.019486,-0.014073,0.002878,-0.005204,0.005956,0.012453,0.002743,-0.005667
1624182048731611252,58,1624182048731611252,0.001274,0.009682,-0.001668,0.999713,0.000333,0.019384,-0.014072,0.002081,-0.002301,0.008421,0.011478,0.003382,-0.006091
1624182048831608534,59,1624182048831608534,0.000575,0.008192,-0.001493,0.999712,0.000241,0.019422,-0.014055,-0.000403,-0.005696,0.008179,0.010631,0.000686,-0.004773
1624182048931606054,60,1624182048931606054,0.00198,0.007293,-0.002784,0.99971,0.000208,0.019491,-0.014085,0.001329,-0.006992,0.005817,0.011909,0.004379,-0.005365
1624182049031603336,61,1624182049031603336,0.000736,0.008291,-0.003114,0.999709,0.000281,0.019563,-0.014104,-0.003521,-0.006186,0.005943,0.011728,0.002611,-0.003754
1624182049131600618,62,1624182049131600618,0.002786,0.001935,-0.003625,0.999708,0.000352,0.019555,-0.014126,-0.000144,-0.017945,0.005823,0.01316,0.004163,-0.006324
1624182049231597900,63,1624182049231597900,0.000996,0.005046,-0.003165,0.999712,0.000327,0.019416,-0.014045,-0.004156,-0.009802,0.00784,0.010968,0.001097,-0.004326
1624182049331595182,64,1624182049331595182,0.002511,0.004411,-0.004273,0.999706,0.000414,0.019682,-0.014111,-0.002057,-0.009929,0.005946,0.012404,0.004059,-0.005006
1624182049431592703,65,1624182049431592703,0.002549,0.003498,-0.003516,0.99971,0.000334,0.019482,-0.014091,-0.001385,-0.010693,0.007728,0.010465,-0.000482,-0.004955
1624182049531589985,66,1624182049531589985,0.001292,0.004079,-0.002807,0.999711,0.000292,0.019445,-0.014063,-0.00404,-0.008745,0.010449,0.011657,0.003073,-0.005135
1624182049631587267,67,1624182049631587267,0.000931,0.004114,-0.003177,0.999713,0.000302,0.019363,-0.014034,-0.004645,-0.007519,0.00854,0.013498,0.004649,-0.006301
1624182049731584549,68,1624182049731584549,0.000128,0.005763,-0.00376,0.999709,0.000206,0.019594,-0.014053,-0.006754,-0.003718,0.008578,0.013161,0.002395,-0.005451
1624182049831581831,69,1624182049831581831,-0.000223,0.004978,-0.00221,0.999712,0.000186,0.019411,-0.014071,-0.006131,-0.00645,0.012759,0.010726,0.001212,-0.005301
1624182049931579351,70,1624182049931579351,0.001713,0.001069,-0.00237,0.999711,0.000263,0.019498,-0.014054,-0.002065,-0.014821,0.012779,0.011864,0.002764,-0.006264
1624182050031576633,71,1624182050031576633,3.9e-05,0.000966,-0.002868,0.999713,0.00027,0.019391,-0.014013,-0.005707,-0.012506,0.009833,0.011167,0.000893,-0.005684
1624182050131573915,72,1624182050131573915,-0.000339,0.006025,-0.003082,0.999712,0.000196,0.01943,-0.014013,-0.005224,-0.000853,0.009391,0.01093,0.002128,-0.005292
1624182050231571198,73,1624182050231571198,-0.002044,0.007889,-0.002196,0.999714,0.000137,0.019331,-0.014007,-0.008217,0.001311,0.011272,0.011367,0.003135,-0.005106
1624182050331568480,74,1624182050331568480,-0.002214,0.007594,-0.002735,0.999715,0.000129,0.019285,-0.01401,-0.007594,0.000176,0.010407,0.010691,0.003764,-0.004861
1624182050431565762,75,1624182050431565762,-0.002378,0.005956,-0.002958,0.999714,0.000194,0.019336,-0.014042,-0.006941,-0.004506,0.00922,0.013292,0.003668,-0.00543
1624182050531563282,76,1624182050531563282,7.5e-05,0.008091,-0.003733,0.999711,0.000217,0.01948,-0.014069,-0.001095,-0.000403,0.007714,0.010991,0.002963,-0.00517
1624182050631560564,77,1624182050631560564,0.000569,0.006647,-0.003336,0.999709,0.000212,0.019549,-0.014066,-0.000551,-0.003529,0.00883,0.009945,0.001713,-0.005155
1624182050731557846,78,1624182050731557846,0.000373,0.006185,-0.003558,0.999712,0.00019,0.019425,-0.014061,-0.001715,-0.00348,0.008673,0.013158,0.003507,-0.005883
1624182050831555128,79,1624182050831555128,-0.00039,0.008474,-0.003386,0.999711,4.2e-05,0.019491,-0.014051,-0.003715,0.001268,0.009643,0.01023,0.002794,-0.005162
1624182050931552410,80,1624182050931552410,0.000279,0.007853,-0.00549,0.999707,0.000247,0.019625,-0.014136,-0.003538,-0.00117,0.004632,0.011513,0.002367,-0.004869
1624182051031549931,81,1624182051031549931,0.000227,0.008225,-0.005001,0.999707,0.000255,0.019607,-0.014121,-0.003735,-0.001304,0.008101,0.0107,0.003782,-0.007
1624182051131547213,82,1624182051131547213,-0.000444,0.008576,-0.003325,0.999708,0.000199,0.019582,-0.014103,-0.004986,-0.001272,0.012533,0.011231,0.001955,-0.004226
1624182051231544495,83,1624182051231544495,-0.001359,0.008644,-0.002591,0.99971,0.000187,0.019522,-0.014082,-0.006911,-0.001514,0.013867,0.0119,0.001783,-0.005213
1624182051331541777,84,1624182051331541777,-0.002224,0.009171,-0.002672,0.999709,0.000165,0.019538,-0.014103,-0.009092,-0.001708,0.012568,0.012271,0.001322,-0.005159
1624182051431539059,85,1624182051431539059,-0.002621,0.012001,-0.002905,0.999712,6.5e-05,0.01945,-0.014053,-0.008087,0.002944,0.011014,0.00903,0.003515,-0.005302
1624182051531536579,86,1624182051531536579,-0.002265,0.013014,-0.002285,0.999714,0.000171,0.019332,-0.014053,-0.006442,0.003489,0.013584,0.013229,0.006204,-0.005119
1624182051631533861,87,1624182051631533861,-0.001877,0.011052,-0.002594,0.999713,0.000156,0.019365,-0.014073,-0.005135,-0.00238,0.011809,0.010168,0.002076,-0.004196
1624182051731531143,88,1624182051731531143,-0.0005,0.011598,-0.003086,0.999712,0.000125,0.019445,-0.014051,-0.00154,-0.001297,0.010517,0.010948,0.000968,-0.005247
1624182051831528425,89,1624182051831528425,0.00092,0.006226,-0.003973,0.99971,0.000115,0.019511,-0.014097,0.000798,-0.012589,0.008693,0.009306,0.003269,-0.003481
1624182051931525707,90,1624182051931525707,0.000152,0.006528,-0.00365,0.999713,1.4e-05,0.019378,-0.014055,-0.001828,-0.011396,0.00949,0.013865,0.003578,-0.00692
1624182052031522989,91,1624182052031522989,-0.001441,0.007721,-0.001752,0.999717,5.4e-05,0.019211,-0.013974,-0.005319,-0.008752,0.01426,0.01005,0.00212,-0.00429
1624182052131520510,92,1624182052131520510,-0.001217,0.009434,-0.002463,0.999712,0.000151,0.019428,-0.014047,-0.005068,-0.004099,0.012069,0.012651,0.003,-0.004825
1624182052231517792,93,1624182052231517792,-0.002007,0.010645,-0.003045,0.99971,0.000123,0.019491,-0.0141,-0.007015,-0.002633,0.010579,0.013209,0.003428,-0.006571
1624182052331515074,94,1624182052331515074,-0.00242,0.013312,-0.002593,0.999714,4.8e-05,0.019362,-0.014021,-0.006593,0.001713,0.010883,0.008499,0.00098,-0.005609
1624182052431512356,95,1624182052431512356,-0.00298,0.014374,-0.001865,0.999714,-5.1e-05,0.01933,-0.014046,-0.007546,0.002286,0.012693,0.012368,0.003931,-0.005761
1624182052531509638,96,1624182052531509638,-0.003896,0.015372,-0.002452,0.999713,5e-05,0.019365,-0.014041,-0.008942,0.002585,0.010918,0.010183,0.002852,-0.005506
1624182052631507158,97,1624182052631507158,-0.005013,0.014141,-0.002683,0.999711,7.9e-05,0.019451,-0.014087,-0.010656,-0.001546,0.00997,0.012578,0.002557,-0.006726
1624182052731504440,98,1624182052731504440,-0.00408,0.012184,-0.002976,0.999711,9.6e-05,0.019487,-0.014051,-0.006651,-0.006992,0.008992,0.011222,0.003075,-0.005943
1624182052831501722,99,1624182052831501722,-0.003901,0.01027,-0.002408,0.999713,4.4e-05,0.019384,-0.01407,-0.005767,-0.009783,0.010817,0.01091,0.002871,-0.004922
1624182052931499004,100,1624182052931499004,-0.00318,0.009838,-0.003429,0.999711,0.000132,0.019446,-0.014075,-0.004065,-0.010299,0.008717,0.009067,0.001371,-0.004302
1624182053031496286,101,1624182053031496286,-0.00329,0.009651,-0.003559,0.999712,1e-06,0.01941,-0.014052,-0.004769,-0.010318,0.00894,0.011335,0.003027,-0.005427
1624182053131493568,102,1624182053131493568,-0.002661,0.009231,-0.00235,0.999716,4.1e-05,0.019263,-0.014006,-0.002242,-0.010498,0.01211,0.010341,0.003105,-0.005219
1624182053231491089,103,1624182053231491089,-0.002742,0.010339,-0.00274,0.999716,2.8e-05,0.019248,-0.014023,-0.002505,-0.008218,0.010457,0.011635,0.001639,-0.006341
1624182053331488371,104,1624182053331488371,-0.003824,0.010833,-0.002273,0.999713,-1.9e-05,0.019387,-0.01406,-0.005637,-0.006361,0.011971,0.01195,0.003282,-0.006598
1624182053431485653,105,1624182053431485653,-0.001572,0.009089,-0.002859,0.999713,0.000168,0.019391,-0.014038,5.1e-05,-0.009252,0.00969,0.00928,0.002645,-0.004889
1624182053531482935,106,1624182053531482935,-0.000686,0.008426,-0.003796,0.999708,0.000121,0.019601,-0.014103,0.000652,-0.009795,0.008445,0.013718,0.002019,-0.006238
1624182053631480217,107,1624182053631480217,-7.5e-05,0.008742,-0.003154,0.999711,0.000119,0.019462,-0.014084,0.001309,-0.008648,0.011158,0.011095,0.001165,-0.004288
1624182053731477737,108,1624182053731477737,-0.001865,0.008219,-0.001645,0.999712,0.000201,0.019414,-0.014093,-0.004288,-0.00888,0.014648,0.010583,0.003017,-0.004749
1624182053831475019,109,1624182053831475019,-0.002461,0.006647,-0.00202,0.999713,4.9e-05,0.019373,-0.014033,-0.004805,-0.011297,0.012721,0.009817,0.001808,-0.00526
1624182053931472301,110,1624182053931472301,-0.003196,0.005644,-0.002628,0.999709,8.5e-05,0.019544,-0.014084,-0.007548,-0.011645,0.010389,0.012367,0.002274,-0.005457
1624182054031469584,111,1624182054031469584,-0.003922,0.00624,-0.00199,0.999712,7e-06,0.019431,-0.014069,-0.008261,-0.009783,0.011961,0.009493,0.001585,-0.004425
1624182054131466866,112,1624182054131466866,-0.003548,0.006365,-0.002049,0.999711,7.1e-05,0.01945,-0.014062,-0.006364,-0.008532,0.011279,0.011509,0.003396,-0.005623
1624182054231464386,113,1624182054231464386,-0.002481,0.007703,-0.002387,0.999709,8.9e-05,0.019578,-0.014044,-0.003066,-0.004818,0.010829,0.010742,-0.000275,-0.004622
1624182054331461668,114,1624182054331461668,-0.00373,0.007795,-0.002005,0.999712,0.000183,0.019426,-0.014058,-0.006065,-0.005391,0.011333,0.010187,0.004536,-0.004649
1624182054431458950,115,1624182054431458950,-0.003542,0.007784,-0.001322,0.999714,5.9e-05,0.019329,-0.014011,-0.004619,-0.006066,0.012104,0.009688,0.002143,-0.004249
1624182054531456232,116,1624182054531456232,-0.001291,0.004118,-0.001908,0.999712,0.000232,0.019413,-0.014062,0.000418,-0.011852,0.010034,0.010522,0.000406,-0.004308
1624182054631453514,117,1624182054631453514,-0.005379,0.010689,-0.001897,0.999716,-9.3e-05,0.019265,-0.014005,-0.00878,0.000642,0.009657,0.01322,0.003516,-0.005954
1624182054731450796,118,1624182054731450796,-0.005635,0.009153,-0.00236,0.999714,0.000214,0.019338,-0.01405,-0.00838,-0.002868,0.00797,0.013116,0.003797,-0.005245
1624182054831448317,119,1624182054831448317,-0.00563,0.011213,-0.003288,0.999711,-2e-06,0.01949,-0.014054,-0.007112,0.001245,0.00644,0.011016,0.002313,-0.00418
1624182054931445599,120,1624182054931445599,-0.003802,0.012281,-0.003376,0.999715,0.000179,0.019293,-0.014024,-0.000701,0.002244,0.007405,0.010153,0.00117,-0.005733
1624182055031442881,121,1624182055031442881,-0.003867,0.012462,-0.003128,0.999714,0.000212,0.019324,-0.014063,-0.001657,0.00221,0.008925,0.011826,0.004122,-0.006122
1624182055131440163,122,1624182055131440163,-0.003705,0.006636,-0.001993,0.999714,0.000176,0.019276,-0.014085,-0.001822,-0.010296,0.012903,0.01342,0.002796,-0.00591
1624182055231437445,123,1624182055231437445,-0.003869,0.00532,-0.002513,0.99971,0.000129,0.019535,-0.014066,-0.003401,-0.012577,0.010701,0.009724,0.001701,-0.004532
1624182055331434965,124,1624182055331434965,-0.002177,0.006373,-0.00352,0.99971,0.000145,0.019526,-0.01409,0.000749,-0.008491,0.007831,0.010617,0.002789,-0.006272
1624182055431432247,125,1624182055431432247,-0.002386,0.009144,-0.003257,0.999713,7.6e-05,0.019368,-0.014069,-4e-06,-0.002117,0.009222,0.011798,0.003127,-0.006512
1624182055531429529,126,1624182055531429529,-0.004134,0.010171,-0.002492,0.999714,1e-06,0.019337,-0.014029,-0.00452,-0.000592,0.01108,0.011046,0.002594,-0.00435
1624182055631426811,127,1624182055631426811,-0.005269,0.011747,-0.002586,0.999716,0.000114,0.019272,-0.014016,-0.006407,0.002093,0.010518,0.011229,0.002036,-0.005436
1624182055731424093,128,1624182055731424093,-0.004051,0.010275,-0.002451,0.999715,0.000127,0.019278,-0.014048,-0.002517,-0.002098,0.010643,0.012908,0.003258,-0.005713
1624182055831421614,129,1624182055831421614,-0.004525,0.011787,-0.001705,0.999717,5e-05,0.019196,-0.013997,-0.003557,-0.000434,0.012265,0.010545,0.004534,-0.005316
1624182055931418896,130,1624182055931418896,-0.0049,0.011745,-0.000278,0.999718,1e-05,0.019161,-0.013995,-0.004283,-0.000262,0.015425,0.011157,0.001886,-0.005426
1624182056031416178,131,1624182056031416178,-0.005452,0.013021,-0.000552,0.999716,-6e-06,0.019261,-0.013982,-0.005554,0.00154,0.013718,0.009328,0.001111,-0.004207
1624182056131413460,132,1624182056131413460,-0.004391,0.014389,-0.001255,0.999715,0.0,0.019297,-0.014015,-0.002539,0.003678,0.010575,0.011083,0.001021,-0.00561
1624182056231410742,133,1624182056231410742,-0.00542,0.016063,-0.000956,0.999716,5.9e-05,0.01926,-0.014015,-0.005562,0.005632,0.012093,0.010588,0.00314,-0.004115
1624182056331408024,134,1624182056331408024,-0.003516,0.010367,-0.002163,0.999712,0.000168,0.019384,-0.014085,-0.002326,-0.007192,0.009639,0.013821,0.00399,-0.006104
1624182056431405544,135,1624182056431405544,-0.004468,0.011179,-0.00242,0.999716,4.9e-05,0.019263,-0.014009,-0.004259,-0.005295,0.009074,0.011227,0.002751,-0.004669
1624182056531402826,136,1624182056531402826,-0.00559,0.010769,-0.002814,0.999714,6e-06,0.019324,-0.014068,-0.006916,-0.006443,0.008468,0.012438,0.002896,-0.005498
1624182056631400108,137,1624182056631400108,-0.004798,0.014366,-0.002658,0.999718,9.1e-05,0.01919,-0.013983,-0.003442,0.001288,0.008979,0.012721,0.001474,-0.007847
1624182056731397390,138,1624182056731397390,-0.005761,0.014545,-0.003458,0.999713,9.7e-05,0.019417,-0.014003,-0.006887,-0.000906,0.007977,0.010261,0.003848,-0.004153
1624182056831394672,139,1624182056831394672,-0.00431,0.011982,-0.003902,0.999709,8.7e-05,0.019542,-0.014082,-0.003551,-0.006941,0.007439,0.012073,0.004532,-0.00622
1624182056931392193,140,1624182056931392193,-0.005601,0.015444,-0.002277,0.999716,-0.000158,0.019276,-0.013989,-0.005732,-0.001392,0.012798,0.009086,0.00462,-0.004953
1624182057031389475,141,1624182057031389475,-0.004091,0.014349,-0.002975,0.999713,2e-06,0.019387,-0.01403,-0.00235,-0.003618,0.010514,0.011319,0.002484,-0.006353
1624182057131386757,142,1624182057131386757,-0.004895,0.013798,-0.001503,0.999715,0.000102,0.019246,-0.014063,-0.003806,-0.005832,0.014791,0.012014,0.003144,-0.004956
1624182057231384039,143,1624182057231384039,-0.005636,0.01193,-0.001036,0.999714,8.2e-05,0.019307,-0.014076,-0.005646,-0.009621,0.014964,0.011933,0.004147,-0.005887
1624182057331381321,144,1624182057331381321,-0.005013,0.010212,-0.002577,0.999708,8.3e-05,0.019576,-0.014139,-0.004954,-0.012532,0.009287,0.010389,0.003296,-0.005542
1624182057431378603,145,1624182057431378603,-0.002919,0.010903,-0.001997,0.999713,-1e-06,0.019368,-0.014075,0.000357,-0.009938,0.011547,0.010449,0.001337,-0.004445
1624182057531376123,146,1624182057531376123,-0.003894,0.007702,-0.003114,0.999711,4e-05,0.019447,-0.014098,-0.003485,-0.014987,0.008062,0.010784,0.004861,-0.006305
1624182057631373405,147,1624182057631373405,-0.004855,0.007148,-0.0027,0.999715,2.4e-05,0.01927,-0.014074,-0.004712,-0.015468,0.009911,0.012962,0.004159,-0.00689
1624182057731370687,148,1624182057731370687,-0.004291,0.009437,-0.002004,0.999714,4.3e-05,0.01932,-0.014043,-0.003355,-0.010035,0.011662,0.01197,0.004177,-0.005466
1624182057831367970,149,1624182057831367970,-0.00171,0.005033,-0.002591,0.999709,0.00019,0.019538,-0.014083,0.001286,-0.016855,0.010608,0.013109,0.004663,-0.006076
1624182057931365252,150,1624182057931365252,-0.0027,0.007072,-0.003668,0.999711,0.000151,0.01946,-0.014063,-0.00182,-0.011307,0.007762,0.012393,0.004226,-0.005861
1624182058031362772,151,1624182058031362772,-0.003547,0.006029,-0.00322,0.999715,2.6e-05,0.019313,-0.014025,-0.003821,-0.012568,0.009226,0.009808,0.003344,-0.00627
1624182058131360054,152,1624182058131360054,-0.006199,0.007067,-0.002547,0.999717,2.4e-05,0.019209,-0.014021,-0.009534,-0.009812,0.009767,0.011188,0.002548,-0.004474
1624182058231357336,153,1624182058231357336,-0.007283,0.009799,-0.002027,0.999716,-5.2e-05,0.019257,-0.014008,-0.010367,-0.003818,0.01134,0.01012,0.003174,-0.005715
1624182058331354618,154,1624182058331354618,-0.0058,0.009005,-0.001159,0.999716,4e-05,0.019248,-0.014033,-0.005048,-0.006153,0.012984,0.010621,0.003985,-0.00554
1624182058431351900,155,1624182058431351900,-0.006282,0.008139,-0.001629,0.999715,0.000129,0.019289,-0.014035,-0.006168,-0.007145,0.011582,0.008765,0.002288,-0.004381
1624182058531349421,156,1624182058531349421,-0.006428,0.010721,-0.002378,0.999716,8.1e-05,0.019243,-0.014017,-0.00577,-0.00215,0.009174,0.01168,0.002886,-0.004802
1624182058631346703,157,1624182058631346703,-0.005107,0.008245,-0.002343,0.999713,0.00011,0.019386,-0.014056,-0.002489,-0.007691,0.010398,0.012368,0.003611,-0.00525
1624182058731343985,158,1624182058731343985,-0.00352,0.010662,-0.002034,0.999714,1.9e-05,0.019316,-0.01405,0.001275,-0.003033,0.012191,0.012849,0.003956,-0.005085
1624182058831341267,159,1624182058831341267,-0.003717,0.008682,-0.003432,0.99971,0.000158,0.019504,-0.014092,-0.001698,-0.007657,0.008892,0.010964,0.001884,-0.005358
1624182058931338549,160,1624182058931338549,-0.003502,0.009697,-0.002332,0.999714,0.000157,0.019336,-0.014036,-0.00103,-0.005416,0.012181,0.009585,0.003657,-0.005402
1624182059031335831,161,1624182059031335831,-0.004214,0.009405,-0.002265,0.999713,8.1e-05,0.01939,-0.014062,-0.003934,-0.007335,0.012743,0.011108,0.004846,-0.00653
1624182059131333351,162,1624182059131333351,-0.004705,0.012327,-0.000656,0.999716,6.2e-05,0.019262,-0.014017,-0.004806,-0.001171,0.016555,0.012738,0.004394,-0.005488
1624182059231330633,163,1624182059231330633,-0.003694,0.011066,-0.000529,0.999716,-3e-05,0.019267,-0.014019,-0.002272,-0.004936,0.015479,0.008791,0.002306,-0.004401
1624182059331327915,164,1624182059331327915,-0.004401,0.013077,-0.000253,0.999717,-4e-06,0.019208,-0.013973,-0.00376,-0.001908,0.014626,0.010275,0.005179,-0.004189
1624182059431325197,165,1624182059431325197,-0.004942,0.016756,-3e-05,0.999714,-4.2e-05,0.019343,-0.014007,-0.004523,0.005091,0.014602,0.011451,0.003834,-0.005928
1624182059531322479,166,1624182059531322479,-0.004414,0.013434,-0.001414,0.999716,5.8e-05,0.019265,-0.014012,-0.003143,-0.003194,0.008934,0.011024,0.002878,-0.004871
1624182059631320000,167,1624182059631320000,-0.004349,0.013322,-0.003379,0.999712,0.000179,0.019405,-0.014085,-0.00399,-0.004031,0.003628,0.012172,0.003656,-0.005392
1624182059731317282,168,1624182059731317282,-0.003593,0.012502,-0.004091,0.999708,0.000166,0.019594,-0.014113,-0.002578,-0.006039,0.003702,0.010079,0.001425,-0.004692
1624182059831314564,169,1624182059831314564,-0.003096,0.011332,-0.003472,0.999712,0.000118,0.019414,-0.014089,-0.001263,-0.007581,0.006316,0.011797,0.003613,-0.00501
1624182059931311846,170,1624182059931311846,-0.004299,0.010663,-0.002318,0.999714,4.3e-05,0.019307,-0.014058,-0.00396,-0.00897,0.010228,0.012408,0.002693,-0.006656
1624182060031309128,171,1624182060031309128,-0.00422,0.009513,-0.003295,0.999711,0.000141,0.019425,-0.014095,-0.004313,-0.011127,0.007729,0.010824,0.002917,-0.005142
1624182060131306648,172,1624182060131306648,-0.002857,0.005723,-0.003895,0.999709,0.000109,0.019593,-0.014019,-0.001061,-0.017233,0.00793,0.009091,0.002298,-0.005639
1624182060231303930,173,1624182060231303930,-0.002286,0.00365,-0.004123,0.99971,0.000257,0.019692,-0.013786,-0.000829,-0.019246,0.00854,0.011345,0.002875,-0.005824
1624182060331301212,174,1624182060331301212,-0.002263,0.001523,-0.003784,0.999716,0.000187,0.019502,-0.013673,-0.000611,-0.019191,0.009894,0.012621,0.003669,-0.005862
1624182060431298494,175,1624182060431298494,4e-05,-0.00163,-0.004538,0.999717,0.000156,0.019583,-0.013485,0.003374,-0.020661,0.008367,0.009515,0.004151,-0.004259
1624182060531295776,176,1624182060531295776,-8e-06,-0.000197,-0.004306,0.999712,0.000301,0.019536,-0.013931,0.001712,-0.015284,0.010235,0.01046,0.002549,-0.005858
1624182060631293058,177,1624182060631293058,-0.001114,-0.000881,-0.00405,0.999711,0.00025,0.019503,-0.013998,-0.002122,-0.014524,0.009976,0.010204,0.002281,-0.005758
1624182060731290579,178,1624182060731290579,-0.002161,0.002033,-0.002909,0.999713,0.000218,0.019394,-0.014,-0.004537,-0.008253,0.011576,0.012066,0.003912,-0.005344
1624182060831287861,179,1624182060831287861,-0.002913,0.002743,-0.002924,0.999715,0.000321,0.019291,-0.014041,-0.005885,-0.006619,0.011071,0.01074,0.002478,-0.004711
1624182060931285143,180,1624182060931285143,-0.004534,0.004133,-0.002175,0.999714,0.000224,0.019372,-0.013999,-0.008913,-0.004973,0.012781,0.013588,0.003886,-0.005854
1624182061031282425,181,1624182061031282425,-0.005234,0.002735,-0.002116,0.999713,0.000224,0.019396,-0.01401,-0.008864,-0.007737,0.011164,0.010405,0.00294,-0.004968
1624182061131279707,182,1624182061131279707,-0.004091,0.004704,-0.002909,0.999712,0.000327,0.019444,-0.014011,-0.005497,-0.003137,0.008928,0.010498,0.002266,-0.004619
1624182061231277227,183,1624182061231277227,-0.004695,0.006159,-0.001194,0.999719,0.000109,0.019107,-0.013982,-0.004336,-0.001107,0.01252,0.009399,0.002463,-0.004405
1624182061331274509,184,1624182061331274509,-0.00369,0.00755,-0.002035,0.999711,0.000246,0.019457,-0.014052,-0.002494,0.00055,0.010066,0.011354,0.002732,-0.005008
1624182061431271791,185,1624182061431271791,-0.003658,0.006855,-0.002503,0.999711,0.00026,0.019433,-0.014089,-0.002797,-0.002339,0.0084,0.013262,0.005758,-0.006341
1624182061531269073,186,1624182061531269073,-0.003303,0.005177,-0.00271,0.999708,0.000243,0.019595,-0.014071,-0.002164,-0.006927,0.007904,0.012286,0.003293,-0.005426
1624182061631266356,187,1624182061631266356,-0.002692,0.006059,-0.003419,0.999706,0.000276,0.019694,-0.014081,-0.001412,-0.005021,0.006756,0.010823,0.002597,-0.006567
1624182061731263638,188,1624182061731263638,-0.002711,0.005605,-0.00369,0.999709,0.000104,0.019553,-0.014071,-0.001616,-0.006349,0.007527,0.008984,0.002744,-0.004929
1624182061831261158,189,1624182061831261158,-0.003294,0.00725,-0.003464,0.999707,0.000187,0.019652,-0.014101,-0.003754,-0.004151,0.008062,0.013596,0.002823,-0.006064
1624182061931258440,190,1624182061931258440,-0.003235,0.005758,-0.003434,0.99971,0.00017,0.019533,-0.014081,-0.004295,-0.007116,0.00938,0.010995,0.00362,-0.004754
1624182062031255722,191,1624182062031255722,-0.003371,0.003349,-0.004071,0.999707,0.000301,0.019635,-0.014116,-0.005278,-0.011211,0.008297,0.010606,0.001063,-0.004868
1624182062131253004,192,1624182062131253004,-0.003535,0.003782,-0.003692,0.99971,0.000179,0.019537,-0.014044,-0.00498,-0.010811,0.009693,0.010438,0.000849,-0.004437
1624182062231250286,193,1624182062231250286,-0.003007,0.002274,-0.003964,0.999707,0.000251,0.019639,-0.014114,-0.00452,-0.012692,0.00984,0.011448,0.002606,-0.005465
1624182062331247807,194,1624182062331247807,-0.002323,0.003077,-0.003192,0.999709,0.00025,0.019575,-0.014059,-0.002476,-0.011062,0.011635,0.010781,0.003132,-0.004435
1624182062431245089,195,1624182062431245089,-0.002325,0.003706,-0.001974,0.999714,0.000267,0.019345,-0.014043,-0.002618,-0.008917,0.013409,0.011439,0.003368,-0.006136
1624182062531242371,196,1624182062531242371,-0.001317,0.005755,-0.000467,0.999714,0.000295,0.019331,-0.014028,0.000318,-0.005363,0.01659,0.010135,0.004177,-0.005936
1624182062631239653,197,1624182062631239653,-0.002541,0.006934,0.001463,0.999718,0.000283,0.019143,-0.013978,-0.001721,-0.00361,0.018897,0.009435,0.000503,-0.005535
1624182062731236935,198,1624182062731236935,-0.005618,0.008227,0.002751,0.999717,0.000215,0.019214,-0.014009,-0.008437,-0.002251,0.019705,0.012363,0.001969,-0.005241
1624182062831234455,199,1624182062831234455,-0.003794,0.008849,0.001489,0.999714,0.000173,0.019373,-0.014004,-0.003424,-0.002352,0.01366,0.009778,0.002426,-0.005014
1624182062931231737,200,1624182062931231737,-0.003351,0.009962,0.001918,0.999716,0.000225,0.019221,-0.014018,-0.001785,-0.000795,0.013707,0.010945,0.002985,-0.00492
1624182063031229019,201,1624182063031229019,-0.003938,0.011017,0.001933,0.999714,0.000217,0.019356,-0.014014,-0.003749,4.3e-05,0.013414,0.009908,0.002257,-0.00474
1624182063131226301,202,1624182063131226301,-0.000292,0.003472,0.000347,0.99971,0.00033,0.019519,-0.014085,0.003513,-0.014657,0.00873,0.009531,0.00352,-0.004624
1624182063231223583,203,1624182063231223583,7.2e-05,0.000851,-0.000787,0.999709,0.000319,0.019553,-0.014107,0.001572,-0.019654,0.0067,0.011709,0.00159,-0.005442
1624182063331220865,204,1624182063331220865,3e-06,-0.000891,-0.000796,0.99971,0.000272,0.019522,-0.01404,0.00054,-0.02139,0.006958,0.01008,0.001393,-0.004945
1624182063431218386,205,1624182063431218386,-0.000769,-0.000557,0.000226,0.999714,0.000414,0.019321,-0.014025,-0.001233,-0.01801,0.01018,0.014268,0.005801,-0.005995
1624182063531215668,206,1624182063531215668,-0.001855,0.002133,1.1e-05,0.999714,0.00027,0.019341,-0.014005,-0.002809,-0.01208,0.009374,0.011516,0.001216,-0.005586
1624182063631212950,207,1624182063631212950,-0.002629,-0.001155,4.1e-05,0.999711,0.000366,0.01947,-0.014056,-0.005664,-0.017553,0.009361,0.013196,0.002103,-0.006494
1624182063731210232,208,1624182063731210232,-0.003362,-0.000253,-0.000237,0.999711,0.000249,0.019489,-0.014042,-0.005975,-0.014589,0.007804,0.009297,0.000805,-0.00448
1624182063831207514,209,1624182063831207514,-0.003359,0.00051,-0.000996,0.99971,0.000322,0.019519,-0.014041,-0.005584,-0.011187,0.006252,0.010964,0.004745,-0.005235
1624182063931205034,210,1624182063931205034,-0.004302,0.001314,-0.000877,0.999713,0.000255,0.019395,-0.014034,-0.007015,-0.00957,0.007028,0.009552,0.002138,-0.005232
1624182064031202316,211,1624182064031202316,-0.003925,0.004186,-0.00081,0.999713,0.000277,0.019385,-0.014028,-0.005217,-0.003683,0.00889,0.010951,0.003195,-0.005233
1624182064131199598,212,1624182064131199598,-0.003386,0.002211,-0.000548,0.999714,0.000261,0.019349,-0.014043,-0.003343,-0.007378,0.010203,0.008704,0.002798,-0.004577
1624182064231196880,213,1624182064231196880,-0.002463,-0.000112,-0.002719,0.999708,0.000354,0.019591,-0.0141,-0.00262,-0.012277,0.005575,0.012642,0.003028,-0.005362
1624182064331194162,214,1624182064331194162,-0.001796,0.002388,-0.001646,0.999714,0.000386,0.019322,-0.01402,-3.4e-05,-0.008433,0.008834,0.009294,0.001931,-0.005276
1624182064431191683,215,1624182064431191683,-0.00133,0.002361,-0.001963,0.99971,0.000226,0.019538,-0.014074,-0.000509,-0.008659,0.008765,0.010125,0.001921,-0.005151
1624182064531188965,216,1624182064531188965,-0.001672,0.007255,-2.4e-05,0.999712,0.0003,0.019448,-0.014024,-0.000904,0.001324,0.013584,0.011729,0.001521,-0.004344
1624182064631186247,217,1624182064631186247,-0.002011,0.006391,-0.001278,0.999709,0.000342,0.019561,-0.01406,-0.003294,-0.002669,0.010003,0.011192,0.00212,-0.004562
1624182064731183529,218,1624182064731183529,-0.000603,0.00374,-0.001451,0.999708,0.000324,0.019597,-0.014086,-0.00042,-0.009135,0.01062,0.011979,0.004006,-0.005335
1624182064831180811,219,1624182064831180811,-0.001853,0.006574,-0.001378,0.99971,0.000288,0.019518,-0.014057,-0.003829,-0.004052,0.010834,0.010173,0.003571,-0.005553
1624182064931178093,220,1624182064931178093,-0.001491,0.007492,-0.002033,0.999709,0.00026,0.019582,-0.014043,-0.003433,-0.002832,0.009024,0.009222,0.000831,-0.005039
1624182065031175613,221,1624182065031175613,-0.003122,0.007723,-0.002025,0.99971,0.000179,0.019504,-0.014075,-0.007145,-0.003501,0.009066,0.011964,0.003231,-0.006043
1624182065131172895,222,1624182065131172895,-0.002583,0.00266,-0.002776,0.99971,0.000279,0.019515,-0.014079,-0.006005,-0.013169,0.00759,0.009611,0.003131,-0.004444
1624182065231170177,223,1624182065231170177,-0.002201,0.00021,-0.002239,0.999708,0.000269,0.019611,-0.01405,-0.005522,-0.016452,0.009872,0.009345,0.000683,-0.005016
1624182065331167459,224,1624182065331167459,-0.001309,0.000844,-0.002289,0.999709,0.000272,0.019571,-0.014037,-0.002598,-0.012947,0.00961,0.011029,0.001529,-0.004873
1624182065431164742,225,1624182065431164742,-0.002553,0.002122,-0.002486,0.999709,8.9e-05,0.019607,-0.014045,-0.005353,-0.009508,0.009384,0.011506,0.0044,-0.004421
1624182065531162262,226,1624182065531162262,-0.00162,0.003099,-0.002134,0.999708,0.000293,0.019611,-0.014068,-0.002863,-0.006145,0.010248,0.011588,0.004693,-0.006447
1624182065631159544,227,1624182065631159544,-0.002651,0.006271,-0.001437,0.99971,0.000228,0.019528,-0.014056,-0.004714,-0.000375,0.011933,0.010641,-7.4e-05,-0.006328
1624182065731156826,228,1624182065731156826,-0.004543,0.008477,-0.00154,0.999711,4.5e-05,0.019465,-0.014042,-0.008119,0.002848,0.009719,0.009049,0.003573,-0.003742
1624182065831154108,229,1624182065831154108,-0.003878,0.009368,-0.001359,0.99971,0.000144,0.019523,-0.014055,-0.005943,0.002891,0.01024,0.011092,0.002086,-0.006002
1624182065931151390,230,1624182065931151390,-0.003816,0.008753,-0.002336,0.999709,0.000152,0.019578,-0.014051,-0.006337,0.00064,0.007774,0.007852,0.003144,-0.003462
1624182066031148911,231,1624182066031148911,-0.003083,0.009074,-0.002015,0.999709,0.000202,0.019547,-0.01408,-0.004069,-2e-06,0.009123,0.008114,0.003022,-0.005686
1624182066131146193,232,1624182066131146193,-0.003053,0.011036,-0.002079,0.999708,-2.7e-05,0.019599,-0.014112,-0.004711,-0.008021,0.009477,0.00169,0.003159,0.02587
1624182066231143475,233,1624182066231143475,-0.003799,0.00856,-0.00208,0.999707,0.000217,0.019722,-0.014008,-0.005593,-0.0025,0.010306,-0.012598,0.001419,-0.01462
1624182066331140757,234,1624182066331140757,-0.003352,0.010453,-0.001654,0.999711,0.000664,0.019543,-0.013942,-0.005261,-0.007301,0.009158,-0.00074,-0.002921,0.010798
1624182066431138039,235,1624182066431138039,-0.003037,0.009653,-0.00128,0.999712,-0.000194,0.019516,-0.013961,-0.005214,-0.009883,0.010858,-0.000744,-0.001155,0.012417
1624182066531135321,236,1624182066531135321,-0.005915,0.009601,-0.001284,0.99971,-5.9e-05,0.019559,-0.013998,-0.011401,-0.001895,0.012076,0.004186,0.004095,-0.015516
1624182066631132841,237,1624182066631132841,-0.004809,0.007633,-0.000864,0.999713,0.000438,0.019407,-0.013987,-0.007518,-0.013745,0.011926,0.002627,-0.002474,0.005776
1624182066731130123,238,1624182066731130123,-0.003686,0.005663,-0.000919,0.999714,-6.5e-05,0.019329,-0.014019,-0.003435,-0.014806,0.010375,0.007101,-0.00642,0.002426
1624182066831127405,239,1624182066831127405,-0.001505,0.00273,-0.001336,0.999712,0.000236,0.019417,-0.01405,-0.000236,-0.014025,0.012529,0.011091,0.004927,-0.013944
1624182066931124687,240,1624182066931124687,-0.00204,-0.00016,-0.001628,0.999711,0.000544,0.01947,-0.014022,-0.00397,-0.021404,0.012019,0.004989,0.003911,0.000132
1624182067031121969,241,1624182067031121969,-0.00322,0.000546,-0.002251,0.99971,6.2e-05,0.019579,-0.014005,-0.006929,-0.018967,0.01198,0.00671,0.008296,-0.000879
1624182067131119490,242,1624182067131119490,-0.003474,0.001844,-0.001535,0.99971,7.1e-05,0.019524,-0.014071,-0.006081,-0.008567,0.014141,0.011947,0.006165,-0.020166
1624182067231116772,243,1624182067231116772,-0.004218,0.006502,8.3e-05,0.999716,0.000311,0.019176,-0.014084,-0.005956,-0.002675,0.014315,0.020527,-0.005403,-0.004107
1624182067331114054,244,1624182067331114054,-0.005673,0.00683,0.000701,0.999721,-0.000114,0.018969,-0.014048,-0.010472,-0.001186,0.016384,0.021535,0.002315,-0.003284
1624182067431111336,245,1624182067431111336,-0.005309,0.007045,-8e-05,0.999713,0.000185,0.019301,-0.014124,-0.009524,0.002081,0.012559,0.032152,-0.000112,-0.016271
1624182067531108618,246,1624182067531108618,-0.005458,0.007974,-2.7e-05,0.999714,0.000185,0.019271,-0.014148,-0.007951,-0.003476,0.012554,0.023807,0.017454,-0.003326
1624182067631105900,247,1624182067631105900,-0.004518,0.007297,0.000592,0.999715,-1.6e-05,0.019369,-0.013947,-0.006714,-0.0019,0.018307,0.002489,0.0346,-0.003957
1624182067731103420,248,1624182067731103420,-0.004433,0.007067,-0.000702,0.999715,0.000108,0.019251,-0.01408,-0.00184,-0.002138,0.006407,0.016757,-0.011359,-0.009465
1624182067831100702,249,1624182067831100702,-0.00299,0.005155,-0.000307,0.999722,0.000298,0.018926,-0.013996,0.001273,-0.00923,0.008991,0.001626,-0.006336,-0.003713
1624182067931097984,250,1624182067931097984,-0.002663,0.002177,-0.00123,0.999727,-0.000179,0.018649,-0.014073,-0.0001,-0.021345,0.012815,0.050234,0.007766,0.005707
1624182068031095266,251,1624182068031095266,-0.000942,0.000393,-0.002067,0.999733,0.000141,0.018596,-0.013702,-0.005098,-0.013878,0.007596,0.022277,-0.000411,-0.000434
1624182068131092548,252,1624182068131092548,0.00067,-0.002749,-0.003477,0.999722,0.000235,0.019115,-0.013778,-0.0051,-0.021695,0.010876,-0.029916,0.000819,0.007456
1624182068231090069,253,1624182068231090069,0.000745,-0.00368,-0.002747,0.999708,9e-06,0.019674,-0.013986,-0.004568,-0.019239,0.014204,0.007793,0.024993,0.004601
1624182068331087351,254,1624182068331087351,-0.000937,-0.002537,-0.00087,0.999693,0.000305,0.020278,-0.014188,-0.001843,-0.012631,0.010776,0.002455,0.012458,-0.006139
1624182068431084633,255,1624182068431084633,-0.003142,0.003364,0.000412,0.999686,0.000284,0.020738,-0.014024,-0.009866,0.001622,0.014896,-0.017717,-0.002017,0.010071
1624182068531081915,256,1624182068531081915,-0.00621,0.006923,0.002088,0.999699,4e-06,0.020133,-0.013983,-0.01127,0.001818,0.013949,-0.01648,-0.017018,0.008765
1624182068631079197,257,1624182068631079197,-0.006152,0.003658,0.002319,0.999708,4e-06,0.0198,-0.013817,-0.00233,-0.006966,0.011806,-0.011488,-0.005639,0.007178
1624182068731076717,258,1624182068731076717,-0.005399,0.003775,0.000625,0.999721,6.4e-05,0.019038,-0.013941,-0.006422,-0.001737,0.000786,-0.020428,-0.044687,0.007739
1624182068831073999,259,1624182068831073999,-0.002501,-0.002192,-0.00045,0.999735,8.4e-05,0.018161,-0.014108,0.004957,-0.013584,0.004532,-0.007514,-0.049838,0.005519
1624182068931071281,260,1624182068931071281,0.000148,-0.012563,-0.003174,0.999756,0.000179,0.017137,-0.013897,0.006632,-0.033861,0.004057,0.002257,-0.018433,0.005687
1624182069031068563,261,1624182069031068563,0.00445,-0.026776,-0.002323,0.999755,0.000416,0.017196,-0.013907,0.004953,-0.05384,0.007715,-0.00842,-0.023339,0.00168
1624182069131065845,262,1624182069131065845,0.00752,-0.039562,-0.001897,0.999759,0.000515,0.01707,-0.013787,0.006179,-0.070035,0.016738,-0.019132,0.005177,-0.000786
1624182069231063128,263,1624182069231063128,0.008461,-0.045076,-0.001905,0.999746,0.000501,0.017852,-0.013699,-0.001495,-0.066911,0.014602,-0.016796,0.00066,-0.001916
1624182069331060648,264,1624182069331060648,0.009887,-0.0473,-0.003367,0.999721,0.000449,0.018962,-0.014061,0.00126,-0.060695,0.01848,0.039794,0.02927,0.005761
1624182069431057930,265,1624182069431057930,0.011456,-0.04774,-0.003378,0.999716,0.000715,0.01934,-0.013835,0.002286,-0.043037,0.013542,-0.043864,0.004581,-0.008411
1624182069531055212,266,1624182069531055212,0.009102,-0.041026,-0.000262,0.999697,0.000627,0.020308,-0.013827,-0.007343,-0.025721,0.039473,-0.014802,0.036072,0.004368
1624182069631052494,267,1624182069631052494,0.004768,-0.027466,0.005021,0.999681,0.000305,0.020473,-0.014781,-0.024604,0.003846,0.076793,0.1145,-0.00992,0.00651
1624182069731049776,268,1624182069731049776,-0.002249,-0.020397,0.021677,0.999654,0.000358,0.022263,-0.013961,-0.043497,0.003862,0.192417,-0.00726,0.028181,-0.009598
1624182069831047297,269,1624182069831047297,-0.014207,-0.011907,0.048609,0.999638,-0.000179,0.02328,-0.013473,-0.074016,0.001798,0.341447,0.07031,0.008229,0.013159
1624182069931044579,270,1624182069931044579,-0.024655,-0.01023,0.083253,0.999734,-0.000449,0.019253,-0.012655,-0.10175,-0.004699,0.407849,-0.054158,-0.111096,-0.002763
1624182070031041861,271,1624182070031041861,-0.030726,-0.020197,0.133847,0.999809,0.000104,0.01499,-0.012483,-0.096257,-0.018908,0.543623,-0.046099,-0.046234,-0.021678
1624182070131039143,272,1624182070131039143,-0.037375,-0.034441,0.188392,0.999854,0.000516,0.012526,-0.011556,-0.087742,-0.055947,0.640373,0.028982,-0.063946,-0.006046
1624182070231036425,273,1624182070231036425,-0.038092,-0.046932,0.249969,0.999871,0.000676,0.011243,-0.011386,-0.065665,-0.0725,0.725813,0.00782,-0.00966,-0.009681
1624182070331033945,274,1624182070331033945,-0.051582,-0.036306,0.33077,0.999912,0.000845,0.008738,-0.009885,-0.073438,-0.034399,0.782074,-0.048709,-0.086446,-0.022531
1624182070431031227,275,1624182070431031227,-0.057608,-0.048957,0.411009,0.999971,0.000646,-0.004134,-0.006254,-0.062768,-0.049291,0.770981,0.06187,-0.331071,0.003243
1624182070531028509,276,1624182070531028509,-0.051543,-0.066045,0.488107,0.999663,0.000836,-0.02535,-0.005345,0.023397,-0.057887,0.821507,0.043261,-0.321552,0.004063
1624182070631025791,277,1624182070631025791,-0.044125,-0.068316,0.571147,0.999216,0.000502,-0.03899,-0.006712,0.127387,-0.045318,0.877236,-0.042226,-0.25274,0.004644
1624182070731023073,278,1624182070731023073,-0.021652,-0.07268,0.665818,0.999205,0.000872,-0.039351,-0.006268,0.274428,-0.02936,1.013715,-0.028795,0.155421,-0.007172
1624182070831020355,279,1624182070831020355,0.004206,-0.067327,0.770432,0.999669,0.001161,-0.02481,-0.006572,0.361913,-0.014288,1.09866,0.055619,0.35112,0.005437
1624182070931017876,280,1624182070931017876,0.035081,-0.06397,0.880189,0.999958,0.001086,-0.004144,-0.008033,0.392913,0.001897,1.12513,0.032821,0.357468,-0.005458
1624182071031015158,281,1624182071031015158,0.071283,-0.061623,0.988867,0.999924,0.000932,0.011014,-0.005378,0.397853,0.015515,1.095973,-0.027177,0.249351,-0.00458
1624182071131012440,282,1624182071131012440,0.113041,-0.060962,1.091567,0.999743,0.001245,0.021108,-0.008101,0.391661,0.021224,1.087123,0.070344,0.188044,0.000488
1624182071231009722,283,1624182071231009722,0.148747,-0.047229,1.199576,0.999572,0.001018,0.027639,-0.009528,0.360847,0.041692,1.101144,0.047352,0.076681,0.006187
1624182071331007004,284,1624182071331007004,0.184668,-0.040485,1.313465,0.999509,0.001042,0.029699,-0.009845,0.337155,0.051073,1.138455,0.02819,0.009923,-0.00199
1624182071431004524,285,1624182071431004524,0.213359,-0.038777,1.431913,0.999525,0.001304,0.02958,-0.008542,0.297071,0.041992,1.180838,0.022312,0.006062,0.00476
1624182071531001806,286,1624182071531001806,0.238293,-0.036516,1.553386,0.999556,0.00122,0.028521,-0.008449,0.258875,0.043027,1.211898,0.016772,-0.027957,-0.002949
1624182071630999088,287,1624182071630999088,0.26678,-0.04527,1.676793,0.999598,0.001475,0.027439,-0.0069,0.236248,0.021048,1.246183,-0.048612,-0.002837,-0.009529
1624182071730996370,288,1624182071730996370,0.291125,-0.051873,1.800686,0.999671,0.001548,0.024978,-0.005594,0.211163,0.003268,1.241264,-0.016656,-0.116981,0.00716
1624182071830993652,289,1624182071830993652,0.309625,-0.045736,1.916492,0.999839,0.001463,0.017722,-0.002082,0.195386,0.025333,1.241159,-0.06834,-0.121685,-0.004016
1624182071930990934,290,1624182071930990934,0.327783,-0.039133,2.034488,0.999895,0.001699,0.01437,-0.000581,0.189493,0.045117,1.247653,-0.042149,-0.016952,-0.006886
1624182072030988455,291,1624182072030988455,0.345727,-0.020083,2.156987,0.999925,0.001872,0.01201,0.000648,0.192965,0.08825,1.238441,-0.0381,-0.021623,-0.00513
1624182072130985737,292,1624182072130985737,0.360953,-0.000704,2.279767,0.999928,0.001691,0.011137,0.003924,0.186886,0.128909,1.244733,-0.075892,-0.038451,0.00313
1624182072230983019,293,1624182072230983019,0.37308,0.017329,2.398482,0.999918,0.001489,0.011224,0.005921,0.176044,0.162672,1.227215,-0.056162,-0.004798,-0.00188
1624182072330980301,294,1624182072330980301,0.384798,0.036684,2.526282,0.999901,0.001599,0.011295,0.008117,0.169736,0.203126,1.228142,0.013465,0.015593,0.005637
1624182072430977583,295,1624182072430977583,0.397121,0.061909,2.649751,0.999918,0.001253,0.01232,0.003051,0.154139,0.243338,1.234232,0.079494,0.021185,0.005567
1624182072530975103,296,1624182072530975103,0.414934,0.090729,2.773588,0.999913,0.001331,0.012651,0.00327,0.160662,0.279064,1.23464,0.026687,0.001594,0.003862
1624182072630972385,297,1624182072630972385,0.433982,0.111867,2.896894,0.999907,0.001748,0.013112,0.00331,0.16326,0.299293,1.24058,0.12052,0.024246,0.004157
1624182072730969667,298,1624182072730969667,0.453947,0.130169,3.014126,0.99988,0.001652,0.014084,-0.00619,0.173876,0.300902,1.225624,0.201649,-0.010305,0.01569
1624182072830966949,299,1624182072830966949,0.470258,0.160838,3.134862,0.999773,0.001651,0.015388,-0.014614,0.16552,0.308729,1.238328,0.089628,0.035556,0.000245
1624182072930964231,300,1624182072930964231,0.488754,0.199018,3.259399,0.999673,0.001794,0.016069,-0.019794,0.166566,0.318497,1.242699,0.111763,0.012365,0.001143
1624182073030961752,301,1624182073030961752,0.50726,0.230386,3.383978,0.999572,0.001695,0.017131,-0.023614,0.164659,0.292663,1.251504,0.069067,0.024531,0.002676
1624182073130959034,302,1624182073130959034,0.523825,0.257593,3.50636,0.999506,0.002128,0.018148,-0.025556,0.15457,0.266083,1.266712,0.017859,0.031733,0.001705
1624182073230956316,303,1624182073230956316,0.531057,0.303409,3.63414,0.999393,0.001613,0.018876,-0.029211,0.125361,0.276975,1.269685,0.007065,-0.014819,-0.001979
1624182073330953598,304,1624182073330953598,0.549725,0.323887,3.761934,0.99951,0.001894,0.017732,-0.025692,0.126438,0.220786,1.267443,-0.182839,-0.047245,-0.005427
1624182073430950880,305,1624182073430950880,0.564145,0.338785,3.888156,0.999739,0.00172,0.015352,-0.016784,0.128957,0.199791,1.297308,-0.15706,-0.043789,-0.000979
1624182073530948162,306,1624182073530948162,0.582507,0.337278,4.016242,0.999883,0.001687,0.013862,-0.006128,0.140923,0.151374,1.298405,-0.220143,-0.016731,0.005895
1624182073630945683,307,1624182073630945683,0.600178,0.34435,4.141166,0.999899,0.001749,0.01312,0.005087,0.148473,0.16531,1.301641,-0.208229,0.006413,0.001403
1624182073730942965,308,1624182073730942965,0.619404,0.355403,4.272965,0.99982,0.001956,0.013069,0.013563,0.162692,0.188745,1.326155,-0.151564,-0.0051,0.003099
1624182073830940247,309,1624182073830940247,0.640199,0.370331,4.407336,0.999742,0.002099,0.01292,0.018556,0.173353,0.234698,1.358594,-0.101154,0.003244,-0.000852
1624182073930937529,310,1624182073930937529,0.655722,0.400589,4.541168,0.999667,0.002076,0.012812,0.022286,0.172568,0.303373,1.362275,-0.027885,-0.005799,0.001566
1624182074030934811,311,1624182074030934811,0.667782,0.435257,4.677446,0.999636,0.001969,0.013758,0.02311,0.161357,0.369622,1.3808,-0.017716,0.011467,0.002575
1624182074130932331,312,1624182074130932331,0.674313,0.475223,4.815149,0.999581,0.002282,0.014029,0.025193,0.136483,0.437707,1.402939,-0.041799,0.022005,0.000615
1624182074230929613,313,1624182074230929613,0.675434,0.537513,4.954419,0.999546,0.001848,0.013697,0.02677,0.109885,0.534221,1.441376,-0.042357,-0.01075,0.002115
1624182074330926895,314,1624182074330926895,0.688645,0.588878,5.099171,0.999443,0.002145,0.01414,0.030134,0.112402,0.602529,1.485433,-0.061393,0.012032,0.00204
1624182074430924177,315,1624182074430924177,0.697019,0.657193,5.248461,0.999404,0.001788,0.014155,0.031427,0.10636,0.698874,1.515859,0.021925,0.002527,0.000635
1624182074530921459,316,1624182074530921459,0.706341,0.741007,5.404771,0.999532,0.001304,0.015248,0.026449,0.104687,0.799112,1.546091,0.150016,0.025407,0.011523
1624182074630918980,317,1624182074630918980,0.711535,0.823002,5.556835,0.999693,0.001185,0.016037,0.018828,0.088304,0.859357,1.559452,0.111702,0.002501,0.011316
1624182074730916262,318,1624182074730916262,0.72519,0.912377,5.715037,0.999764,0.001466,0.015612,0.015017,0.091235,0.911184,1.595722,0.080573,-0.041441,0.005121
1624182074830913544,319,1624182074830913544,0.73419,0.99536,5.874738,0.999837,0.001665,0.013892,0.011394,0.089173,0.929943,1.604185,0.059022,-0.024859,0.001297
1624182074930910826,320,1624182074930910826,0.743683,1.088452,6.036501,0.999875,0.002005,0.011983,0.010035,0.091515,0.953578,1.609633,0.004196,0.006995,0.003341
1624182075030908108,321,1624182075030908108,0.752938,1.186945,6.1882,0.999916,0.002073,0.011518,0.005439,0.099422,0.992433,1.493538,0.129824,-0.026945,0.009243
1624182075130905390,322,1624182075130905390,0.756785,1.293517,6.337508,0.999942,0.001712,0.010602,-9.6e-05,0.095175,1.016834,1.418682,0.112523,-0.008534,0.011133
1624182075230902910,323,1624182075230902910,0.771691,1.398514,6.485392,0.999942,0.001948,0.010337,-0.002298,0.114403,1.027747,1.388246,0.079194,-0.000802,0.001624
1624182075330900192,324,1624182075330900192,0.779363,1.500059,6.618969,0.999878,0.002122,0.011181,-0.010646,0.116871,1.036018,1.329448,0.366908,0.019683,0.016986
1624182075430897474,325,1624182075430897474,0.798213,1.601203,6.753408,0.999532,0.002088,0.012149,-0.027988,0.138713,1.016881,1.343377,0.366702,0.075362,0.004129
1624182075530894756,326,1624182075530894756,0.80379,1.69349,6.889263,0.999178,0.002441,0.016471,-0.036957,0.123822,0.936087,1.356557,0.110608,0.056486,-0.004864
1624182075630892038,327,1624182075630892038,0.814038,1.79281,7.027732,0.998992,0.002534,0.019924,-0.040135,0.121472,0.888239,1.352519,0.020193,0.078129,-0.007451
1624182075730889559,328,1624182075730889559,0.824711,1.878659,7.163501,0.99868,0.00282,0.027545,-0.043249,0.108189,0.813925,1.384088,0.031572,0.148124,-0.011326
1624182075830886841,329,1624182075830886841,0.827305,1.958215,7.302933,0.998559,0.002699,0.033242,-0.042035,0.061078,0.74529,1.377576,0.035977,0.15411,0.001762
1624182075930884123,330,1624182075930884123,0.827473,2.028971,7.429576,0.998498,0.003022,0.036376,-0.040844,0.013467,0.685315,1.243926,-0.061892,-0.03333,-0.001273
1624182076030881405,331,1624182076030881405,0.822788,2.095107,7.550924,0.998739,0.00321,0.031686,-0.038796,-0.037477,0.618487,1.203692,-0.020811,-0.103118,0.012541
1624182076130878687,332,1624182076130878687,0.815744,2.151521,7.67193,0.999135,0.002633,0.025094,-0.033032,-0.060904,0.559808,1.242604,-0.115014,-0.12742,0.002025
1624182076230876207,333,1624182076230876207,0.813818,2.210902,7.801333,0.999238,0.002825,0.019099,-0.033906,-0.065783,0.525818,1.286807,0.022632,-0.1423,0.008928
1624182076330873489,334,1624182076330873489,0.805138,2.260011,7.927902,0.999319,0.002658,0.015016,-0.033598,-0.053675,0.45358,1.326984,-0.153529,-0.025712,0.013193
1624182076430870771,335,1624182076430870771,0.797732,2.300824,8.05627,0.999756,0.003076,0.01282,-0.017719,-0.044516,0.406162,1.290729,-0.364139,-0.040748,0.005008
1624182076530868053,336,1624182076530868053,0.786497,2.339694,8.183445,0.999929,0.002585,0.011244,0.002968,-0.042934,0.405405,1.272502,-0.345665,-0.007004,-0.004816
1624182076630865335,337,1624182076630865335,0.778175,2.382174,8.310313,0.999745,0.002686,0.009914,0.020104,-0.036906,0.453722,1.239551,-0.257007,-0.026629,-0.009453
1624182076730862617,338,1624182076730862617,0.772686,2.440627,8.429562,0.999523,0.002547,0.00977,0.029176,-0.024648,0.541796,1.182076,-0.189947,-0.019389,-0.008323
1624182076830860138,339,1624182076830860138,0.765975,2.502009,8.547552,0.999382,0.002757,0.009264,0.033791,-0.023111,0.628213,1.135856,-0.076097,-0.001504,-0.002138
1624182076930857420,340,1624182076930857420,0.760123,2.563712,8.657051,0.999277,0.002556,0.008941,0.036849,-0.020525,0.698573,1.079736,0.014889,0.00507,0.008971
1624182077030854702,341,1624182077030854702,0.758403,2.631972,8.762734,0.999188,0.00259,0.009513,0.039053,-0.006684,0.778101,1.039901,-0.009214,0.017804,-0.003063
1624182077130851984,342,1624182077130851984,0.750188,2.716061,8.862759,0.999154,0.002639,0.009964,0.039798,-0.012553,0.869482,1.015967,-0.106419,0.029038,-0.005126
1624182077230849266,343,1624182077230849266,0.740848,2.812837,8.968683,0.999115,0.002527,0.010843,0.040555,-0.016433,0.971035,1.029348,0.006116,0.038863,0.007082
1624182077330846786,344,1624182077330846786,0.732668,2.904781,9.067042,0.999124,0.002329,0.011229,0.040239,-0.022015,1.040769,1.002015,0.001863,0.02361,0.010198
1624182077430844069,345,1624182077430844069,0.727667,3.011425,9.171701,0.999128,0.002274,0.01099,0.040193,-0.02106,1.124268,0.946176,0.037513,0.004639,0.003495
1624182077530841351,346,1624182077530841351,0.72234,3.12816,9.256974,0.999275,0.002157,0.011099,0.03635,-0.015564,1.206833,0.90454,0.041935,0.02451,0.006933
1624182077630838633,347,1624182077630838633,0.720596,3.255946,9.345598,0.999492,0.002256,0.011401,0.029668,-0.00656,1.298014,0.917878,0.211483,0.035927,0.014498
1624182077730835915,348,1624182077730835915,0.717252,3.399016,9.435571,0.999744,0.002274,0.012154,0.018896,-0.004245,1.374206,0.860463,0.201181,0.029241,0.005162
1624182077830833197,349,1624182077830833197,0.716785,3.528503,9.52015,0.999867,0.002452,0.012779,0.009748,0.006793,1.386227,0.850872,0.183743,0.040287,0.009679
1624182077930830717,350,1624182077930830717,0.713427,3.669455,9.601272,0.999888,0.002766,0.013564,0.00551,0.010305,1.403513,0.851649,0.105636,-0.002793,0.005792
1624182078030827999,351,1624182078030827999,0.708861,3.809301,9.693344,0.999903,0.002757,0.013549,-0.001017,0.008129,1.406552,0.851942,0.079243,0.001621,0.00677
1624182078130825281,352,1624182078130825281,0.707083,3.949954,9.783858,0.999871,0.002989,0.012736,-0.009276,0.011817,1.404901,0.92451,0.19277,0.018293,0.006835
1624182078230822563,353,1624182078230822563,0.705896,4.096133,9.86932,0.999781,0.002841,0.012673,-0.016388,0.015966,1.391916,0.860054,0.129808,-0.000703,0.011547
1624182078330819845,354,1624182078330819845,0.705306,4.228988,9.94853,0.999709,0.003125,0.012346,-0.020475,0.026688,1.350786,0.821569,0.089906,-0.027701,0.00557
1624182078430817366,355,1624182078430817366,0.703724,4.363822,10.029783,0.999561,0.003158,0.012723,-0.026535,0.029804,1.311005,0.879866,0.06984,0.006863,0.004809
1624182078530814648,356,1624182078530814648,0.706931,4.498668,10.121172,0.999496,0.003316,0.012953,-0.028782,0.042966,1.270982,0.913613,0.104216,0.012259,0.009401
1624182078630811930,357,1624182078630811930,0.707656,4.630002,10.212462,0.999404,0.00318,0.013735,-0.031498,0.052552,1.230282,0.943926,0.055024,0.01021,0.001905
1624182078730809212,358,1624182078730809212,0.712675,4.755033,10.305815,0.9993,0.003254,0.014601,-0.034288,0.057121,1.181916,0.985266,0.044287,0.045625,-0.005893
1624182078830806494,359,1624182078830806494,0.716613,4.864106,10.394699,0.999297,0.003327,0.01532,-0.034048,0.064838,1.113898,0.936158,0.045473,0.004486,-0.002124
1624182078930804014,360,1624182078930804014,0.720085,4.973886,10.4814,0.998939,0.003361,0.015412,-0.043264,0.06999,1.06281,0.89539,0.182202,0.022271,0.006755
1624182079030801296,361,1624182079030801296,0.723801,5.074454,10.566539,0.998821,0.003884,0.015912,-0.045695,0.069282,0.963748,0.930782,-0.063525,-0.008434,-0.001517
1624182079130798578,362,1624182079130798578,0.730343,5.172223,10.650546,0.999069,0.003941,0.016213,-0.039776,0.08212,0.891779,0.911449,-0.12233,0.033507,0.005546
