time,field.header.seq,field.header.stamp,field.pose.pose.position.x,field.pose.pose.position.y,field.pose.pose.position.z,field.pose.pose.orientation.x,field.pose.pose.orientation.y,field.pose.pose.orientation.z,field.pose.pose.orientation.w,field.twist.twist.linear.x,field.twist.twist.linear.y,field.twist.twist.linear.z,field.twist.twist.angular.x,field.twist.twist.angular.y,field.twist.twist.angular.z
1623492362318775654,1,1623492362318775654,0.005272,-0.00089,-0.013754,0.99966,0.000262,0.025677,-0.004373,0.016285,0.012778,0.002758,0.012939,0.003569,-0.006314
1623492362418772221,2,1623492362418772221,0.001327,0.002534,-0.011536,0.99966,0.000164,0.025721,-0.004197,0.002238,0.020912,0.009911,0.010095,0.003945,-0.004608
1623492362518769026,3,1623492362518769026,-0.000466,0.004028,-0.010726,0.999656,0.000453,0.025891,-0.004002,7.2e-05,0.022074,0.007512,0.01341,0.007125,-0.004315
1623492362618765831,4,1623492362618765831,0.000388,0.002317,-0.01093,0.99966,0.000325,0.025689,-0.0044,0.005989,0.01263,0.004126,0.012558,0.003126,-0.004912
1623492362718762398,5,1623492362718762398,0.002252,0.000363,-0.013932,0.999656,0.000231,0.025827,-0.004364,0.012685,0.005289,-0.002832,0.012786,0.003923,-0.003914
1623492362818759203,6,1623492362818759203,0.002813,0.000606,-0.014837,0.999653,0.000343,0.025914,-0.004536,0.014159,0.005795,-0.005355,0.012361,0.002617,-0.004439
1623492362918755770,7,1623492362918755770,0.00402,-0.000588,-0.015808,0.999651,0.000234,0.026023,-0.004513,0.017589,0.001375,-0.005498,0.012402,0.004873,-0.006353
1623492363018752575,8,1623492363018752575,0.00545,-0.001969,-0.016282,0.999659,0.000219,0.02569,-0.004495,0.02091,-0.002475,-0.005999,0.011246,0.003794,-0.004856
1623492363118749380,9,1623492363118749380,0.004622,-0.001776,-0.018884,0.99966,0.000358,0.025745,-0.004079,0.016791,-0.000196,-0.010525,0.010703,0.005674,-0.006032
1623492363218745947,10,1623492363218745947,0.004347,-0.002403,-0.020156,0.999658,0.000344,0.025804,-0.004149,0.015043,-0.000709,-0.012477,0.012728,0.002537,-0.004957
1623492363318742752,11,1623492363318742752,0.003528,-0.002778,-0.021558,0.999663,0.000428,0.025583,-0.0042,0.011791,0.000769,-0.013389,0.012603,0.002167,-0.004021
1623492363418739557,12,1623492363418739557,0.004529,-0.003209,-0.020967,0.999662,0.000336,0.025666,-0.003968,0.014116,0.002116,-0.010059,0.012234,0.002226,-0.005
1623492363518736124,13,1623492363518736124,0.005109,-0.002518,-0.019171,0.999666,0.000195,0.025466,-0.004241,0.016449,0.005191,-0.003613,0.011227,0.003482,-0.005392
1623492363618732929,14,1623492363618732929,0.005049,-0.002229,-0.019496,0.999667,0.000377,0.025412,-0.004298,0.01408,0.006701,-0.00267,0.011297,0.002952,-0.004607
1623492363718729734,15,1623492363718729734,0.003266,-0.001616,-0.015244,0.999663,0.000423,0.025582,-0.004204,0.00849,0.007851,0.004502,0.013316,0.003864,-0.004883
1623492363818726301,16,1623492363818726301,0.004144,-0.001535,-0.016783,0.999659,0.000341,0.025768,-0.004124,0.011182,0.007555,0.000338,0.01339,0.001532,-0.003664
1623492363918723106,17,1623492363918723106,0.004283,-0.001787,-0.019305,0.999657,0.000281,0.025801,-0.004447,0.010947,0.005498,-0.004251,0.013251,0.002523,-0.005139
1623492364018719673,18,1623492364018719673,0.0046,-0.001642,-0.01945,0.999657,0.000166,0.025775,-0.004414,0.010982,0.006211,-0.003196,0.014159,0.00454,-0.004567
1623492364118716478,19,1623492364118716478,0.003343,-0.002351,-0.017863,0.999657,0.000209,0.025756,-0.004617,0.007605,0.003402,0.000823,0.011201,0.005898,-0.003938
1623492364218713284,20,1623492364218713284,0.002275,-0.004036,-0.019578,0.999653,0.000245,0.025964,-0.004433,0.005126,-0.000274,-0.002422,0.011499,0.004832,-0.007002
1623492364318709850,21,1623492364318709850,0.001594,-0.003783,-0.020999,0.999653,4.7e-05,0.025933,-0.004588,0.004489,0.001947,-0.004587,0.012253,0.004044,-0.005008
1623492364418706656,22,1623492364418706656,0.001289,-0.003853,-0.022494,0.999649,0.000117,0.026073,-0.004649,0.00311,0.002411,-0.006672,0.014111,0.00182,-0.00516
1623492364518703461,23,1623492364518703461,0.001974,-0.003498,-0.024646,0.999652,5.7e-05,0.025911,-0.00493,0.007563,0.003367,-0.009538,0.011735,0.001392,-0.005323
1623492364618700027,24,1623492364618700027,0.001807,-0.003219,-0.027176,0.999652,3e-06,0.025878,-0.004931,0.008837,0.003766,-0.012421,0.011996,0.004424,-0.005123
1623492364718696833,25,1623492364718696833,0.002748,-0.003339,-0.029551,0.999651,2.1e-05,0.02597,-0.004784,0.011455,0.004749,-0.015445,0.011339,0.004989,-0.004625
1623492364818693399,26,1623492364818693399,0.003512,-0.002696,-0.027519,0.999647,8.9e-05,0.02612,-0.004784,0.012382,0.005596,-0.008306,0.013752,0.002039,-0.004457
1623492364918690205,27,1623492364918690205,0.001693,-0.001017,-0.026602,0.999648,0.000259,0.02616,-0.004302,0.008077,0.010148,-0.005602,0.011673,0.002245,-0.005802
1623492365018687010,28,1623492365018687010,0.000715,-0.000961,-0.02357,0.999648,0.000147,0.026123,-0.004421,0.006765,0.007683,-0.000282,0.011465,0.004742,-0.00559
1623492365118683577,29,1623492365118683577,0.001505,-0.002779,-0.019842,0.999647,3.4e-05,0.026148,-0.004702,0.009206,0.001094,0.006905,0.011686,0.003709,-0.005723
1623492365218680382,30,1623492365218680382,0.002206,-0.003053,-0.017923,0.999643,0.000166,0.026339,-0.004264,0.0104,0.002496,0.008084,0.012143,0.002536,-0.004469
1623492365318677187,31,1623492365318677187,-0.000344,-0.003707,-0.014122,0.999656,0.000102,0.025899,-0.004054,0.003836,0.003246,0.013087,0.012463,0.003504,-0.005193
1623492365418673754,32,1623492365418673754,-0.001755,-0.003039,-0.011846,0.999655,0.000111,0.025981,-0.003815,0.00267,0.006147,0.014499,0.011358,0.002301,-0.004301
1623492365518670559,33,1623492365518670559,0.000132,-0.003107,-0.013194,0.999652,2.8e-05,0.02605,-0.003918,0.00941,0.006477,0.009457,0.010339,0.000662,-0.003546
1623492365618667364,34,1623492365618667364,0.000247,-0.004325,-0.014546,0.99965,3.3e-05,0.026073,-0.004321,0.008555,0.001731,0.00568,0.011525,0.005387,-0.004659
1623492365718663931,35,1623492365718663931,0.001705,-0.003518,-0.018287,0.999647,-8e-05,0.026168,-0.004561,0.011736,0.004552,-0.001585,0.012295,0.003648,-0.006261
1623492365818660736,36,1623492365818660736,0.001339,-0.00389,-0.016312,0.999655,9e-06,0.025868,-0.004449,0.010164,0.002472,0.001781,0.010544,0.002076,-0.004089
1623492365918657303,37,1623492365918657303,0.00166,-0.003054,-0.016653,0.999653,2.9e-05,0.025942,-0.004401,0.010504,0.005139,-0.00016,0.013287,0.002709,-0.004941
1623492366018654108,38,1623492366018654108,0.000845,-0.004852,-0.016835,0.99965,-6e-06,0.026096,-0.00414,0.007987,-0.001398,-0.000901,0.013363,0.00415,-0.004973
1623492366118650913,39,1623492366118650913,-0.002129,-0.003994,-0.016882,0.999655,0.000119,0.025934,-0.003947,-0.000371,0.003597,0.000576,0.013436,0.004022,-0.005839
1623492366218647480,40,1623492366218647480,-0.001166,-0.00197,-0.016623,0.999655,0.000191,0.025934,-0.004014,0.006787,0.010409,0.000475,0.011954,0.004743,-0.004981
1623492366318644285,41,1623492366318644285,0.001177,-0.003337,-0.017582,0.99965,1.3e-05,0.026125,-0.003923,0.012295,0.006848,-0.000516,0.013466,0.00704,-0.005081
1623492366418641090,42,1623492366418641090,-0.001569,-0.003768,-0.018208,0.999646,-3e-05,0.02629,-0.003953,0.001552,0.005446,-0.000979,0.011348,0.001643,-0.00475
1623492366518637657,43,1623492366518637657,-0.003069,-0.004948,-0.018023,0.99965,1.5e-05,0.026113,-0.004036,-4.8e-05,0.001916,-0.000914,0.011716,0.001525,-0.006423
1623492366618634462,44,1623492366618634462,-0.002021,-0.003828,-0.015286,0.999653,-5e-06,0.026009,-0.003968,0.005829,0.006912,0.003151,0.011063,0.003343,-0.004777
1623492366718631029,45,1623492366718631029,-0.001727,-0.003299,-0.015867,0.999655,0.000159,0.025903,-0.004117,0.007393,0.007777,0.003031,0.012848,0.004225,-0.005368
1623492366818627834,46,1623492366818627834,-0.00096,-0.003677,-0.014394,0.99965,0.00012,0.026063,-0.004316,0.008919,0.007041,0.0058,0.011977,0.002314,-0.005686
1623492366918624640,47,1623492366918624640,-0.001345,-0.001419,-0.0122,0.999658,4.6e-05,0.025793,-0.004245,0.008725,0.013195,0.009741,0.011481,0.004483,-0.004087
1623492367018621206,48,1623492367018621206,-0.002332,0.000123,-0.011115,0.999658,0.0,0.025818,-0.004127,0.00697,0.016122,0.0094,0.011539,0.001788,-0.00414
1623492367118618011,49,1623492367118618011,-0.001675,0.000676,-0.010957,0.99965,4.5e-05,0.026066,-0.00447,0.008885,0.014303,0.00904,0.014418,0.003179,-0.006408
1623492367218614817,50,1623492367218614817,-0.002071,-0.000323,-0.010769,0.999652,2.5e-05,0.025996,-0.004376,0.006932,0.009113,0.007907,0.012024,0.002355,-0.004966
1623492367318611383,51,1623492367318611383,-0.000769,-0.00059,-0.012493,0.999651,-1.1e-05,0.026082,-0.004177,0.009334,0.008169,0.003049,0.011313,0.004641,-0.00558
1623492367418608189,52,1623492367418608189,-0.001274,-0.002451,-0.013449,0.999656,0.000116,0.025846,-0.004409,0.007946,0.001733,-0.000507,0.012353,0.003166,-0.004924
1623492367518604994,53,1623492367518604994,-0.001179,-0.002187,-0.013618,0.999649,3.9e-05,0.026155,-0.004105,0.007241,0.002853,-0.001416,0.012557,0.003363,-0.004761
1623492367618601561,54,1623492367618601561,0.00034,-0.002855,-0.016224,0.999645,-1.3e-05,0.026289,-0.004181,0.011169,0.001675,-0.006367,0.013175,0.000873,-0.004275
1623492367718598366,55,1623492367718598366,0.001211,-0.003534,-0.016472,0.999656,3.5e-05,0.02583,-0.004336,0.013829,0.001645,-0.005488,0.011781,0.000826,-0.005179
1623492367818594933,56,1623492367818594933,-0.000138,-0.0036,-0.015568,0.999652,0.000127,0.026041,-0.004102,0.008549,0.002602,-0.002001,0.011912,0.004801,-0.004812
1623492367918591738,57,1623492367918591738,-0.001685,-0.003948,-0.011313,0.999644,1.7e-05,0.026335,-0.00409,0.004459,0.001936,0.006749,0.012665,0.006951,-0.006037
1623492368018588543,58,1623492368018588543,-0.002045,-0.003624,-0.016923,0.999643,-2.8e-05,0.026402,-0.004061,0.003181,0.00394,-0.004343,0.012074,0.002187,-0.005882
1623492368118585110,59,1623492368118585110,-0.000651,-0.003307,-0.016069,0.999643,7.6e-05,0.026313,-0.004532,0.009054,0.004846,-0.003528,0.010312,0.002277,-0.004968
1623492368218581915,60,1623492368218581915,-3.5e-05,-0.003005,-0.019631,0.999649,-1e-05,0.026117,-0.004395,0.010302,0.006055,-0.008923,0.012724,0.003943,-0.004727
1623492368318578720,61,1623492368318578720,-0.001674,-0.003132,-0.023099,0.999651,0.00016,0.026047,-0.004378,0.005117,0.004484,-0.012729,0.011504,0.004246,-0.00463
1623492368418575287,62,1623492368418575287,-1.3e-05,-0.005139,-0.020672,0.999654,0.000103,0.025897,-0.004553,0.012278,-0.001741,-0.00658,0.011896,0.006206,-0.00579
1623492368518572092,63,1623492368518572092,0.001351,-0.004781,-0.021712,0.999648,8e-06,0.026131,-0.004451,0.015436,-4.1e-05,-0.008025,0.010832,0.003238,-0.005082
1623492368618568659,64,1623492368618568659,-0.001215,-0.004077,-0.016438,0.999654,9.7e-05,0.025946,-0.004268,0.006615,0.00352,0.002769,0.012432,0.002956,-0.005056
1623492368718565464,65,1623492368718565464,0.000447,-0.005266,-0.016311,0.999656,5.5e-05,0.025814,-0.00449,0.012005,-0.000189,0.002405,0.012412,0.000557,-0.00554
1623492368818562269,66,1623492368818562269,0.000933,-0.004104,-0.01659,0.999654,1.5e-05,0.025921,-0.004422,0.013843,0.003051,0.001198,0.011968,0.005579,-0.004888
1623492368918558836,67,1623492368918558836,0.001704,-0.006205,-0.019293,0.999644,7.5e-05,0.026307,-0.004252,0.011211,-0.00241,-0.003782,0.011862,0.0043,-0.004862
1623492369018555641,68,1623492369018555641,0.000522,-0.006063,-0.019864,0.999649,-1.9e-05,0.026137,-0.004154,0.007946,-0.000204,-0.004988,0.01301,0.005899,-0.004248
1623492369118552446,69,1623492369118552446,0.000481,-0.006062,-0.019484,0.99965,-0.00012,0.026121,-0.004026,0.009161,0.000932,-0.004873,0.012747,0.003029,-0.004848
1623492369218549013,70,1623492369218549013,-0.00053,-0.005524,-0.015184,0.999656,0.00011,0.025896,-0.003916,0.006962,0.003546,0.003472,0.013272,0.001009,-0.005377
1623492369318545818,71,1623492369318545818,-0.001616,-0.005515,-0.016486,0.999656,4.4e-05,0.025966,-0.003493,0.004045,0.005909,-0.000888,0.012482,0.003549,-0.00543
1623492369418542385,72,1623492369418542385,-0.00123,-0.003427,-0.015549,0.999656,7.8e-05,0.025945,-0.003829,0.006479,0.010611,0.00225,0.013198,0.008406,-0.004444
1623492369518539190,73,1623492369518539190,0.000579,-0.002356,-0.017003,0.999657,1.1e-05,0.025881,-0.003918,0.012155,0.013914,0.000633,0.011646,0.004528,-0.004066
1623492369618535995,74,1623492369618535995,-0.001744,-0.001434,-0.017226,0.999656,0.00012,0.025901,-0.004084,0.005193,0.012617,-0.000796,0.010282,0.001699,-0.004651
1623492369718532562,75,1623492369718532562,-0.002,-0.000245,-0.017437,0.999661,8e-06,0.02567,-0.004297,0.006365,0.013593,-0.00091,0.01338,0.002856,-0.005393
1623492369818529367,76,1623492369818529367,9.4e-05,-0.002192,-0.016043,0.999662,5.8e-05,0.025605,-0.004338,0.013386,0.006119,0.001707,0.012326,0.003396,-0.004616
1623492369918526173,77,1623492369918526173,0.000446,-0.002299,-0.016483,0.999653,0.000198,0.025991,-0.004272,0.012294,0.006272,0.000188,0.011424,0.005087,-0.006043
1623492370018522739,78,1623492370018522739,0.00046,-0.002747,-0.01617,0.99966,7.8e-05,0.025681,-0.004476,0.011977,0.004305,0.000173,0.010389,0.004609,-0.004725
1623492370118519545,79,1623492370118519545,-0.000913,-0.002017,-0.016343,0.999662,4.8e-05,0.025577,-0.004542,0.008616,0.006451,-0.001327,0.012153,0.004037,-0.004146
1623492370218516350,80,1623492370218516350,-0.002557,-0.002086,-0.016854,0.999662,0.00017,0.02558,-0.004464,0.004556,0.005719,-0.002197,0.011303,0.001518,-0.005433
1623492370318512917,81,1623492370318512917,-0.000893,-0.003458,-0.015133,0.999653,0.000176,0.025981,-0.004256,0.010292,0.002354,0.001283,0.01182,0.002314,-0.005984
1623492370418509722,82,1623492370418509722,0.000658,-0.005579,-0.01603,0.999651,-3e-05,0.026043,-0.004282,0.012839,-0.001793,0.000983,0.011635,0.005296,-0.003886
1623492370518506289,83,1623492370518506289,0.001221,-0.004288,-0.018016,0.999653,-4e-05,0.025979,-0.004177,0.013388,0.003049,-0.0029,0.012692,0.005084,-0.005862
1623492370618503094,84,1623492370618503094,0.002313,-0.002931,-0.019159,0.999654,0.000154,0.025935,-0.004211,0.016613,0.007601,-0.004836,0.012372,0.003836,-0.004578
1623492370718499899,85,1623492370718499899,0.003844,-0.004492,-0.020201,0.999657,6.3e-05,0.025771,-0.004552,0.019672,0.003351,-0.006145,0.012589,0.002905,-0.005349
1623492370818496466,86,1623492370818496466,0.004344,-0.003575,-0.019771,0.999657,0.000232,0.025851,-0.004128,0.019234,0.007001,-0.005648,0.011467,0.003671,-0.004508
1623492370918493271,87,1623492370918493271,0.000997,-0.002651,-0.01697,0.999655,4.4e-05,0.02591,-0.004084,0.010556,0.008492,-0.00074,0.012703,0.003567,-0.005332
1623492371018490076,88,1623492371018490076,0.000562,-0.003383,-0.019626,0.999653,-7e-06,0.02605,-0.003882,0.009287,0.007123,-0.004698,0.011753,0.00298,-0.003968
1623492371118486643,89,1623492371118486643,0.000358,-0.003499,-0.020592,0.999649,9e-05,0.026163,-0.004032,0.008241,0.006255,-0.00636,0.011826,0.003328,-0.004746
1623492371218483448,90,1623492371218483448,0.000388,-0.00214,-0.021455,0.99965,6.1e-05,0.026141,-0.004037,0.00881,0.008853,-0.007793,0.011111,0.001519,-0.004743
1623492371318480015,91,1623492371318480015,0.001475,-0.002226,-0.022696,0.999653,0.000209,0.025959,-0.004239,0.012741,0.007529,-0.008784,0.012085,0.004077,-0.005214
1623492371418476820,92,1623492371418476820,0.00226,-0.003387,-0.02046,0.999656,0.000114,0.025887,-0.004066,0.015482,0.004807,-0.006118,0.011185,0.002084,-0.004751
1623492371518473625,93,1623492371518473625,0.000542,-0.003043,-0.019086,0.99966,0.000147,0.025706,-0.004215,0.010309,0.00641,-0.002216,0.011376,0.00524,-0.004813
1623492371618470192,94,1623492371618470192,0.002677,-0.003869,-0.019997,0.999653,0.000144,0.025986,-0.004095,0.015531,0.005565,-0.003809,0.01154,0.004523,-0.005062
1623492371718466997,95,1623492371718466997,0.001586,-0.004544,-0.020252,0.999653,7.8e-05,0.025986,-0.004143,0.012067,0.003697,-0.003846,0.012876,0.004301,-0.005804
1623492371818463802,96,1623492371818463802,0.001101,-0.003087,-0.020698,0.999658,0.000196,0.025827,-0.004085,0.010996,0.008464,-0.00397,0.011815,4.7e-05,-0.00531
1623492371918460369,97,1623492371918460369,0.000715,-0.004098,-0.019546,0.999656,8.9e-05,0.025812,-0.004483,0.008562,0.004526,-0.001098,0.01192,0.002938,-0.004144
1623492372018457174,98,1623492372018457174,-0.000302,-0.003302,-0.01571,0.999659,6e-05,0.025689,-0.004513,0.008443,0.006187,0.005598,0.012068,0.00501,-0.004798
1623492372118453979,99,1623492372118453979,-0.001105,-0.003524,-0.019991,0.999657,-1.7e-05,0.025771,-0.004457,0.00672,0.004889,-0.002628,0.012152,0.006462,-0.005271
1623492372218450546,100,1623492372218450546,0.001768,-0.003979,-0.018199,0.999661,2.6e-05,0.025632,-0.004553,0.014742,0.003043,0.002404,0.011303,0.00424,-0.005044
1623492372318447351,101,1623492372318447351,0.002323,-0.005572,-0.018317,0.999652,3.4e-05,0.026007,-0.004406,0.01405,-0.000284,0.003097,0.011991,0.003481,-0.005015
1623492372418443918,102,1623492372418443918,0.002786,-0.004932,-0.017843,0.999636,0.000231,0.026645,-0.003998,0.013606,0.003644,0.003257,0.013618,0.001497,-0.005834
1623492372518440723,103,1623492372518440723,0.002004,-0.004178,-0.018011,0.999646,0.000119,0.026254,-0.004094,0.010517,0.006555,0.002897,0.010741,0.004889,-0.004985
1623492372618437529,104,1623492372618437529,0.001512,-0.004018,-0.018191,0.999645,5.3e-05,0.026274,-0.004215,0.010546,0.006112,0.000398,0.010728,0.002639,-0.004246
1623492372718434095,105,1623492372718434095,0.001611,-0.005081,-0.018036,0.999653,2e-06,0.025989,-0.004234,0.011785,0.00348,-8.7e-05,0.011487,0.00404,-0.004911
1623492372818430901,106,1623492372818430901,0.003338,-0.005939,-0.0164,0.999647,5.5e-05,0.026233,-0.004012,0.014704,0.002938,0.00102,0.013692,0.004033,-0.005472
1623492372918427706,107,1623492372918427706,0.002468,-0.004885,-0.014263,0.999648,1.7e-05,0.02617,-0.004139,0.011611,0.006324,0.004115,0.013232,0.004463,-0.004305
1623492373018424273,108,1623492373018424273,0.000531,-0.006147,-0.016429,0.99965,4.2e-05,0.026115,-0.004141,0.005114,0.003272,-0.000408,0.012158,0.004144,-0.006024
1623492373118421078,109,1623492373118421078,0.000353,-0.00461,-0.014492,0.999654,0.00011,0.025962,-0.004093,0.007901,0.006701,0.001553,0.010623,0.002703,-0.005201
1623492373218417645,110,1623492373218417645,0.002329,-0.004809,-0.01372,0.999656,3.9e-05,0.025858,-0.004339,0.013233,0.005716,0.004225,0.010131,0.001957,-0.003573
1623492373318414450,111,1623492373318414450,0.002269,-0.006599,-0.017518,0.999655,-7.6e-05,0.025893,-0.004274,0.01091,0.00019,-0.002648,0.011909,0.003181,-0.004227
1623492373418411255,112,1623492373418411255,0.003163,-0.005229,-0.019266,0.999653,7.6e-05,0.026013,-0.003937,0.013276,0.006652,-0.005227,0.011982,0.002745,-0.004426
1623492373518407822,113,1623492373518407822,0.003508,-0.005329,-0.020816,0.999655,0.0001,0.025898,-0.004252,0.013309,0.005938,-0.006488,0.010732,0.004434,-0.004446
1623492373618404627,114,1623492373618404627,0.003962,-0.004946,-0.021199,0.999652,4.9e-05,0.025978,-0.004481,0.01327,0.0068,-0.005398,0.013039,0.005836,-0.005787
1623492373718401432,115,1623492373718401432,0.0033,-0.003604,-0.02344,0.999653,3.5e-05,0.025921,-0.004483,0.012266,0.008206,-0.009126,0.010974,0.004739,-0.006076
1623492373818397999,116,1623492373818397999,0.003737,-0.003442,-0.023866,0.99965,0.000222,0.026105,-0.004129,0.010884,0.007787,-0.008981,0.011628,0.003182,-0.005542
1623492373918394804,117,1623492373918394804,0.001968,-0.002582,-0.019829,0.999652,0.000165,0.026037,-0.004083,0.00637,0.009252,-0.001055,0.011692,0.002077,-0.004726
1623492374018391609,118,1623492374018391609,0.001826,-0.003489,-0.019488,0.999647,0.000178,0.026278,-0.003839,0.006626,0.006764,-0.000276,0.012237,0.001914,-0.004852
1623492374118388176,119,1623492374118388176,-0.000327,-0.004222,-0.014299,0.999651,0.000137,0.026088,-0.003944,0.001592,0.004848,0.009545,0.011708,0.003767,-0.005066
1623492374218384981,120,1623492374218384981,0.001285,-0.003694,-0.015507,0.999655,0.000218,0.02593,-0.004153,0.006595,0.006998,0.007123,0.012175,0.006055,-0.005686
1623492374318381548,121,1623492374318381548,-0.000126,-0.002659,-0.015731,0.999654,9.3e-05,0.025913,-0.004417,0.005307,0.008136,0.005057,0.010931,0.004142,-0.004719
1623492374418378353,122,1623492374418378353,0.001135,-0.002996,-0.017755,0.999654,0.000189,0.025927,-0.004229,0.007256,0.007768,0.001465,0.011846,0.002858,-0.004398
1623492374518375158,123,1623492374518375158,-0.000129,-0.005023,-0.015777,0.999659,-4.4e-05,0.02575,-0.004185,0.005035,0.001698,0.00285,0.011801,0.003659,-0.005209
1623492374618371725,124,1623492374618371725,0.000929,-0.004583,-0.019569,0.999657,0.000152,0.025864,-0.004059,0.008825,0.002297,-0.003768,0.011577,0.003879,-0.005883
1623492374718368530,125,1623492374718368530,0.002575,-0.003782,-0.019383,0.999655,0.000207,0.025922,-0.004069,0.013248,0.005942,-0.002806,0.012301,0.002361,-0.00448
1623492374818365335,126,1623492374818365335,0.002957,-0.004927,-0.016758,0.999652,0.000109,0.026007,-0.004225,0.014516,0.001427,0.002638,0.012843,0.00431,-0.003843
1623492374918361902,127,1623492374918361902,0.003186,-0.003829,-0.02034,0.999654,0.00011,0.025907,-0.004494,0.013669,0.003325,-0.003366,0.011525,0.001649,-0.005944
1623492375018358707,128,1623492375018358707,0.003477,-0.003922,-0.019376,0.999648,5.5e-05,0.026176,-0.00424,0.013876,0.003175,-0.000712,0.011236,0.002601,-0.005359
1623492375118355274,129,1623492375118355274,0.001314,-0.001664,-0.01907,0.999648,0.00022,0.026174,-0.004111,0.006908,0.009726,0.000985,0.012232,0.00217,-0.005247
1623492375218352079,130,1623492375218352079,0.002598,-0.002372,-0.018153,0.999656,3.3e-05,0.025842,-0.004365,0.010942,0.005994,0.003118,0.011821,0.00295,-0.003925
1623492375318348885,131,1623492375318348885,0.001581,-0.003593,-0.019914,0.999662,0.00013,0.025616,-0.004388,0.00889,0.001409,-0.000709,0.010989,0.005247,-0.006504
1623492375418345451,132,1623492375418345451,0.000402,-0.004844,-0.020303,0.999661,6.5e-05,0.025649,-0.004294,0.006028,-0.000239,-4e-06,0.010495,0.003543,-0.005203
1623492375518342257,133,1623492375518342257,0.002173,-0.005836,-0.021999,0.999656,-6.9e-05,0.025813,-0.004437,0.011762,-0.002807,-0.002983,0.013439,0.001587,-0.003898
1623492375618339062,134,1623492375618339062,-0.000115,-0.005766,-0.018792,0.999656,8.1e-05,0.025868,-0.004153,0.005243,-0.000142,0.00383,0.012419,0.002047,-0.005399
1623492375718335629,135,1623492375718335629,-0.002092,-0.002614,-0.017766,0.999657,0.000179,0.025821,-0.004234,0.002036,0.010038,0.005509,0.010217,0.005687,-0.00618
1623492375818332434,136,1623492375818332434,-0.001658,-0.002327,-0.015124,0.999652,0.000142,0.026027,-0.004177,0.006296,0.010465,0.008727,0.011403,0.003643,-0.004758
1623492375918329239,137,1623492375918329239,0.001675,-0.005754,-0.014821,0.999654,0.000205,0.025902,-0.004505,0.014082,0.000152,0.008221,0.012118,0.004492,-0.004077
1623492376018325806,138,1623492376018325806,-0.00017,-0.004353,-0.020685,0.999644,3.7e-05,0.026329,-0.004205,0.006585,0.00402,-0.002711,0.01244,0.000931,-0.006139
1623492376118322611,139,1623492376118322611,-0.001352,-0.002854,-0.019304,0.999645,5.4e-05,0.026297,-0.004195,0.004663,0.008784,-0.001325,0.011954,0.002154,-0.004803
1623492376218319178,140,1623492376218319178,0.000246,-0.004909,-0.014279,0.99964,-4e-06,0.026527,-0.003972,0.009325,0.003813,0.006415,0.011,0.002055,-0.004141
1623492376318315983,141,1623492376318315983,-0.000605,-0.004618,-0.016173,0.999655,0.000145,0.025983,-0.003758,0.00808,0.006135,0.002361,0.012414,0.00684,-0.006695
1623492376418312788,142,1623492376418312788,-0.002092,-0.00367,-0.017901,0.999652,0.000102,0.026089,-0.003795,0.004267,0.008567,-0.001703,0.0106,0.00585,-0.004529
1623492376518309355,143,1623492376518309355,-0.000449,-0.003601,-0.016105,0.999652,0.000101,0.026084,-0.003761,0.011322,0.009136,0.000934,0.012334,0.002506,-0.005601
1623492376618306160,144,1623492376618306160,-0.002422,-0.001921,-0.017565,0.999653,0.000171,0.025982,-0.004306,0.005768,0.011566,-0.001336,0.012773,0.001607,-0.004439
1623492376718302965,145,1623492376718302965,-0.000401,-0.003782,-0.016413,0.999654,5.8e-05,0.025949,-0.004214,0.010846,0.005276,0.002169,0.012633,0.004586,-0.0046
1623492376818299532,146,1623492376818299532,-0.002521,-0.004083,-0.014493,0.999651,-0.000116,0.026105,-0.004025,0.004933,0.003396,0.005042,0.011782,0.002853,-0.004922
1623492376918296337,147,1623492376918296337,-0.002693,-0.00373,-0.019369,0.999647,9.2e-05,0.026167,-0.004387,0.004615,0.002814,-0.002842,0.011553,0.004373,-0.003744
1623492377018292904,148,1623492377018292904,-0.001905,-0.005534,-0.019995,0.999647,0.00018,0.026177,-0.004526,0.008506,-0.001726,-0.003947,0.011782,0.001682,-0.004575
1623492377118289709,149,1623492377118289709,0.000714,-0.005483,-0.019352,0.999643,5.5e-05,0.026394,-0.004042,0.016135,0.002138,-0.001793,0.012391,0.000882,-0.005387
1623492377218286514,150,1623492377218286514,-0.000303,-0.002606,-0.023028,0.999651,9.6e-05,0.026032,-0.004332,0.013157,0.009417,-0.008094,0.012077,0.001535,-0.004289
1623492377318283081,151,1623492377318283081,0.000382,-0.001622,-0.02252,0.99965,4.6e-05,0.02605,-0.004459,0.01488,0.010817,-0.006373,0.012468,0.004277,-0.005551
1623492377418279886,152,1623492377418279886,0.001741,-0.004158,-0.022121,0.999644,9.3e-05,0.026282,-0.004477,0.015416,0.001832,-0.004813,0.01259,0.006633,-0.004498
1623492377518276691,153,1623492377518276691,0.002999,-0.005736,-0.019943,0.999647,0.000109,0.026173,-0.004411,0.015072,-0.002626,-0.000471,0.012501,0.004899,-0.003221
1623492377618273258,154,1623492377618273258,0.00106,-0.005554,-0.017092,0.999656,-2.9e-05,0.025821,-0.004392,0.010581,-0.001159,0.004073,0.01208,0.000324,-0.005686
1623492377718270063,155,1623492377718270063,0.00032,-0.00273,-0.015577,0.99966,5.2e-05,0.025674,-0.004328,0.010167,0.008073,0.004548,0.011742,0.003887,-0.004983
1623492377818266869,156,1623492377818266869,0.0002,-0.001939,-0.017912,0.999655,0.000134,0.025822,-0.004792,0.009034,0.00718,0.00026,0.012705,0.006464,-0.004747
1623492377918263435,157,1623492377918263435,0.000795,-0.003806,-0.017121,0.99965,1.2e-05,0.026019,-0.004589,0.009765,0.002057,0.001046,0.011859,0.005668,-0.005463
1623492378018260241,158,1623492378018260241,0.000519,-0.003283,-0.017771,0.99965,0.000157,0.026078,-0.004287,0.008538,0.00461,-0.000939,0.012178,0.003574,-0.005781
1623492378118256807,159,1623492378118256807,0.000948,-0.004191,-0.02117,0.999637,1.9e-05,0.02661,-0.004104,0.007871,0.002197,-0.007215,0.012175,0.00153,-0.004403
1623492378218253613,160,1623492378218253613,-0.000371,-0.001558,-0.017308,0.999642,0.000117,0.026419,-0.003991,0.00516,0.010973,0.001002,0.012642,0.003357,-0.004816
1623492378318250418,161,1623492378318250418,0.001951,-0.002166,-0.01879,0.999644,0.000106,0.026373,-0.003916,0.012885,0.008907,-0.003025,0.011307,0.00453,-0.005127
1623492378418246984,162,1623492378418246984,-0.00051,-0.001625,-0.01525,0.999647,5.8e-05,0.026278,-0.003836,0.007246,0.009897,0.002019,0.010512,0.005354,-0.005224
1623492378518243790,163,1623492378518243790,-0.002468,-0.002,-0.014603,0.999648,0.000135,0.026209,-0.004046,0.00229,0.007473,0.003422,0.009835,0.003101,-0.004484
1623492378618240595,164,1623492378618240595,-0.001135,-0.001814,-0.013059,0.999649,-4e-06,0.026114,-0.004245,0.007304,0.00641,0.00421,0.013527,0.002888,-0.003968
1623492378718237162,165,1623492378718237162,-0.000638,-0.003091,-0.013523,0.999654,8.9e-05,0.025948,-0.004177,0.008817,0.002318,0.002152,0.011986,0.004446,-0.004388
1623492378818233967,166,1623492378818233967,0.001419,-0.003579,-0.013798,0.999649,-1.2e-05,0.026184,-0.003965,0.012505,0.003364,0.001051,0.011261,0.003539,-0.004269
1623492378918230534,167,1623492378918230534,0.001148,-0.004802,-0.014043,0.999647,7.8e-05,0.026261,-0.003963,0.009828,0.000432,-1.3e-05,0.011327,0.004243,-0.005425
1623492379018227339,168,1623492379018227339,0.000298,-0.003261,-0.013536,0.999659,0.000148,0.025758,-0.0041,0.008135,0.006739,0.001783,0.013263,0.004514,-0.005307
1623492379118224144,169,1623492379118224144,0.000522,-0.00301,-0.015588,0.999658,3.7e-05,0.025805,-0.004201,0.009843,0.005728,-0.002074,0.010338,0.001588,-0.005628
1623492379218220711,170,1623492379218220711,0.000509,-0.003816,-0.016185,0.999658,-1.4e-05,0.025802,-0.004064,0.009634,0.004555,-0.002542,0.011188,0.002534,-0.004571
1623492379318217516,171,1623492379318217516,0.001132,-0.004597,-0.020523,0.999651,0.000155,0.026106,-0.003974,0.00848,0.003564,-0.009787,0.0136,0.003381,-0.005397
1623492379418214321,172,1623492379418214321,0.000206,-0.005893,-0.020694,0.999655,0.000204,0.025888,-0.004431,0.006587,-0.001348,-0.007886,0.011433,0.00463,-0.004658
1623492379518210888,173,1623492379518210888,-0.001403,-0.005652,-0.021285,0.999648,5.7e-05,0.026103,-0.004621,0.003284,-0.000833,-0.005651,0.012938,0.003112,-0.004466
1623492379618207693,174,1623492379618207693,-0.001049,-0.004647,-0.018892,0.999648,4.8e-05,0.026135,-0.004531,0.006056,0.003278,-0.001611,0.01134,0.005138,-0.004468
1623492379718204498,175,1623492379718204498,0.000474,-0.004754,-0.017788,0.999651,8.3e-05,0.026005,-0.00449,0.011206,0.003505,0.000171,0.011763,0.001412,-0.004541
1623492379818201065,176,1623492379818201065,0.000949,-0.006659,-0.018287,0.999651,6.2e-05,0.026039,-0.004412,0.010784,-0.000347,0.000772,0.013714,0.001897,-0.005931
1623492379918197870,177,1623492379918197870,0.000654,-0.005514,-0.015049,0.999649,4.9e-05,0.026155,-0.00417,0.009259,0.004295,0.006147,0.012268,0.004881,-0.005386
1623492380018194437,178,1623492380018194437,0.001631,-0.00524,-0.015301,0.999639,-6e-06,0.026537,-0.004174,0.01131,0.005073,0.003677,0.010977,0.005502,-0.005116
1623492380118191242,179,1623492380118191242,0.001338,-0.005441,-0.017863,0.999641,8.8e-05,0.026409,-0.004305,0.00867,0.003641,-0.002622,0.012398,0.002837,-0.005281
1623492380218188047,180,1623492380218188047,-0.000183,-0.003552,-0.016929,0.999642,0.000108,0.026421,-0.004028,0.005903,0.009065,-0.002186,0.013167,0.006158,-0.005262
1623492380318184614,181,1623492380318184614,0.000282,-0.004788,-0.014741,0.999649,2.2e-05,0.026111,-0.00447,0.009428,0.003984,0.002715,0.012384,0.002731,-0.005584
1623492380418181419,182,1623492380418181419,0.000807,-0.005734,-0.015065,0.999646,6.9e-05,0.026221,-0.004453,0.010066,3.4e-05,0.002408,0.011471,0.003714,-0.005382
1623492380518178225,183,1623492380518178225,-0.000745,-0.004508,-0.016189,0.999647,0.000152,0.02619,-0.004454,0.005724,0.00317,-0.000628,0.011658,0.007293,-0.005676
1623492380618174791,184,1623492380618174791,-0.001526,-0.002875,-0.019019,0.99965,2.6e-05,0.026082,-0.004301,0.004298,0.007566,-0.006358,0.011297,0.00493,-0.00619
1623492380718171597,185,1623492380718171597,0.001065,-0.005222,-0.0197,0.999645,-2e-05,0.026345,-0.003809,0.011478,0.003111,-0.006173,0.011434,0.002048,-0.005184
1623492380818168163,186,1623492380818168163,0.001228,-0.004503,-0.016685,0.999657,7.2e-05,0.025887,-0.003916,0.01311,0.006501,-0.001323,0.011741,0.000204,-0.004994
1623492380918164968,187,1623492380918164968,0.000481,-0.004442,-0.01687,0.99966,0.000171,0.025762,-0.003923,0.008818,0.007105,-0.000718,0.013046,0.004448,-0.004747
1623492381018161774,188,1623492381018161774,0.000784,-0.003494,-0.016528,0.999662,4.4e-05,0.02565,-0.004183,0.011455,0.008479,0.000131,0.01047,0.003048,-0.004875
1623492381118158340,189,1623492381118158340,0.000956,-0.00374,-0.018999,0.99966,0.000151,0.025661,-0.004531,0.01189,0.006011,-0.003951,0.009843,0.004246,-0.005189
1623492381218155146,190,1623492381218155146,0.001504,-0.004223,-0.019783,0.999661,7.8e-05,0.025616,-0.004521,0.011714,0.004505,-0.005457,0.011789,0.003227,-0.005327
1623492381318151951,191,1623492381318151951,0.001104,-0.00394,-0.018383,0.999664,6.1e-05,0.025492,-0.004479,0.01151,0.004506,-0.001022,0.013492,0.00297,-0.004648
1623492381418148518,192,1623492381418148518,0.001524,-0.005227,-0.019714,0.999659,5e-05,0.025699,-0.00448,0.010947,0.000601,-0.00306,0.01181,0.001244,-0.004986
1623492381518145323,193,1623492381518145323,0.001537,-0.004552,-0.016805,0.999655,9.9e-05,0.025859,-0.004437,0.009723,0.003842,0.003326,0.010745,0.006253,-0.004646
1623492381618142128,194,1623492381618142128,0.003891,-0.006637,-0.014975,0.999648,1.2e-05,0.026162,-0.004253,0.014849,-0.001985,0.005565,0.011697,0.004932,-0.003734
1623492381718138695,195,1623492381718138695,0.003674,-0.005407,-0.017853,0.999648,0.000116,0.026186,-0.004069,0.012961,0.003536,-0.000792,0.011572,0.004983,-0.005023
1623492381818135500,196,1623492381818135500,0.001158,-0.005705,-0.016166,0.999654,0.000111,0.025969,-0.004019,0.004974,0.003132,0.001107,0.011993,0.003736,-0.006287
1623492381918132067,197,1623492381918132067,0.00065,-0.005193,-0.017313,0.999659,3.6e-05,0.025782,-0.004111,0.005578,0.005529,-0.000651,0.01136,0.003,-0.005311
1623492382018128872,198,1623492382018128872,0.000536,-0.002091,-0.02015,0.99965,0.000115,0.026135,-0.003893,0.005185,0.01431,-0.006304,0.013379,0.004165,-0.004627
1623492382118125677,199,1623492382118125677,-0.000997,-0.002129,-0.019601,0.999647,0.00014,0.026231,-0.004066,0.001243,0.010644,-0.002832,0.013014,0.006681,-0.003966
1623492382218122244,200,1623492382218122244,-0.000466,-0.002483,-0.018287,0.999648,0.000143,0.026166,-0.004235,0.004512,0.008989,-8.4e-05,0.011978,0.004031,-0.004305
1623492382318119049,201,1623492382318119049,0.00182,-0.004648,-0.018693,0.999646,7.8e-05,0.026185,-0.004646,0.011307,0.000854,-0.001773,0.0113,0.001537,-0.003776
1623492382418115854,202,1623492382418115854,0.000974,-0.005725,-0.018078,0.999645,0.000148,0.026249,-0.004419,0.00789,-0.001796,-0.001413,0.013703,0.001872,-0.004858
1623492382518112421,203,1623492382518112421,-0.001159,-0.004225,-0.015786,0.999648,-7e-06,0.026174,-0.004173,0.003285,0.004191,0.003545,0.013362,0.003201,-0.004898
1623492382618109226,204,1623492382618109226,0.000491,-0.004404,-0.018003,0.999649,8.1e-05,0.026104,-0.004347,0.008865,0.002077,-0.000527,0.012037,0.003336,-0.005081
1623492382718105793,205,1623492382718105793,-0.000159,-0.003597,-0.019525,0.999654,6.4e-05,0.025984,-0.003877,0.007653,0.006027,-0.004098,0.012263,0.002776,-0.004622
1623492382818102598,206,1623492382818102598,0.000271,-0.00388,-0.021242,0.999653,0.000132,0.026019,-0.003903,0.008605,0.005196,-0.007294,0.011332,0.0035,-0.004318
1623492382918099403,207,1623492382918099403,-0.000422,-0.003586,-0.023052,0.999654,0.000101,0.02599,-0.004034,0.006859,0.005277,-0.009366,0.012454,0.002144,-0.004883
1623492383018095970,208,1623492383018095970,0.000941,-0.00415,-0.021264,0.999656,-6e-05,0.025922,-0.003965,0.010279,0.004501,-0.005266,0.011978,0.003415,-0.00463
1623492383118092775,209,1623492383118092775,0.000827,-0.004895,-0.022065,0.999652,0.000122,0.026089,-0.00371,0.008647,0.003598,-0.006114,0.012699,0.005117,-0.004516
1623492383218089581,210,1623492383218089581,-0.001625,-0.003231,-0.022445,0.999658,0.000173,0.025805,-0.004097,0.003353,0.006785,-0.004767,0.010631,0.006447,-0.005956
1623492383318086147,211,1623492383318086147,-0.004254,-0.002128,-0.02142,0.999654,4.7e-05,0.025933,-0.004246,-0.00038,0.007641,-0.002291,0.010411,0.001253,-0.003509
1623492383418082952,212,1623492383418082952,-0.002501,-0.00196,-0.018139,0.999653,0.000266,0.026029,-0.00397,0.005788,0.008917,0.003697,0.011564,0.002229,-0.005317
1623492383518079758,213,1623492383518079758,-0.001869,-0.000951,-0.016607,0.999657,0.000169,0.02579,-0.004408,0.008191,0.009933,0.007139,0.014177,0.00333,-0.003623
1623492383618076324,214,1623492383618076324,-0.000816,-0.003343,-0.018149,0.999659,3.9e-05,0.025747,-0.00433,0.009429,0.002467,0.004561,0.012737,0.00406,-0.005101
1623492383718073130,215,1623492383718073130,-0.001987,-0.003515,-0.020258,0.999661,7.9e-05,0.025631,-0.004412,0.007474,0.002588,0.00058,0.011272,0.005615,-0.005801
1623492383818069696,216,1623492383818069696,-0.001167,-0.004091,-0.019135,0.99965,-1.8e-05,0.026024,-0.004575,0.009447,0.001103,0.002646,0.010458,0.005152,-0.006066
1623492383918066502,217,1623492383918066502,-0.001304,-0.004368,-0.019287,0.999653,7e-06,0.025972,-0.00428,0.008476,0.002026,0.001307,0.012895,0.003597,-0.005285
1623492384018063307,218,1623492384018063307,-0.001561,-0.005426,-0.019109,0.999654,5e-06,0.02587,-0.004599,0.008549,-0.002327,0.001775,0.012025,0.00171,-0.005139
1623492384118059874,219,1623492384118059874,-0.001319,-0.004457,-0.016572,0.999657,2e-06,0.025752,-0.004574,0.009564,0.00198,0.005274,0.011828,0.00548,-0.005427
1623492384218056679,220,1623492384218056679,-0.00131,-0.003302,-0.012752,0.999655,4.1e-05,0.025905,-0.00432,0.009966,0.006174,0.010839,0.011808,0.004369,-0.005103
1623492384318053484,221,1623492384318053484,-0.000295,-0.001768,-0.014958,0.999652,8e-05,0.02599,-0.004413,0.011809,0.00924,0.005059,0.013916,0.005846,-0.005703
1623492384418050051,222,1623492384418050051,-0.000474,-0.002448,-0.009985,0.999652,0.000216,0.026047,-0.00412,0.01045,0.006588,0.011474,0.012321,0.004063,-0.004774
1623492384518046856,223,1623492384518046856,-0.002997,-0.00256,-0.00918,0.999653,2.4e-05,0.025996,-0.00416,0.002346,0.005869,0.009767,0.011943,0.003301,-0.005191
1623492384618043423,224,1623492384618043423,-0.003137,-0.002695,-0.011746,0.999658,-0.000115,0.02574,-0.004436,0.005008,0.005225,0.003428,0.010485,-2.6e-05,-0.004684
1623492384718040228,225,1623492384718040228,-0.001748,-0.001457,-0.014187,0.999658,-8e-06,0.025782,-0.004366,0.009307,0.008923,-0.001753,0.013669,0.006253,-0.004308
1623492384818037033,226,1623492384818037033,-0.002212,-0.003092,-0.015104,0.999655,6.6e-05,0.025882,-0.004259,0.006879,0.003392,-0.003411,0.012455,0.003841,-0.006531
1623492384918033600,227,1623492384918033600,-0.000926,-0.00156,-0.018633,0.99966,0.000174,0.025676,-0.004361,0.011007,0.008409,-0.009113,0.011202,0.00399,-0.005032
1623492385018030405,228,1623492385018030405,-0.000251,-0.002466,-0.017162,0.999656,1.9e-05,0.025844,-0.004422,0.013133,0.004343,-0.005459,0.010185,0.002084,-0.003805
1623492385118027210,229,1623492385118027210,0.000599,-0.004089,-0.019391,0.999651,4.7e-05,0.026008,-0.004472,0.013154,-0.001674,-0.007876,0.012787,0.004234,-0.005407
1623492385218023777,230,1623492385218023777,-0.00102,-0.003932,-0.014289,0.999653,0.000313,0.025976,-0.004212,0.007627,0.002735,0.003033,0.01235,0.00422,-0.007168
1623492385318020582,231,1623492385318020582,-0.002437,-0.003074,-0.016041,0.999654,0.000173,0.025963,-0.004184,0.004131,0.00567,-0.002231,0.011179,0.005,-0.004827
1623492385418017149,232,1623492385418017149,-0.002207,-0.002207,-0.020798,0.999655,0.000209,0.025858,-0.004451,0.006088,0.007459,-0.010751,0.013797,0.005505,-0.005293
1623492385518013954,233,1623492385518013954,-0.001935,-0.002959,-0.022706,0.999656,0.000163,0.025855,-0.00435,0.006299,0.004345,-0.012128,0.012159,0.003596,-0.003547
1623492385618010759,234,1623492385618010759,-0.001505,-0.002823,-0.023272,0.999646,0.000136,0.026248,-0.004299,0.006842,0.005218,-0.010837,0.013419,-0.000262,-0.004321
1623492385718007326,235,1623492385718007326,-0.000332,-0.003213,-0.022864,0.999644,4e-05,0.026226,-0.004739,0.01028,0.004271,-0.007742,0.011685,0.004762,-0.005272
1623492385818004131,236,1623492385818004131,0.000346,-0.003708,-0.019271,0.999647,0.00017,0.026157,-0.004433,0.011676,0.00364,-0.000138,0.011706,0.002978,-0.003313
1623492385918000937,237,1623492385918000937,0.000971,-0.00455,-0.020663,0.999651,7e-06,0.026007,-0.004599,0.012171,0.000142,-0.000573,0.012485,0.005593,-0.003961
1623492386017997503,238,1623492386017997503,0.001023,-0.006243,-0.020426,0.999648,5.5e-05,0.026145,-0.004371,0.010409,-0.002821,-0.001167,0.011146,0.005823,-0.005763
1623492386117994308,239,1623492386117994308,0.0006,-0.006206,-0.01864,0.999656,0.000147,0.025831,-0.004479,0.009585,-0.00132,0.000929,0.012307,0.001168,-0.005052
1623492386217991114,240,1623492386217991114,-0.000342,-0.004051,-0.018847,0.999657,-1.7e-05,0.025809,-0.004371,0.007839,0.006473,-0.000154,0.013273,0.002282,-0.006019
1623492386317987680,241,1623492386317987680,-0.002812,-0.003968,-0.016269,0.99966,-6.3e-05,0.025706,-0.004231,0.002063,0.005517,0.003574,0.01146,0.003476,-0.004462
1623492386417984486,242,1623492386417984486,-0.004523,-0.001945,-0.01395,0.999663,7e-06,0.025663,-0.003905,0.00189,0.011396,0.006824,0.01057,0.004456,-0.003062
1623492386517981052,243,1623492386517981052,-0.004296,-0.000746,-0.017695,0.999664,0.000296,0.025568,-0.00416,0.00515,0.010777,-0.000279,0.010712,0.002517,-0.004824
1623492386617977858,244,1623492386617977858,-0.002569,-0.000807,-0.019343,0.999656,0.000137,0.025859,-0.004229,0.009248,0.009354,-0.004035,0.012778,0.001789,-0.004048
1623492386717974663,245,1623492386717974663,-0.001041,-0.001855,-0.018243,0.99965,6.6e-05,0.026114,-0.004086,0.012736,0.006926,-0.001522,0.012218,0.000839,-0.006696
1623492386817971230,246,1623492386817971230,9.1e-05,-0.004617,-0.01385,0.99965,1.5e-05,0.026106,-0.004186,0.013665,-0.000435,0.007259,0.010844,0.003349,-0.005045
1623492386917968035,247,1623492386917968035,-0.000542,-0.004256,-0.014976,0.999652,-0.0001,0.026014,-0.004291,0.01146,0.001304,0.00419,0.012885,0.003185,-0.005791
1623492387017964840,248,1623492387017964840,-0.002249,-0.004159,-0.01659,0.999659,1.2e-05,0.025724,-0.004349,0.006236,0.001334,-0.000634,0.012866,0.004849,-0.004059
1623492387117961407,249,1623492387117961407,-0.001065,-0.004345,-0.018424,0.999651,0.000147,0.026089,-0.004096,0.008909,0.001947,-0.00377,0.011765,0.002533,-0.003025
1623492387217958212,250,1623492387217958212,-0.00172,-0.002834,-0.017806,0.999658,0.000128,0.025819,-0.004111,0.008166,0.008154,-0.002846,0.012359,0.001681,-0.003753
1623492387317954779,251,1623492387317954779,-0.001286,-0.001341,-0.020429,0.999664,0.000212,0.025581,-0.004051,0.009121,0.013011,-0.006644,0.012314,0.003066,-0.005167
1623492387417951584,252,1623492387417951584,-0.000128,-0.002204,-0.018507,0.999663,0.000243,0.02556,-0.004498,0.013176,0.009063,-0.002061,0.011851,0.005523,-0.005028
1623492387517948389,253,1623492387517948389,0.001262,-0.003207,-0.018347,0.999655,8.8e-05,0.025826,-0.004592,0.016814,0.003482,-0.001151,0.011137,0.004961,-0.005133
1623492387617944956,254,1623492387617944956,0.000752,-0.003662,-0.017989,0.999652,-2.4e-05,0.025972,-0.004461,0.012834,0.001805,0.000921,0.011808,0.002933,-0.003836
1623492387717941761,255,1623492387717941761,0.000305,-0.004477,-0.015748,0.999647,2.5e-05,0.026211,-0.004325,0.009422,-0.000471,0.003235,0.012559,0.001414,-0.004909
1623492387817938566,256,1623492387817938566,0.001924,-0.004965,-0.015202,0.999651,8.1e-05,0.026005,-0.00444,0.015173,-0.001083,0.00317,0.012028,0.001844,-0.004736
1623492387917935133,257,1623492387917935133,0.005334,-0.005558,-0.01579,0.999654,0.000144,0.02594,-0.004248,0.023024,-0.001757,0.002188,0.01194,0.004976,-0.004436
1623492388017931938,258,1623492388017931938,0.005565,-0.00235,-0.014472,0.999659,0.000324,0.025807,-0.003962,0.021606,0.010079,0.003512,0.010482,0.004306,-0.005832
1623492388117928743,259,1623492388117928743,0.005351,-0.002087,-0.019126,0.999659,0.000368,0.025735,-0.004185,0.019153,0.007872,-0.005592,0.011951,0.00234,-0.005216
1623492388217925310,260,1623492388217925310,0.005186,-0.003758,-0.017023,0.999652,0.000358,0.026034,-0.004112,0.01663,0.001571,-0.001767,0.012714,0.001802,-0.00349
1623492388317922115,261,1623492388317922115,0.002274,-0.003999,-0.018496,0.999647,0.00017,0.026196,-0.004253,0.006263,0.001473,-0.004169,0.013571,0.003954,-0.004396
1623492388417918682,262,1623492388417918682,0.001191,-0.004675,-0.015744,0.999648,0.000119,0.026183,-0.00427,0.004035,0.000937,0.001133,0.010745,0.002795,-0.0047
1623492388517915487,263,1623492388517915487,-0.000418,-0.005421,-0.012403,0.999645,0.000164,0.026295,-0.004138,0.001073,-0.000127,0.005641,0.012513,0.004147,-0.004915
1623492388617912292,264,1623492388617912292,-0.002296,-0.004137,-0.011751,0.999646,0.000188,0.026298,-0.003932,-0.002867,0.005802,0.006017,0.013104,0.004023,-0.004908
1623492388717908859,265,1623492388717908859,0.000693,-0.003644,-0.012081,0.999658,0.000227,0.025771,-0.004282,0.008056,0.006722,0.004553,0.011658,0.002283,-0.005177
1623492388817905664,266,1623492388817905664,-0.000191,-0.001464,-0.015151,0.999667,0.000345,0.025386,-0.004599,0.008116,0.010807,-0.00269,0.012372,0.00176,-0.004119
1623492388917902470,267,1623492388917902470,0.001111,-5e-05,-0.021087,0.999664,0.000364,0.02541,-0.004976,0.011118,0.01174,-0.011445,0.013538,0.003859,-0.003689
1623492389017899036,268,1623492389017899036,0.001015,-0.002468,-0.021592,0.999667,0.000205,0.025334,-0.004824,0.01085,0.00217,-0.010404,0.012305,0.002931,-0.005923
1623492389117895842,269,1623492389117895842,0.00093,-0.003858,-0.018679,0.999657,0.000122,0.02583,-0.004304,0.00928,0.000287,-0.003372,0.011422,0.005341,-0.005145
1623492389217892408,270,1623492389217892408,0.00083,-0.003645,-0.014263,0.999652,6e-05,0.026028,-0.00418,0.009256,0.001871,0.004749,0.013391,0.004108,-0.004838
1623492389317889214,271,1623492389317889214,-0.000935,-0.004416,-0.014619,0.999647,2.9e-05,0.02624,-0.004113,0.003181,0.000126,0.003417,0.01308,0.002386,-0.004497
1623492389417886019,272,1623492389417886019,-0.00026,-0.00299,-0.013155,0.999649,0.000138,0.026181,-0.004017,0.006142,0.005962,0.005321,0.013741,0.002613,-0.005819
1623492389517882586,273,1623492389517882586,-0.00116,-0.00242,-0.012547,0.999651,0.000106,0.026108,-0.003996,0.003216,0.007688,0.005975,0.01206,0.004545,-0.004787
1623492389617879391,274,1623492389617879391,-0.002072,-0.003161,-0.01468,0.999655,0.00023,0.025857,-0.004409,0.002863,0.003374,0.000372,0.012212,0.004724,-0.004496
1623492389717876196,275,1623492389717876196,-0.003774,-0.002536,-0.02114,0.999656,7.7e-05,0.025824,-0.004429,-0.000571,0.00517,-0.011241,0.012767,0.003906,-0.005146
1623492389817872763,276,1623492389817872763,-0.002772,-0.001744,-0.022604,0.999657,8.8e-05,0.025751,-0.004598,0.004419,0.006431,-0.012007,0.012923,0.002268,-0.00442
1623492389917869568,277,1623492389917869568,-0.002068,-0.000919,-0.026349,0.999651,9.7e-05,0.026035,-0.004251,0.007062,0.009463,-0.017199,0.012345,0.003212,-0.004617
1623492390017866373,278,1623492390017866373,-0.002321,-0.001202,-0.023651,0.999649,6.6e-05,0.026173,-0.004003,0.005112,0.008331,-0.009076,0.013326,0.004116,-0.004645
1623492390117862940,279,1623492390117862940,-0.001243,-0.003862,-0.016601,0.999649,4.8e-05,0.026168,-0.003994,0.008524,0.000647,0.005472,0.01184,0.00687,-0.005351
1623492390217859745,280,1623492390217859745,-0.001317,-0.00472,-0.012288,0.999647,0.000195,0.02626,-0.003812,0.009229,0.00086,0.010507,0.011461,0.003205,-0.006715
1623492390317856312,281,1623492390317856312,-0.000882,-0.004009,-0.009349,0.999655,0.000149,0.025972,-0.003766,0.011574,0.005436,0.013725,0.009406,0.002837,-0.00366
1623492390417853117,282,1623492390417853117,0.000339,-0.003775,-0.006504,0.999653,7.7e-05,0.026043,-0.003734,0.013205,0.007412,0.016419,0.012478,0.000569,-0.004293
1623492390517849922,283,1623492390517849922,-0.000875,-0.002548,-0.010702,0.999653,0.000152,0.026034,-0.003879,0.009372,0.01106,0.006166,0.012924,0.004139,-0.003759
1623492390617846489,284,1623492390617846489,-0.001267,-0.003249,-0.010662,0.999651,0.000128,0.026098,-0.003912,0.007671,0.007331,0.004628,0.011446,0.005347,-0.005426
1623492390717843294,285,1623492390717843294,-0.001611,-0.000771,-0.014572,0.999655,0.00015,0.025944,-0.00406,0.008412,0.013482,-0.00301,0.010323,0.004608,-0.004008
1623492390817840099,286,1623492390817840099,-0.001466,-0.00356,-0.018066,0.99966,7.7e-05,0.025737,-0.003938,0.00724,0.004417,-0.009744,0.013795,0.003779,-0.004356
1623492390917836666,287,1623492390917836666,-0.001404,-0.004119,-0.020186,0.999659,0.000159,0.025784,-0.004086,0.007262,0.003144,-0.011611,0.012814,0.000603,-0.004733
1623492391017833471,288,1623492391017833471,-0.001466,-0.003719,-0.02355,0.999661,0.000114,0.025645,-0.004442,0.008835,0.004761,-0.015347,0.012034,0.003478,-0.00439
1623492391117830038,289,1623492391117830038,-0.002346,-0.002803,-0.024532,0.999656,0.000132,0.025827,-0.004451,0.004904,0.007396,-0.013915,0.012284,0.006397,-0.005146
1623492391217826843,290,1623492391217826843,-0.002217,-0.002066,-0.018777,0.999654,0.000166,0.025941,-0.00422,0.006069,0.009672,-0.000125,0.012512,0.004119,-0.004738
1623492391317823648,291,1623492391317823648,-0.00031,-0.002291,-0.018964,0.999649,4.6e-05,0.026049,-0.004658,0.01208,0.007043,-5.7e-05,0.013376,0.00098,-0.005953
1623492391417820215,292,1623492391417820215,-2e-06,-0.001683,-0.018021,0.999645,-1e-06,0.026274,-0.004223,0.010916,0.008502,0.001398,0.011549,0.003515,-0.005475
1623492391517817020,293,1623492391517817020,-0.001174,-0.001386,-0.014692,0.999654,3.2e-05,0.025964,-0.004167,0.007002,0.008483,0.006573,0.013836,0.002191,-0.005636
1623492391617813826,294,1623492391617813826,-0.001229,-0.003758,-0.014189,0.99966,-2.3e-05,0.025704,-0.004151,0.007959,0.000177,0.006663,0.010489,0.004049,-0.003638
1623492391717810392,295,1623492391717810392,-0.000211,-0.00637,-0.014929,0.999656,6.7e-05,0.025831,-0.004343,0.009851,-0.005297,0.004401,0.012862,0.003342,-0.005385
1623492391817807198,296,1623492391817807198,0.002889,-0.00679,-0.017499,0.999654,-9.1e-05,0.025915,-0.004442,0.017489,-0.003125,-0.000777,0.012433,0.004986,-0.005356
1623492391917804003,297,1623492391917804003,0.002693,-0.007297,-0.017916,0.999644,-6e-06,0.026296,-0.004475,0.013693,-0.003085,-0.00171,0.013176,0.0011,-0.004166
1623492392017800570,298,1623492392017800570,0.00218,-0.005653,-0.019452,0.999647,0.000101,0.026138,-0.004621,0.011468,0.002582,-0.003628,0.013117,0.003528,-0.00483
1623492392117797375,299,1623492392117797375,-0.000365,-0.005692,-0.018778,0.999651,2.3e-05,0.026048,-0.00429,0.005272,0.002702,-0.002591,0.0113,0.004298,-0.004789
1623492392217793941,300,1623492392217793941,-0.00151,-0.006135,-0.020944,0.999652,8.8e-05,0.02595,-0.004564,0.003943,0.00166,-0.005433,0.011963,0.00371,-0.005668
1623492392317790747,301,1623492392317790747,-0.001887,-0.006316,-0.018539,0.99965,-0.000117,0.026022,-0.004599,0.005125,0.002019,0.000345,0.012961,0.007067,-0.005394
1623492392417787552,302,1623492392417787552,0.000468,-0.007356,-0.021154,0.999648,5.8e-05,0.026131,-0.004443,0.010608,0.000184,-0.00423,0.012352,0.00415,-0.004238
1623492392517784119,303,1623492392517784119,0.00044,-0.005532,-0.0247,0.999647,6.9e-05,0.026172,-0.004373,0.010693,0.006685,-0.010978,0.011917,0.001565,-0.00523
1623492392617780924,304,1623492392617780924,0.003328,-0.006104,-0.025609,0.999642,-1.1e-05,0.026318,-0.004717,0.016757,0.004154,-0.010415,0.011631,0.001684,-0.005096
1623492392717777729,305,1623492392717777729,0.003884,-0.006457,-0.030173,0.999638,-0.000112,0.026461,-0.004856,0.015155,0.001798,-0.016511,0.013561,0.005476,-0.004284
1623492392817774296,306,1623492392817774296,0.003468,-0.00623,-0.027007,0.999636,9.5e-05,0.02661,-0.004266,0.013168,0.003435,-0.009257,0.010697,0.004779,-0.003878
1623492392917771101,307,1623492392917771101,0.00143,-0.006012,-0.024394,0.999641,6.8e-05,0.026367,-0.004564,0.007441,0.004045,-0.003459,0.011429,0.003314,-0.004969
1623492393017767668,308,1623492393017767668,-0.000835,-0.004522,-0.022556,0.99965,9.1e-05,0.026104,-0.004259,0.003622,0.008381,-0.001821,0.011538,0.000399,-0.004212
1623492393117764473,309,1623492393117764473,-0.001101,-0.002704,-0.021492,0.999643,-7.9e-05,0.026363,-0.004217,0.004106,0.012374,0.000909,0.013266,0.005055,-0.004662
1623492393217761278,310,1623492393217761278,9.6e-05,-0.000941,-0.024133,0.999644,0.000102,0.026235,-0.004733,0.007321,0.014895,-0.001087,0.011833,0.006813,-0.004593
1623492393317757845,311,1623492393317757845,-0.000369,-0.001479,-0.020446,0.99964,9.1e-05,0.026379,-0.004688,0.005319,0.010684,0.005652,0.012477,0.004175,-0.00411
1623492393417754650,312,1623492393417754650,-0.001239,-0.001953,-0.020008,0.999645,8.3e-05,0.026211,-0.004687,0.003868,0.006455,0.00516,0.012781,0.004289,-0.00524
1623492393517751455,313,1623492393517751455,-0.001289,-0.003009,-0.023741,0.999646,2.4e-05,0.026171,-0.004719,0.004863,0.001715,-0.002752,0.01272,0.002172,-0.005293
1623492393617748022,314,1623492393617748022,-0.001993,-0.003092,-0.021774,0.999652,7.2e-05,0.025965,-0.004634,0.004056,0.000923,0.001032,0.012999,0.002843,-0.006277
1623492393717744827,315,1623492393717744827,-0.003964,-0.001952,-0.022126,0.999648,2.8e-05,0.026024,-0.004979,-0.000435,0.00321,0.001248,0.011628,0.00409,-0.005304
1623492393817741632,316,1623492393817741632,-0.004073,-0.00053,-0.022035,0.999648,4.7e-05,0.026052,-0.004958,0.002164,0.006382,0.000526,0.012609,0.004792,-0.005379
1623492393917738199,317,1623492393917738199,-0.002092,-0.000851,-0.024094,0.999647,0.000137,0.026073,-0.004972,0.008239,0.003709,-0.003005,0.012824,0.006127,-0.003253
1623492394017735004,318,1623492394017735004,-0.001106,-0.003348,-0.02155,0.999648,9.1e-05,0.026068,-0.004799,0.010092,-0.002133,0.001197,0.012418,0.002705,-0.005385
1623492394117731571,319,1623492394117731571,-0.000754,-0.004787,-0.02465,0.999644,3.5e-05,0.026227,-0.00471,0.009885,-0.005518,-0.003031,0.012207,0.000853,-0.003752
1623492394217728376,320,1623492394217728376,-0.001479,-0.004642,-0.024031,0.999649,0.000112,0.026052,-0.004784,0.007457,-0.003002,-0.001584,0.010342,-0.000131,-0.00432
1623492394317725182,321,1623492394317725182,-0.000639,-0.007043,-0.019215,0.999652,-3.1e-05,0.025955,-0.004561,0.009999,-0.007463,0.007924,0.012311,0.005033,-0.004265
1623492394417721748,322,1623492394417721748,-0.002049,-0.00643,-0.01855,0.99966,0.000149,0.025646,-0.004578,0.00733,-0.003769,0.007395,0.011953,0.002323,-0.004049
1623492394517718554,323,1623492394517718554,-0.000828,-0.004416,-0.016959,0.99966,0.000113,0.025658,-0.00452,0.012067,0.004751,0.008158,0.011221,0.000542,-0.004204
1623492394617715359,324,1623492394617715359,-0.001008,-0.003138,-0.013232,0.999657,-4e-06,0.025777,-0.004533,0.011924,0.007898,0.012263,0.012234,0.001331,-0.004173
1623492394717711926,325,1623492394717711926,-0.002325,-0.001259,-0.014328,0.999658,1.5e-05,0.025771,-0.004297,0.006772,0.011904,0.008338,0.011537,0.002045,-0.004027
1623492394817708731,326,1623492394817708731,-0.002298,-0.00187,-0.014824,0.999649,4.5e-05,0.02618,-0.003813,0.007076,0.009396,0.005864,0.012997,0.004293,-0.004789
1623492394917705297,327,1623492394917705297,-0.001015,-0.001128,-0.015058,0.999647,-4.9e-05,0.026235,-0.003949,0.010599,0.010064,0.005285,0.011659,0.002802,-0.004405
1623492395017702103,328,1623492395017702103,-0.00129,-0.00293,-0.015373,0.999654,7e-05,0.025953,-0.004166,0.007388,0.003558,0.003555,0.012575,0.00505,-0.004962
1623492395117698908,329,1623492395117698908,-0.001989,-0.002423,-0.013577,0.999646,0.000145,0.026279,-0.004098,0.006272,0.005371,0.005856,0.011122,0.001503,-0.004319
1623492395217695475,330,1623492395217695475,-0.001333,-0.004011,-0.010708,0.999647,9.9e-05,0.026202,-0.004223,0.008062,0.001334,0.010091,0.01183,0.001794,-0.005841
1623492395317692280,331,1623492395317692280,0.000618,-0.004528,-0.010069,0.999657,0.000141,0.025826,-0.004228,0.012941,0.002056,0.009861,0.010544,0.00331,-0.004736
1623492395417689085,332,1623492395417689085,0.000481,-0.00505,-0.013054,0.999652,0.00012,0.026048,-0.004112,0.01126,0.001729,0.003234,0.011854,0.006568,-0.005501
1623492395517685652,333,1623492395517685652,0.00097,-0.004618,-0.01357,0.999648,0.000191,0.026201,-0.004101,0.011053,0.003639,0.000925,0.011109,0.004212,-0.005392
1623492395617682457,334,1623492395617682457,0.00092,-0.003876,-0.015712,0.999648,0.000204,0.026196,-0.00416,0.009176,0.006225,-0.00357,0.012356,0.002702,-0.006562
1623492395717679262,335,1623492395717679262,0.000933,-0.004053,-0.017428,0.999649,0.000144,0.026084,-0.004468,0.008831,0.00466,-0.00679,0.013968,-0.00047,-0.005297
1623492395817675829,336,1623492395817675829,-0.001513,-0.003839,-0.018722,0.999656,8.4e-05,0.025828,-0.004342,0.002656,0.004417,-0.008406,0.011611,0.004546,-0.005682
1623492395917672634,337,1623492395917672634,-0.0019,-0.004001,-0.019836,0.999652,4.4e-05,0.026039,-0.003981,0.001961,0.004252,-0.008457,0.012266,0.00327,-0.004693
1623492396017669201,338,1623492396017669201,-0.002624,-0.003788,-0.019362,0.999654,8.3e-05,0.026013,-0.003845,0.000807,0.005917,-0.00585,0.010024,0.004572,-0.004942
1623492396117666006,339,1623492396117666006,-0.003004,-0.001693,-0.018816,0.999651,0.000138,0.026066,-0.004226,0.001367,0.010822,-0.002758,0.013584,0.00509,-0.004434
1623492396217662811,340,1623492396217662811,-0.003153,-0.001696,-0.01589,0.999652,0.000125,0.026048,-0.004059,0.003454,0.009634,0.001551,0.01231,0.004492,-0.004153
1623492396317659378,341,1623492396317659378,-0.001946,-0.001436,-0.01899,0.99966,0.000131,0.025672,-0.004367,0.007395,0.00903,-0.003869,0.013775,0.002117,-0.004192
1623492396417656183,342,1623492396417656183,-0.001371,-0.004146,-0.01939,0.999648,0.000187,0.026155,-0.004233,0.007842,0.002285,-0.004433,0.012143,0.005141,-0.005058
1623492396517652988,343,1623492396517652988,-0.002501,-0.000925,-0.021175,0.999653,-4.1e-05,0.026018,-0.004035,0.005606,0.011068,-0.006182,0.011819,0.005191,-0.004461
1623492396617649555,344,1623492396617649555,-0.001805,-0.000313,-0.025103,0.99965,7e-06,0.026126,-0.004098,0.006985,0.01148,-0.01168,0.011222,0.002647,-0.005909
1623492396717646360,345,1623492396717646360,-0.000602,-0.003118,-0.02108,0.999644,7.3e-05,0.026331,-0.004155,0.009774,0.002674,-0.003498,0.012938,-0.00129,-0.004893
1623492396817642927,346,1623492396817642927,-0.001388,-0.002685,-0.019361,0.999646,0.000192,0.026245,-0.004168,0.007699,0.004428,-9.3e-05,0.011932,0.003,-0.006678
1623492396917639732,347,1623492396917639732,-0.001679,-0.003802,-0.016009,0.999645,2.2e-05,0.026303,-0.004183,0.006524,0.000485,0.007178,0.009666,0.000686,-0.003177
1623492397017636538,348,1623492397017636538,-0.001663,-0.003455,-0.014717,0.999652,5.6e-05,0.02599,-0.004344,0.007513,0.002883,0.008696,0.011803,0.002047,-0.005644
1623492397117633104,349,1623492397117633104,-0.00044,-0.001468,-0.017213,0.999656,0.000107,0.025828,-0.004399,0.011303,0.009556,0.001958,0.00821,0.00325,-0.005074
1623492397217629910,350,1623492397217629910,0.000185,-0.002426,-0.017732,0.999655,-0.000169,0.025902,-0.004208,0.012755,0.005364,0.000175,0.012643,0.003283,-0.004822
1623492397317626715,351,1623492397317626715,-0.002497,-0.002965,-0.017855,0.999655,0.000173,0.025906,-0.004223,0.003935,0.000253,-0.000569,0.012962,0.001562,-0.000697
1623492397417623281,352,1623492397417623281,-0.001354,-0.003964,-0.017275,0.999656,-0.000125,0.025769,-0.00475,0.008403,0.000599,0.00111,0.012809,0.002552,-0.003469
1623492397517620087,353,1623492397517620087,-0.001416,-0.004264,-0.018944,0.999653,8.6e-05,0.025944,-0.004457,0.009138,0.003014,-0.002078,0.020831,0.00753,-0.011263
1623492397617616892,354,1623492397617616892,0.000708,-0.003766,-0.018988,0.999646,-5.7e-05,0.026242,-0.004299,0.012635,0.003443,-0.004337,0.014069,0.002582,-0.004252
1623492397717613459,355,1623492397717613459,-0.001274,-0.001648,-0.018531,0.999651,9e-06,0.026078,-0.004132,0.006675,0.010453,-0.002454,0.015255,0.004401,-0.00574
1623492397817610264,356,1623492397817610264,-0.002185,-0.001425,-0.020786,0.999649,0.000167,0.026129,-0.004168,0.006084,0.012497,-0.006975,0.014182,0.002722,-0.01285
1623492397917606831,357,1623492397917606831,-0.004613,-0.001866,-0.020466,0.999646,0.000133,0.026316,-0.003759,-0.001009,0.006074,-0.007045,0.011057,-0.001508,0.001754
1623492398017603636,358,1623492398017603636,-0.003273,-0.002183,-0.021756,0.999643,-4.6e-05,0.026375,-0.004058,0.003528,0.008871,-0.004754,0.011302,0.004877,-0.012684
1623492398117600441,359,1623492398117600441,-0.003473,-0.00124,-0.023312,0.999653,0.000118,0.026013,-0.004028,0.007519,0.008287,-0.007872,0.01887,0.006887,-0.004788
1623492398217597008,360,1623492398217597008,-0.004239,-0.001577,-0.023412,0.99965,0.000254,0.026149,-0.003988,0.006064,0.002079,-0.009974,0.004278,-0.003277,0.003086
1623492398317593813,361,1623492398317593813,-0.003691,-0.002279,-0.023215,0.999647,0.000224,0.026208,-0.004133,0.008542,0.005416,-0.005715,0.007079,0.007857,-0.009222
