time,field.header.seq,field.header.stamp,field.pose.pose.position.x,field.pose.pose.position.y,field.pose.pose.position.z,field.pose.pose.orientation.x,field.pose.pose.orientation.y,field.pose.pose.orientation.z,field.pose.pose.orientation.w,field.twist.twist.linear.x,field.twist.twist.linear.y,field.twist.twist.linear.z,field.twist.twist.angular.x,field.twist.twist.angular.y,field.twist.twist.angular.z
1623490936869187117,2,1623490936869187117,0.00487,-0.014608,0.008149,0.999785,-0.000238,0.020518,-0.002912,-0.016024,-0.01833,-0.004824,0.013476,0.005089,-0.003589
1623490936969183207,3,1623490936969183207,0.005249,-0.011713,0.009233,0.999784,-0.000282,0.020491,-0.003214,-0.011508,-0.006106,-0.002172,0.012198,0.002523,-0.004031
1623490937069179535,4,1623490937069179535,0.007444,-0.010469,0.010768,0.999779,-9.7e-05,0.020746,-0.003277,-0.004898,-0.001517,0.002012,0.012087,0.002437,-0.003477
1623490937169175625,5,1623490937169175625,0.007704,-0.01045,0.013522,0.999785,-0.00025,0.020449,-0.003131,-0.004726,-0.000838,0.006791,0.01411,0.004077,-0.005492
1623490937269171953,6,1623490937269171953,0.007456,-0.011187,0.011876,0.999788,1e-05,0.020321,-0.003135,-0.004254,-0.00489,0.003175,0.012638,0.00441,-0.004446
1623490937369168043,7,1623490937369168043,0.008567,-0.01045,0.010043,0.999782,-0.000113,0.020631,-0.00317,-0.001007,-0.003022,-0.001001,0.012411,0.00135,-0.005182
1623490937469164371,8,1623490937469164371,0.009854,-0.010722,0.009891,0.999779,-7.2e-05,0.020717,-0.003438,0.001307,-0.00378,-0.000439,0.011923,0.003696,-0.004893
1623490937569160700,9,1623490937569160700,0.008066,-0.009351,0.016113,0.999778,-9.8e-05,0.020786,-0.003412,-0.005449,-0.000325,0.010224,0.014513,0.003654,-0.004276
1623490937669156790,10,1623490937669156790,0.007758,-0.010027,0.016968,0.999781,-1.1e-05,0.020622,-0.003324,-0.005343,-0.004049,0.012107,0.013085,0.003562,-0.005209
1623490937769153118,11,1623490937769153118,0.008235,-0.010381,0.013838,0.999782,-4.3e-05,0.020591,-0.003203,-0.002938,-0.004405,0.006456,0.013743,0.001414,-0.004578
1623490937869149208,12,1623490937869149208,0.006965,-0.009561,0.013532,0.999783,8e-06,0.020573,-0.002986,-0.006489,-0.000728,0.004286,0.014058,0.002032,-0.003473
1623490937969145536,13,1623490937969145536,0.008249,-0.009272,0.014931,0.999779,-2.7e-05,0.020745,-0.003255,-0.003123,-0.001416,0.005889,0.015563,0.002676,-0.004554
1623490938069141626,14,1623490938069141626,0.008029,-0.007873,0.013541,0.99978,-7e-06,0.020691,-0.003153,-0.00312,0.002438,0.003786,0.013367,0.001242,-0.004494
1623490938169137955,15,1623490938169137955,0.00597,-0.008365,0.011734,0.999785,3.5e-05,0.020465,-0.003158,-0.008661,0.000232,0.00194,0.013242,0.001935,-0.005057
1623490938269134283,16,1623490938269134283,0.005407,-0.009723,0.009461,0.999783,-4.8e-05,0.020558,-0.003196,-0.008268,-0.004398,-0.001959,0.0142,0.003454,-0.00383
1623490938369130373,17,1623490938369130373,0.005997,-0.010057,0.008134,0.999787,-6.1e-05,0.020345,-0.003209,-0.004457,-0.005159,-0.003247,0.01531,0.003276,-0.005207
1623490938469126701,18,1623490938469126701,0.007089,-0.010743,0.009004,0.999792,5e-05,0.020139,-0.00312,-0.001796,-0.006175,-0.000247,0.01364,0.001863,-0.004426
1623490938569122791,19,1623490938569122791,0.005962,-0.010244,0.010604,0.999792,-0.000163,0.020128,-0.003025,-0.00457,-0.004154,0.003127,0.012529,0.002455,-0.004074
1623490938669119120,20,1623490938669119120,0.007686,-0.009884,0.012889,0.999788,-0.000153,0.020341,-0.003151,-0.001094,-0.003386,0.005012,0.012184,0.001776,-0.004856
1623490938769115210,21,1623490938769115210,0.008663,-0.010992,0.012959,0.999789,1.9e-05,0.020302,-0.002862,-3.2e-05,-0.004836,0.00423,0.014839,0.002241,-0.004331
1623490938869111538,22,1623490938869111538,0.009012,-0.010839,0.012396,0.999783,-4.8e-05,0.0206,-0.003079,-0.001331,-0.004842,0.002124,0.013259,0.001708,-0.003749
1623490938969107628,23,1623490938969107628,0.008256,-0.012144,0.011713,0.99978,4e-05,0.020709,-0.003087,-0.004395,-0.008445,0.000396,0.012951,0.001344,-0.004106
1623490939069103956,24,1623490939069103956,0.006909,-0.011989,0.010759,0.999776,-3.1e-05,0.020872,-0.003263,-0.007883,-0.006996,-0.001058,0.013004,0.003152,-0.003686
1623490939169100285,25,1623490939169100285,0.006281,-0.012414,0.012891,0.999779,-2.3e-05,0.020786,-0.002859,-0.009685,-0.005452,0.003399,0.014192,0.004937,-0.0034
1623490939269096375,26,1623490939269096375,0.006072,-0.013205,0.01256,0.999778,0.000125,0.020793,-0.003096,-0.010115,-0.006936,0.002484,0.013947,0.002837,-0.003921
1623490939369092703,27,1623490939369092703,0.007061,-0.009425,0.007549,0.999782,4.2e-05,0.020634,-0.003132,-0.00577,0.005746,-0.00518,0.013338,0.001198,-0.004016
1623490939469088793,28,1623490939469088793,0.006703,-0.009326,0.007886,0.999783,4.5e-05,0.020582,-0.003173,-0.005508,0.004591,-0.002548,0.012903,0.002358,-0.00395
1623490939569085121,29,1623490939569085121,0.006157,-0.008123,0.009872,0.999782,-5.3e-05,0.020587,-0.003261,-0.007389,0.005619,0.000764,0.014353,0.005116,-0.005032
1623490939669081211,30,1623490939669081211,0.007652,-0.009304,0.008209,0.999776,-0.00013,0.020887,-0.003327,-0.003879,3.2e-05,-0.001662,0.013292,0.001586,-0.004504
1623490939769077539,31,1623490939769077539,0.005353,-0.008086,0.010207,0.999775,-0.000156,0.020917,-0.003463,-0.011308,0.002218,0.003155,0.011514,0.001882,-0.006042
1623490939869073868,32,1623490939869073868,0.006452,-0.009608,0.00942,0.999779,-7e-06,0.020689,-0.003514,-0.006253,-0.004605,0.002801,0.012957,0.00155,-0.004349
1623490939969069958,33,1623490939969069958,0.006611,-0.010518,0.012169,0.999777,0.000103,0.020815,-0.00328,-0.005865,-0.007103,0.006933,0.014361,0.003454,-0.004154
1623490940069066286,34,1623490940069066286,0.009322,-0.0101,0.011879,0.999785,5.1e-05,0.020505,-0.002946,0.001332,-0.002817,0.006296,0.014065,0.001111,-0.00459
1623490940169062376,35,1623490940169062376,0.009901,-0.010156,0.01064,0.999782,3e-05,0.020636,-0.003064,0.000593,-0.003259,0.003311,0.012093,0.00389,-0.005908
1623490940269058704,36,1623490940269058704,0.00876,-0.008903,0.010112,0.99978,-8.9e-05,0.020716,-0.003214,-0.00302,-0.000351,0.001884,0.01466,0.003854,-0.004465
1623490940369054794,37,1623490940369054794,0.009551,-0.011959,0.015761,0.999782,-2.2e-05,0.020608,-0.003213,-0.00276,-0.010526,0.0113,0.013321,0.004538,-0.005013
1623490940469051123,38,1623490940469051123,0.01108,-0.010923,0.015639,0.999783,-7.3e-05,0.020559,-0.003076,0.000378,-0.004514,0.009413,0.012822,0.001088,-0.005062
1623490940569047213,39,1623490940569047213,0.007412,-0.009466,0.014751,0.99978,3.5e-05,0.020753,-0.003002,-0.011305,0.00059,0.0058,0.01221,0.004884,-0.004055
1623490940669043541,40,1623490940669043541,0.007231,-0.009209,0.014736,0.999779,1e-05,0.020787,-0.003129,-0.010445,-0.000534,0.005245,0.012515,0.00273,-0.004414
1623490940769039869,41,1623490940769039869,0.008454,-0.012077,0.01552,0.999776,0.000145,0.020923,-0.003072,-0.007313,-0.010242,0.005313,0.013042,0.005209,-0.004194
1623490940869035959,42,1623490940869035959,0.007674,-0.012515,0.015398,0.999775,-0.000107,0.020891,-0.003436,-0.010463,-0.011464,0.004319,0.011938,0.002606,-0.003472
1623490940969032288,43,1623490940969032288,0.006209,-0.010874,0.010985,0.999774,6.1e-05,0.020932,-0.003516,-0.013127,-0.005424,-0.002192,0.012939,0.00132,-0.003783
1623490941069028378,44,1623490941069028378,0.007142,-0.011597,0.007976,0.99978,-3.3e-05,0.020672,-0.003262,-0.008953,-0.007553,-0.00605,0.014647,0.003917,-0.004836
1623490941169024706,45,1623490941169024706,0.006255,-0.010844,0.007424,0.999783,5.4e-05,0.020546,-0.003145,-0.009937,-0.003574,-0.006228,0.013467,0.001732,-0.003849
1623490941269020796,46,1623490941269020796,0.007217,-0.01091,0.00976,0.999782,-0.000125,0.020575,-0.003263,-0.007705,-0.004636,-0.001096,0.014276,0.002556,-0.004355
1623490941369017124,47,1623490941369017124,0.007278,-0.010405,0.008611,0.999785,4e-06,0.02049,-0.003095,-0.006829,-0.002599,-0.002972,0.012908,0.002118,-0.003929
1623490941469013453,48,1623490941469013453,0.008213,-0.009813,0.009068,0.999784,1.1e-05,0.020538,-0.003058,-0.005276,-0.001337,-0.001308,0.01502,0.003875,-0.003895
1623490941569009542,49,1623490941569009542,0.008897,-0.009989,0.011569,0.999783,-6.1e-05,0.020596,-0.003093,-0.004505,-0.002933,0.003442,0.012717,0.002381,-0.004716
1623490941669005871,50,1623490941669005871,0.008636,-0.010357,0.010935,0.99978,4.6e-05,0.020716,-0.003113,-0.006937,-0.004904,0.002481,0.013519,0.001661,-0.005041
1623490941769001961,51,1623490941769001961,0.007462,-0.011649,0.010479,0.999779,0.000131,0.020747,-0.00334,-0.010536,-0.010627,0.001232,0.012839,0.003092,-0.005335
1623490941868998289,52,1623490941868998289,0.008507,-0.010665,0.009041,0.999787,3.4e-05,0.02038,-0.003104,-0.005871,-0.004258,0.00058,0.014165,0.00665,-0.005814
1623490941968994379,53,1623490941968994379,0.009696,-0.011695,0.01195,0.999784,-0.000131,0.020545,-0.003053,-0.004144,-0.007398,0.005342,0.012001,0.002006,-0.004993
1623490942068990707,54,1623490942068990707,0.0078,-0.011922,0.011234,0.999781,-0.00011,0.020645,-0.00331,-0.010448,-0.007639,0.002924,0.014387,0.002891,-0.004313
1623490942168987036,55,1623490942168987036,0.006206,-0.011496,0.013347,0.999779,-3.6e-05,0.020711,-0.00334,-0.014882,-0.00527,0.005416,0.01272,0.001943,-0.003648
1623490942268983126,56,1623490942268983126,0.005049,-0.01082,0.013741,0.999779,-4.3e-05,0.020723,-0.003447,-0.0158,-0.003008,0.005785,0.013402,0.003524,-0.004898
1623490942368979454,57,1623490942368979454,0.005548,-0.010645,0.01363,0.999779,-0.000148,0.020695,-0.003539,-0.012428,-0.00379,0.005336,0.012936,0.001136,-0.004126
1623490942468975544,58,1623490942468975544,0.005368,-0.010161,0.013065,0.999779,-7.6e-05,0.020731,-0.003284,-0.011762,-0.001664,0.003259,0.013299,0.003592,-0.004957
1623490942568971872,59,1623490942568971872,0.005513,-0.009116,0.012742,0.999783,-7.6e-05,0.020567,-0.003196,-0.010147,0.001086,0.002438,0.014008,0.002728,-0.003043
1623490942668967962,60,1623490942668967962,0.007305,-0.010343,0.012229,0.999782,5.3e-05,0.020603,-0.003113,-0.004217,-0.004964,0.002605,0.013865,0.004983,-0.003759
1623490942768964291,61,1623490942768964291,0.007081,-0.009382,0.011174,0.99978,-7.3e-05,0.020698,-0.003205,-0.006058,-0.002204,0.00071,0.013332,0.00211,-0.005532
1623490942868960381,62,1623490942868960381,0.007387,-0.011162,0.011696,0.99978,-0.000104,0.020698,-0.003251,-0.005719,-0.007771,0.001447,0.011315,0.003518,-0.005065
1623490942968956709,63,1623490942968956709,0.00737,-0.01132,0.012844,0.999778,-9e-05,0.020769,-0.003501,-0.006426,-0.008882,0.002899,0.015085,0.002748,-0.003653
1623490943068953037,64,1623490943068953037,0.008634,-0.011656,0.009841,0.999782,3.4e-05,0.020589,-0.003447,-0.003198,-0.009424,-0.001401,0.014003,0.005269,-0.004805
1623490943168949127,65,1623490943168949127,0.009355,-0.010851,0.00831,0.999781,-3e-05,0.020626,-0.003263,-0.002318,-0.004933,-0.003879,0.013322,0.00294,-0.004788
1623490943268945456,66,1623490943268945456,0.009082,-0.009861,0.00495,0.999788,-1.2e-05,0.020314,-0.003242,-0.002801,-0.000769,-0.00677,0.012214,0.001188,-0.005038
1623490943368941545,67,1623490943368941545,0.008212,-0.011872,0.008094,0.999781,0.000123,0.020678,-0.003212,-0.00633,-0.00749,-0.001715,0.015288,0.003262,-0.003605
1623490943468937874,68,1623490943468937874,0.00766,-0.01202,0.008055,0.999784,9.6e-05,0.020503,-0.003197,-0.00796,-0.006132,-0.000838,0.01375,0.006124,-0.004861
1623490943568933964,69,1623490943568933964,0.008033,-0.011464,0.009082,0.999791,5.5e-05,0.020227,-0.00296,-0.006514,-0.002643,0.001943,0.013671,0.001265,-0.005267
1623490943668930292,70,1623490943668930292,0.008513,-0.011847,0.009302,0.999787,4.9e-05,0.020412,-0.003007,-0.005143,-0.004522,0.002383,0.013161,0.001609,-0.003935
1623490943768926620,71,1623490943768926620,0.00942,-0.011782,0.010549,0.999787,-1.8e-05,0.020402,-0.002994,-0.003965,-0.004017,0.003709,0.013703,0.003988,-0.00453
1623490943868922710,72,1623490943868922710,0.008191,-0.010878,0.008279,0.999785,7e-06,0.020503,-0.002915,-0.009161,-0.002062,-0.000191,0.013255,0.004531,-0.004897
1623490943968919039,73,1623490943968919039,0.006353,-0.0124,0.007632,0.999784,-3.1e-05,0.020534,-0.003138,-0.013105,-0.007696,-0.001889,0.013631,0.001211,-0.004739
1623490944068915129,74,1623490944068915129,0.00344,-0.011014,0.00495,0.999787,-3.5e-05,0.020333,-0.003253,-0.018001,-0.00426,-0.005794,0.012801,0.001157,-0.00427
1623490944168911457,75,1623490944168911457,0.00212,-0.010475,0.003433,0.999785,0.000133,0.020448,-0.003161,-0.018636,-0.00328,-0.007567,0.01258,0.003577,-0.004084
1623490944268907547,76,1623490944268907547,0.003388,-0.011876,0.005397,0.999789,-2.1e-05,0.02027,-0.003227,-0.012944,-0.008703,-0.003325,0.013681,0.004511,-0.002953
1623490944368903875,77,1623490944368903875,0.003842,-0.011988,0.005051,0.999786,-0.000184,0.020425,-0.003003,-0.012025,-0.007719,-0.003589,0.012526,0.002261,-0.003483
1623490944468899965,78,1623490944468899965,0.002088,-0.012841,0.006125,0.999788,-6.2e-05,0.020322,-0.003187,-0.015699,-0.010718,-0.001809,0.012409,0.001574,-0.004002
1623490944568896294,79,1623490944568896294,0.004759,-0.013589,0.00924,0.999784,-2e-06,0.020502,-0.003314,-0.009403,-0.012014,0.003288,0.013884,0.002556,-0.003497
1623490944668892622,80,1623490944668892622,0.004982,-0.012506,0.012285,0.999783,-3.4e-05,0.020558,-0.003176,-0.009193,-0.00708,0.008719,0.013838,0.003834,-0.003977
1623490944768888712,81,1623490944768888712,0.005654,-0.010742,0.011246,0.999783,0.000122,0.020572,-0.003117,-0.008416,0.000236,0.004889,0.013561,0.002267,-0.004597
1623490944868885040,82,1623490944868885040,0.004835,-0.011202,0.011817,0.999785,5.5e-05,0.0205,-0.002873,-0.011085,-0.001786,0.004704,0.012717,0.001056,-0.005255
1623490944968881130,83,1623490944968881130,0.005217,-0.012402,0.009118,0.999788,4.2e-05,0.020353,-0.002877,-0.009579,-0.006219,-0.000801,0.015256,0.002894,-0.004012
1623490945068877459,84,1623490945068877459,0.005514,-0.009461,0.008175,0.999788,-0.000104,0.02037,-0.002855,-0.008478,0.003387,-0.001608,0.013433,0.006319,-0.005168
1623490945168873549,85,1623490945168873549,0.00472,-0.009831,0.00718,0.999784,-0.000241,0.020524,-0.003085,-0.011324,-0.000738,-0.003869,0.012644,0.00284,-0.004617
1623490945268869877,86,1623490945268869877,0.003847,-0.010215,0.004294,0.999788,-0.000141,0.020357,-0.003016,-0.012793,-0.002839,-0.007076,0.01177,0.003102,-0.004267
1623490945368866205,87,1623490945368866205,0.003617,-0.010852,0.003147,0.999793,-1e-06,0.020079,-0.003009,-0.011463,-0.004902,-0.007204,0.014781,0.003577,-0.004901
1623490945468862295,88,1623490945468862295,0.003165,-0.013179,0.00149,0.999795,9e-05,0.019995,-0.002852,-0.011138,-0.011571,-0.009153,0.014255,0.002885,-0.004749
1623490945568858624,89,1623490945568858624,0.001292,-0.013017,-0.00102,0.999793,9.7e-05,0.020117,-0.003012,-0.014541,-0.009427,-0.011311,0.013659,0.002779,-0.004239
1623490945668854713,90,1623490945668854713,0.00188,-0.013587,0.000259,0.999789,3e-05,0.020297,-0.002864,-0.012747,-0.009475,-0.008428,0.011779,0.000243,-0.003339
1623490945768851042,91,1623490945768851042,0.002303,-0.012955,0.000606,0.999791,7.7e-05,0.020198,-0.002856,-0.011909,-0.007026,-0.007003,0.01464,0.003035,-0.003926
1623490945868847132,92,1623490945868847132,0.004131,-0.013407,0.001133,0.999795,0.000208,0.019999,-0.002832,-0.006496,-0.007093,-0.004847,0.01261,0.003205,-0.004961
1623490945968843460,93,1623490945968843460,0.003315,-0.014307,0.000898,0.999796,0.000132,0.019949,-0.002911,-0.008138,-0.009217,-0.005509,0.011545,0.002658,-0.005016
1623490946068839550,94,1623490946068839550,0.003647,-0.014096,0.000486,0.999794,0.00011,0.02008,-0.002777,-0.008354,-0.007507,-0.006388,0.013766,0.003193,-0.003814
1623490946168835878,95,1623490946168835878,0.002759,-0.013515,0.003003,0.999793,-0.000109,0.020137,-0.002773,-0.011529,-0.005609,-0.001804,0.012143,0.001796,-0.005739
1623490946268832207,96,1623490946268832207,0.002737,-0.013348,0.00535,0.99979,8.2e-05,0.020255,-0.002829,-0.011755,-0.005245,0.002283,0.011731,0.002441,-0.006006
1623490946368828297,97,1623490946368828297,0.004995,-0.014288,0.006361,0.999789,0.000252,0.020362,-0.002572,-0.006523,-0.006651,0.002783,0.011796,0.00204,-0.004256
1623490946468824625,98,1623490946468824625,0.005061,-0.013559,0.00846,0.999791,0.000148,0.020259,-0.002601,-0.008121,-0.003939,0.006307,0.013465,0.005025,-0.004646
1623490946568820715,99,1623490946568820715,0.004263,-0.011969,0.007641,0.999789,0.000272,0.020333,-0.002549,-0.010551,0.000589,0.002743,0.01424,0.004429,-0.003277
1623490946668817043,100,1623490946668817043,0.004278,-0.012536,0.005035,0.999793,0.000188,0.020115,-0.002711,-0.010277,-0.003148,-0.001403,0.01406,0.000453,-0.004852
1623490946768813133,101,1623490946768813133,0.005116,-0.013978,0.005724,0.999792,0.0001,0.020186,-0.002818,-0.007884,-0.007552,-0.000275,0.012261,0.004027,-0.004238
1623490946868809462,102,1623490946868809462,0.005583,-0.013392,0.004854,0.999789,4.6e-05,0.020307,-0.002918,-0.008396,-0.005911,-0.002595,0.01317,0.003308,-0.002877
1623490946968805790,103,1623490946968805790,0.003645,-0.012257,0.004625,0.999784,0.000334,0.02053,-0.002903,-0.015179,-0.003885,-0.00275,0.014553,0.003311,-0.004354
1623490947068801880,104,1623490947068801880,0.00249,-0.01318,0.004778,0.999791,9.3e-05,0.020219,-0.002834,-0.017024,-0.007461,-0.002315,0.013728,0.002286,-0.004748
1623490947168798208,105,1623490947168798208,0.000713,-0.01151,0.006215,0.999788,0.000112,0.020347,-0.002872,-0.020888,-0.002766,0.000495,0.011215,0.002751,-0.003063
1623490947268794298,106,1623490947268794298,0.000814,-0.011311,0.005011,0.999792,1.2e-05,0.020212,-0.002692,-0.018165,-0.001467,-0.003326,0.013242,0.004227,-0.004142
1623490947368790627,107,1623490947368790627,0.00249,-0.010922,0.002298,0.99979,-7e-06,0.02024,-0.002885,-0.012783,-0.002664,-0.007959,0.01204,0.003382,-0.004593
1623490947468786716,108,1623490947468786716,0.002884,-0.011172,0.004408,0.999783,5.8e-05,0.020591,-0.003035,-0.013385,-0.005338,-0.004877,0.01358,0.002488,-0.004293
1623490947568783045,109,1623490947568783045,0.001541,-0.011575,-0.000177,0.999789,8.6e-05,0.020298,-0.002831,-0.015857,-0.006233,-0.012199,0.012304,0.002581,-0.004526
1623490947668779135,110,1623490947668779135,0.003346,-0.012615,-0.005208,0.999794,5.2e-05,0.02008,-0.002734,-0.008262,-0.008849,-0.017375,0.015693,0.004904,-0.004351
1623490947768775463,111,1623490947768775463,0.00264,-0.011463,-0.003075,0.999793,-5.2e-05,0.020132,-0.002906,-0.010924,-0.005804,-0.012383,0.013555,0.005092,-0.005387
1623490947868771791,112,1623490947868771791,0.005344,-0.012625,-0.001093,0.999793,-1e-06,0.020139,-0.002804,-0.00498,-0.008473,-0.008384,0.012572,0.003071,-0.004358
1623490947968767881,113,1623490947968767881,0.004572,-0.012541,-0.00027,0.999795,0.000141,0.020013,-0.002737,-0.007744,-0.007439,-0.006718,0.012141,0.001849,-0.004456
1623490948068764210,114,1623490948068764210,0.004143,-0.012545,0.000808,0.999794,7.8e-05,0.020094,-0.002798,-0.009535,-0.006093,-0.004143,0.014337,0.004081,-0.00516
1623490948168760300,115,1623490948168760300,0.003098,-0.012176,0.001754,0.999795,6.7e-05,0.020048,-0.002451,-0.010961,-0.003726,-0.001746,0.013048,0.003501,-0.005637
1623490948268756628,116,1623490948268756628,0.002701,-0.011322,0.000833,0.999792,-4.8e-05,0.020218,-0.002601,-0.011778,-0.002621,-0.004036,0.012503,0.002212,-0.004459
1623490948368752718,117,1623490948368752718,0.003626,-0.013201,0.004062,0.999792,0.000162,0.02022,-0.002637,-0.008958,-0.008631,0.001533,0.012734,0.002288,-0.005429
1623490948468749046,118,1623490948468749046,0.004264,-0.013464,0.00526,0.999789,-6e-06,0.020318,-0.002683,-0.007449,-0.007834,0.00304,0.012454,0.000592,-0.003911
1623490948568745375,119,1623490948568745375,0.003972,-0.013367,0.006833,0.999788,5.8e-05,0.020386,-0.002641,-0.009543,-0.007898,0.004014,0.013408,0.00136,-0.004639
1623490948668741465,120,1623490948668741465,0.002384,-0.012263,0.004868,0.999791,0.000165,0.020223,-0.002746,-0.013146,-0.004159,0.000271,0.01301,0.00573,-0.004631
1623490948768737793,121,1623490948768737793,0.004996,-0.01083,0.002676,0.999796,0.000154,0.020012,-0.002701,-0.004734,-0.000483,-0.003954,0.012732,0.001249,-0.004418
1623490948868733883,122,1623490948868733883,0.006053,-0.010807,0.001018,0.999792,0.000124,0.020173,-0.002691,-0.00377,-0.00137,-0.007355,0.014153,0.003266,-0.005334
1623490948968730211,123,1623490948968730211,0.00566,-0.010964,-0.000715,0.999792,0.000116,0.020187,-0.002783,-0.005894,-0.003886,-0.009895,0.013854,0.002732,-0.005843
1623490949068726301,124,1623490949068726301,0.005383,-0.00991,-0.000688,0.999793,-3e-06,0.020147,-0.002508,-0.007279,-0.000506,-0.008696,0.01248,0.00315,-0.004974
1623490949168722630,125,1623490949168722630,0.005353,-0.011616,-0.000367,0.999795,2.9e-05,0.020059,-0.002641,-0.007634,-0.007048,-0.00732,0.011209,0.002632,-0.003873
1623490949268718958,126,1623490949268718958,0.00511,-0.011396,7.5e-05,0.999795,0.000165,0.020025,-0.002659,-0.009417,-0.006093,-0.005489,0.015217,0.00466,-0.004166
1623490949368715048,127,1623490949368715048,0.003587,-0.01247,0.000244,0.999796,0.000219,0.01998,-0.002601,-0.014127,-0.009972,-0.004685,0.012896,0.002712,-0.004022
1623490949468711376,128,1623490949468711376,0.004004,-0.015396,-0.002382,0.999799,0.00013,0.019865,-0.002659,-0.011372,-0.017255,-0.008372,0.012914,0.003584,-0.004842
1623490949568707466,129,1623490949568707466,0.002385,-0.015263,-0.002907,0.999795,0.000148,0.020052,-0.00264,-0.015038,-0.013782,-0.009477,0.014,0.002453,-0.004897
1623490949668703794,130,1623490949668703794,0.003393,-0.013658,-0.001623,0.999797,0.000114,0.019979,-0.002557,-0.011867,-0.00697,-0.006275,0.015169,0.005503,-0.005167
1623490949768699884,131,1623490949768699884,0.003032,-0.014258,0.001771,0.999792,8.7e-05,0.020225,-0.002525,-0.013557,-0.007396,-0.000489,0.013913,0.001498,-0.005179
1623490949868696213,132,1623490949868696213,0.002141,-0.016032,0.000624,0.999795,0.000225,0.020058,-0.002564,-0.015149,-0.011515,-0.001675,0.012154,0.002909,-0.004171
1623490949968692303,133,1623490949968692303,0.002428,-0.016014,0.000739,0.999793,0.000138,0.020141,-0.002533,-0.012377,-0.008687,-0.001695,0.013705,0.00463,-0.004454
1623490950068688631,134,1623490950068688631,0.002748,-0.014649,0.001485,0.999794,0.000124,0.02012,-0.002539,-0.011622,-0.004802,-0.000604,0.01428,0.003754,-0.004068
1623490950168684959,135,1623490950168684959,0.001655,-0.013692,0.004105,0.99979,8.2e-05,0.020248,-0.002945,-0.014819,-0.004068,0.002357,0.012952,0.002006,-0.005087
1623490950268681049,136,1623490950268681049,0.000755,-0.011669,0.003849,0.999789,8.4e-05,0.020311,-0.002823,-0.015453,0.001369,0.00069,0.012402,0.00245,-0.004603
1623490950368677378,137,1623490950368677378,-0.000558,-0.011319,0.001697,0.999792,0.000292,0.02022,-0.002631,-0.017525,0.001161,-0.004171,0.01328,0.002209,-0.003094
1623490950468673468,138,1623490950468673468,0.001421,-0.013465,-0.000849,0.999795,0.000222,0.020036,-0.002847,-0.010499,-0.006047,-0.007857,0.014641,0.003136,-0.004701
1623490950568669796,139,1623490950568669796,0.002014,-0.014019,-0.00015,0.9998,-1.9e-05,0.019813,-0.00253,-0.007916,-0.00529,-0.005733,0.013108,0.004132,-0.005225
1623490950668665886,140,1623490950668665886,0.002379,-0.013041,-0.000821,0.999801,8.9e-05,0.019733,-0.002574,-0.006697,-0.001831,-0.006549,0.012298,0.003319,-0.004192
1623490950768662214,141,1623490950768662214,0.003122,-0.010709,-0.000426,0.999797,4e-05,0.019941,-0.002798,-0.006085,0.003487,-0.006774,0.014883,0.003972,-0.005725
1623490950868658543,142,1623490950868658543,0.002256,-0.011108,-0.001452,0.999795,0.000151,0.02006,-0.002683,-0.008867,-0.000146,-0.007997,0.013175,0.005483,-0.004747
1623490950968654633,143,1623490950968654633,0.00205,-0.01194,-0.002929,0.999796,0.000183,0.019986,-0.002565,-0.008362,-0.002934,-0.010346,0.013652,0.001852,-0.004994
1623490951068650961,144,1623490951068650961,0.002644,-0.011854,-0.000449,0.999796,1.3e-05,0.019994,-0.002722,-0.007134,-0.004274,-0.005212,0.013872,0.00206,-0.004229
1623490951168647051,145,1623490951168647051,0.002339,-0.012815,-0.002502,0.999793,0.00024,0.020097,-0.002843,-0.00775,-0.007534,-0.007794,0.014057,0.005,-0.004636
1623490951268643379,146,1623490951268643379,0.003505,-0.012449,-0.003148,0.999792,5.6e-05,0.020137,-0.002914,-0.005766,-0.006121,-0.007777,0.013545,0.003041,-0.004441
1623490951368639469,147,1623490951368639469,0.004276,-0.011544,-0.005615,0.999798,6.7e-05,0.019883,-0.002837,-0.004126,-0.002889,-0.010109,0.012592,0.004379,-0.004509
1623490951468635798,148,1623490951468635798,0.004815,-0.011196,-0.00472,0.999794,-0.000138,0.020057,-0.002815,-0.004574,-0.002755,-0.007894,0.013724,0.001152,-0.003887
1623490951568631887,149,1623490951568631887,0.004907,-0.012554,-0.003998,0.999796,0.000228,0.020006,-0.002717,-0.00538,-0.006915,-0.006245,0.014403,0.004144,-0.003889
1623490951668628216,150,1623490951668628216,0.004907,-0.01333,-0.002934,0.999796,0.000204,0.019978,-0.002641,-0.007629,-0.008839,-0.003116,0.013507,0.003875,-0.004796
1623490951768624544,151,1623490951768624544,0.004895,-0.013371,-0.002326,0.999796,0.000147,0.020035,-0.002485,-0.007887,-0.006299,-0.002072,0.012261,0.002455,-0.004045
1623490951868620634,152,1623490951868620634,0.002406,-0.013902,-0.004062,0.999798,3.6e-05,0.019887,-0.00258,-0.014979,-0.007989,-0.005342,0.014016,0.003687,-0.004428
1623490951968616962,153,1623490951968616962,0.002514,-0.014243,-0.004102,0.999798,0.000272,0.019877,-0.002846,-0.014192,-0.009632,-0.004961,0.014269,0.003959,-0.004498
1623490952068613052,154,1623490952068613052,0.002494,-0.014796,-0.001442,0.999797,8.1e-05,0.019943,-0.002738,-0.013927,-0.011711,-0.000588,0.012257,0.003742,-0.004324
1623490952168609381,155,1623490952168609381,0.003254,-0.013603,-0.003692,0.999796,0.00021,0.019981,-0.002656,-0.011438,-0.006372,-0.005858,0.014201,0.003043,-0.003778
1623490952268605471,156,1623490952268605471,0.004146,-0.015881,0.001739,0.999795,0.000161,0.020068,-0.002617,-0.010499,-0.013245,0.001815,0.013671,0.006412,-0.003317
1623490952368601799,157,1623490952368601799,0.004591,-0.015793,0.001174,0.999796,0.000198,0.02003,-0.002462,-0.008946,-0.009975,-0.00026,0.01514,0.003827,-0.004014
1623490952468598127,158,1623490952468598127,0.003593,-0.011627,-0.001004,0.999797,3e-06,0.01998,-0.002575,-0.01068,0.002125,-0.00386,0.015586,0.002638,-0.0053
1623490952568594217,159,1623490952568594217,0.002643,-0.011964,-0.001033,0.999794,7.3e-05,0.020098,-0.002777,-0.013548,-0.000698,-0.003732,0.012948,0.001778,-0.002398
1623490952668590546,160,1623490952668590546,0.0017,-0.012132,-0.00087,0.999795,0.000155,0.019999,-0.002854,-0.014557,-0.002478,-0.003839,0.016239,0.003579,-0.005214
1623490952768586636,161,1623490952768586636,0.002113,-0.012912,-0.000338,0.999794,9.2e-05,0.020073,-0.002889,-0.012904,-0.005828,-0.003073,0.014464,0.005601,-0.005465
1623490952868582964,162,1623490952868582964,0.00101,-0.011347,-0.004449,0.999795,0.000132,0.020003,-0.002864,-0.014088,-0.001948,-0.010805,0.013017,0.00126,-0.004479
1623490952968579054,163,1623490952968579054,0.000781,-0.010958,-0.002206,0.999795,-3e-06,0.020033,-0.002843,-0.013973,-0.00153,-0.006224,0.012519,0.003554,-0.003945
1623490953068575382,164,1623490953068575382,0.000824,-0.010833,-0.003148,0.999801,0.000173,0.019774,-0.0026,-0.012509,-0.001032,-0.006888,0.013601,0.003138,-0.004729
1623490953168571472,165,1623490953168571472,0.000331,-0.011846,-0.003655,0.999801,4e-06,0.019754,-0.002594,-0.013952,-0.005389,-0.006788,0.014243,0.003872,-0.004874
1623490953268567801,166,1623490953268567801,-0.000653,-0.012242,-0.005826,0.999797,0.000137,0.019946,-0.002705,-0.015034,-0.007441,-0.009766,0.013117,0.003778,-0.003892
1623490953368564129,167,1623490953368564129,-0.000452,-0.012971,-0.00391,0.999797,-1.2e-05,0.019962,-0.002728,-0.014019,-0.009028,-0.006343,0.012841,0.001719,-0.00458
1623490953468560219,168,1623490953468560219,-0.000889,-0.013381,-0.002272,0.999798,7.5e-05,0.019874,-0.002721,-0.014708,-0.009429,-0.003419,0.01426,0.001738,-0.004296
1623490953568556547,169,1623490953568556547,-0.000238,-0.013732,0.000375,0.999795,0.000104,0.02006,-0.002615,-0.013491,-0.010141,-0.000226,0.013141,0.004827,-0.004775
1623490953668552637,170,1623490953668552637,0.001179,-0.012994,-0.00112,0.999794,0.000133,0.020113,-0.00265,-0.0096,-0.006271,-0.003524,0.012834,0.002283,-0.004657
1623490953768548965,171,1623490953768548965,0.002729,-0.012046,0.000612,0.999791,0.000141,0.020265,-0.002674,-0.006987,-0.004165,-0.001637,0.014244,0.003155,-0.005503
1623490953868545055,172,1623490953868545055,0.003086,-0.014276,0.002068,0.999791,0.000254,0.02026,-0.002576,-0.008644,-0.010218,-0.000522,0.014352,0.003774,-0.004015
1623490953968541384,173,1623490953968541384,0.00488,-0.012954,0.004458,0.99979,-1.6e-05,0.02029,-0.002528,-0.006568,-0.005193,0.002456,0.013815,0.002584,-0.004
1623490954068537712,174,1623490954068537712,0.005792,-0.013,0.003624,0.999789,-2.8e-05,0.020349,-0.002746,-0.007008,-0.005756,0.00027,0.012565,0.001447,-0.00525
1623490954168533802,175,1623490954168533802,0.007431,-0.01314,0.004228,0.999786,-4.9e-05,0.020458,-0.002938,-0.005906,-0.007265,0.000498,0.014892,0.002608,-0.003752
1623490954268530130,176,1623490954268530130,0.006898,-0.014249,0.006406,0.999785,0.000155,0.020471,-0.002996,-0.010639,-0.010803,0.003084,0.013228,0.005551,-0.004198
1623490954368526220,177,1623490954368526220,0.006179,-0.014045,0.007886,0.999788,5.4e-05,0.020379,-0.002737,-0.013007,-0.007616,0.005143,0.012318,0.004874,-0.004393
1623490954468522549,178,1623490954468522549,0.003529,-0.01091,0.003303,0.999789,4.4e-05,0.020309,-0.002902,-0.01838,0.001597,-0.003176,0.012813,0.00087,-0.003707
1623490954568518639,179,1623490954568518639,0.000784,-0.011913,0.002098,0.999794,0.000131,0.020064,-0.002754,-0.024462,-0.003221,-0.006147,0.012793,0.002428,-0.004536
1623490954668514967,180,1623490954668514967,0.001982,-0.014652,-0.00562,0.999797,0.000156,0.019971,-0.002568,-0.016787,-0.010862,-0.018214,0.013391,0.002841,-0.005019
1623490954768511295,181,1623490954768511295,-0.000587,-0.014395,-0.00345,0.999801,7.4e-05,0.019775,-0.002437,-0.021173,-0.007643,-0.012381,0.013512,0.001615,-0.004593
1623490954868507385,182,1623490954868507385,-0.002192,-0.012496,-0.004857,0.9998,4e-06,0.019786,-0.002768,-0.022182,-0.003186,-0.013442,0.012699,0.002329,-0.004482
1623490954968503714,183,1623490954968503714,-0.003163,-0.011947,-0.004587,0.999797,2.2e-05,0.019947,-0.002649,-0.020552,-0.002074,-0.012311,0.012315,0.002292,-0.004016
1623490955068499804,184,1623490955068499804,-0.005253,-0.011957,-0.003011,0.9998,0.000137,0.019822,-0.002575,-0.022216,-0.002955,-0.007337,0.0131,0.003154,-0.005497
1623490955168496132,185,1623490955168496132,-0.003918,-0.013069,-0.003707,0.999804,0.000196,0.01965,-0.002369,-0.015627,-0.005337,-0.007734,0.014351,0.002755,-0.00479
1623490955268492222,186,1623490955268492222,-0.00502,-0.014159,-0.002079,0.999798,0.000197,0.019908,-0.002462,-0.01659,-0.008195,-0.004027,0.013825,0.003258,-0.004759
1623490955368488550,187,1623490955368488550,-0.002167,-0.01408,-0.005333,0.999798,0.000184,0.019883,-0.002673,-0.007581,-0.007351,-0.009252,0.013501,0.003062,-0.004127
1623490955468484640,188,1623490955468484640,-0.001847,-0.014569,-0.010887,0.9998,0.000191,0.019803,-0.002741,-0.006185,-0.009481,-0.016356,0.014774,0.003573,-0.004997
1623490955568480968,189,1623490955568480968,-0.001349,-0.01273,-0.008459,0.999798,0.000111,0.019833,-0.002935,-0.005723,-0.003263,-0.011621,0.014205,0.000611,-0.003393
1623490955668477297,190,1623490955668477297,-0.001582,-0.013577,-0.012057,0.999799,0.000142,0.019821,-0.002798,-0.0059,-0.005077,-0.014799,0.012072,0.00159,-0.004051
1623490955768473387,191,1623490955768473387,-0.00288,-0.012512,-0.012075,0.9998,0.000113,0.019809,-0.002667,-0.008733,-0.002006,-0.013321,0.015011,0.002862,-0.003663
1623490955868469715,192,1623490955868469715,-0.002795,-0.011396,-0.012215,0.999803,0.000145,0.019658,-0.002481,-0.00815,0.001654,-0.011107,0.013336,0.004569,-0.004337
1623490955968465805,193,1623490955968465805,-0.001046,-0.010739,-0.009409,0.999802,0.000237,0.019688,-0.002646,-0.004425,0.001409,-0.005777,0.014041,0.001498,-0.004543
1623490956068462133,194,1623490956068462133,-0.001888,-0.011721,-0.007994,0.999803,0.000291,0.019682,-0.002465,-0.007224,-0.002259,-0.003062,0.011345,0.002893,-0.004712
1623490956168458223,195,1623490956168458223,-0.002723,-0.010827,-0.007303,0.999802,0.000124,0.019735,-0.002331,-0.008139,0.000602,-0.002469,0.014507,0.003338,-0.005399
1623490956268454552,196,1623490956268454552,-0.002612,-0.010964,-0.005119,0.999799,0.000129,0.01987,-0.002527,-0.00829,-0.002261,0.000533,0.014032,0.003045,-0.006049
1623490956368450880,197,1623490956368450880,-0.001476,-0.012209,-0.007511,0.999796,3.2e-05,0.019982,-0.002736,-0.005801,-0.008287,-0.004185,0.013055,0.001872,-0.005466
1623490956468446970,198,1623490956468446970,-0.003765,-0.013253,-0.01079,0.999798,0.000238,0.019884,-0.002717,-0.010289,-0.009931,-0.008752,0.013886,0.001999,-0.004418
1623490956568443298,199,1623490956568443298,-0.001477,-0.014274,-0.009424,0.9998,0.000108,0.019816,-0.00257,-0.004551,-0.010591,-0.004632,0.013243,0.004562,-0.003994
1623490956668439388,200,1623490956668439388,-0.003763,-0.014088,-0.009499,0.999799,8.1e-05,0.019874,-0.002502,-0.010742,-0.00822,-0.003816,0.013696,0.001028,-0.00463
1623490956768435717,201,1623490956768435717,-0.004183,-0.011613,-0.008637,0.999801,-6e-06,0.019782,-0.002407,-0.011463,0.001483,-0.002569,0.011528,0.002797,-0.003791
1623490956868431807,202,1623490956868431807,-0.002483,-0.012323,-0.007149,0.999796,9.6e-05,0.02,-0.002676,-0.007767,-0.002914,-0.001182,0.013241,0.003175,-0.003964
1623490956968428135,203,1623490956968428135,-0.000857,-0.013557,-0.004563,0.999794,0.000176,0.020053,-0.002839,-0.00607,-0.008664,0.002669,0.013322,0.00655,-0.00413
1623490957068424225,204,1623490957068424225,0.00027,-0.013171,-0.002416,0.999794,9.1e-05,0.020082,-0.00275,-0.005392,-0.006627,0.004976,0.01218,0.002612,-0.005914
1623490957168420553,205,1623490957168420553,0.000628,-0.011858,-0.002502,0.999795,0.000222,0.020015,-0.00275,-0.005117,-0.00243,0.003515,0.01164,0.002459,-0.00502
1623490957268416882,206,1623490957268416882,-0.000223,-0.011808,-0.001617,0.999792,-1.9e-05,0.020143,-0.002876,-0.008968,-0.004462,0.002531,0.01282,0.003227,-0.004029
1623490957368412971,207,1623490957368412971,-0.000332,-0.010851,-0.003423,0.999796,-3e-05,0.019986,-0.002785,-0.008797,-0.002486,-0.000288,0.01364,0.005138,-0.004017
1623490957468409300,208,1623490957468409300,-0.0002,-0.00997,-0.004348,0.999794,0.000181,0.020014,-0.003061,-0.009026,-0.002518,-0.002491,0.013085,0.002983,-0.004744
1623490957568405390,209,1623490957568405390,-0.000329,-0.010815,-0.003932,0.999795,8.2e-05,0.019984,-0.003066,-0.010036,-0.006932,-0.002226,0.012919,0.003437,-0.00491
1623490957668401718,210,1623490957668401718,0.001634,-0.012921,-0.002005,0.999789,0.000212,0.020307,-0.002989,-0.006008,-0.012798,-0.000148,0.013941,0.003255,-0.004695
1623490957768397808,211,1623490957768397808,0.002731,-0.013062,0.002151,0.999788,2.7e-05,0.020352,-0.002876,-0.005382,-0.011695,0.005393,0.012739,0.003827,-0.005269
1623490957868394136,212,1623490957868394136,0.001686,-0.01396,0.00128,0.999789,0.000338,0.020306,-0.003069,-0.009753,-0.014411,0.003122,0.012309,0.002279,-0.00355
1623490957968390465,213,1623490957968390465,0.00092,-0.014413,0.002831,0.999791,0.000116,0.02024,-0.002809,-0.011059,-0.012945,0.003618,0.011803,0.001448,-0.003223
1623490958068386555,214,1623490958068386555,0.000217,-0.01406,-0.000571,0.999793,0.000299,0.020131,-0.002743,-0.011749,-0.008873,-0.002962,0.013162,0.004656,-0.004307
1623490958168382883,215,1623490958168382883,0.000584,-0.0126,0.001837,0.999792,3.4e-05,0.020154,-0.002798,-0.011016,-0.005342,0.000521,0.013365,0.004379,-0.004334
1623490958268378973,216,1623490958268378973,-0.001849,-0.010919,0.003084,0.999787,5.4e-05,0.020424,-0.002842,-0.016996,-0.000824,0.001331,0.013214,0.005061,-0.004298
1623490958368375301,217,1623490958368375301,-0.001314,-0.009589,0.002853,0.99979,0.000145,0.020242,-0.002878,-0.013614,0.001909,0.000839,0.012629,0.002039,-0.003705
1623490958468371391,218,1623490958468371391,0.000495,-0.009735,0.000589,0.999793,0.000111,0.020125,-0.002852,-0.009197,-0.000132,-0.004136,0.013843,0.002739,-0.004087
1623490958568367720,219,1623490958568367720,0.000261,-0.012929,-0.001126,0.999791,0.000263,0.020223,-0.002778,-0.010243,-0.011495,-0.006739,0.013412,0.004143,-0.00359
1623490958668363810,220,1623490958668363810,0.000725,-0.014661,-0.004717,0.999795,0.000215,0.020038,-0.002555,-0.00812,-0.013054,-0.011333,0.014398,0.003609,-0.004519
1623490958768360138,221,1623490958768360138,0.001304,-0.01387,-0.002952,0.999794,0.000278,0.020092,-0.002617,-0.008178,-0.009093,-0.007183,0.011647,0.001831,-0.004199
1623490958868356466,222,1623490958868356466,0.00084,-0.014603,-0.003112,0.999793,0.000149,0.020126,-0.002745,-0.010475,-0.011471,-0.008286,0.013005,0.002512,-0.003277
1623490958968352556,223,1623490958968352556,0.000153,-0.012405,-0.00014,0.999793,4.3e-05,0.020165,-0.002661,-0.012442,-0.003534,-0.003462,0.013141,0.001694,-0.004475
1623490959068348885,224,1623490959068348885,0.000443,-0.012536,0.001859,0.999791,0.000171,0.020246,-0.002614,-0.01121,-0.003978,-0.000213,0.014081,0.002127,-0.004831
1623490959168344975,225,1623490959168344975,0.000279,-0.012403,-4.2e-05,0.999795,0.000154,0.020046,-0.00266,-0.010275,-0.004357,-0.004013,0.01249,0.001593,-0.003172
1623490959268341303,226,1623490959268341303,-0.000705,-0.012717,0.002288,0.999793,3.1e-05,0.020144,-0.002781,-0.012449,-0.006936,-0.000431,0.013927,0.004588,-0.004534
1623490959368337393,227,1623490959368337393,-0.00011,-0.011972,-0.00308,0.999793,0.000111,0.020164,-0.002626,-0.009366,-0.004123,-0.008291,0.014423,0.002357,-0.003645
1623490959468333721,228,1623490959468333721,-0.001252,-0.012195,-0.002912,0.999791,8.2e-05,0.020264,-0.002672,-0.013738,-0.00553,-0.009252,0.013333,0.003009,-0.004632
1623490959568330050,229,1623490959568330050,-0.002184,-0.013046,-0.005069,0.999797,9.3e-05,0.019956,-0.002688,-0.014396,-0.007516,-0.010507,0.011895,0.00245,-0.004299
1623490959668326139,230,1623490959668326139,-0.002525,-0.01363,-0.007189,0.999795,0.000306,0.020054,-0.002734,-0.014298,-0.008571,-0.012981,0.014143,0.001764,-0.004864
1623490959768322468,231,1623490959768322468,-0.001547,-0.011872,-0.007438,0.999798,0.000148,0.019885,-0.002746,-0.010209,-0.002504,-0.012417,0.013631,0.004352,-0.004836
1623490959868318558,232,1623490959868318558,-0.001792,-0.011432,-0.003185,0.999797,9e-05,0.019941,-0.002773,-0.013,-0.002134,-0.005378,0.012521,0.001803,-0.005326
1623490959968314886,233,1623490959968314886,-0.000595,-0.011446,-0.008166,0.999795,0.00011,0.020041,-0.002589,-0.010173,-0.002318,-0.012986,0.011725,0.002023,-0.003954
1623490960068310976,234,1623490960068310976,-0.000226,-0.013074,-0.007097,0.999801,0.000219,0.019747,-0.002585,-0.009537,-0.007469,-0.009913,0.013612,0.003899,-0.004134
1623490960168307304,235,1623490960168307304,-0.00145,-0.012557,-0.006547,0.999798,0.000147,0.019883,-0.002599,-0.01377,-0.005252,-0.008579,0.012859,0.003402,-0.004068
1623490960268303394,236,1623490960268303394,-0.001911,-0.012187,-0.004408,0.999796,2.3e-05,0.019973,-0.002769,-0.014642,-0.005586,-0.005554,0.013764,0.002002,-0.004067
1623490960368299723,237,1623490960368299723,-0.000129,-0.011991,-0.007224,0.999802,6e-06,0.019726,-0.002598,-0.007871,-0.003805,-0.008855,0.012902,8.5e-05,-0.003983
1623490960468296051,238,1623490960468296051,-0.000839,-0.012534,-0.010021,0.999795,0.000181,0.02005,-0.002757,-0.011597,-0.007412,-0.013457,0.014042,0.004619,-0.004508
1623490960568292141,239,1623490960568292141,0.000218,-0.012522,-0.004406,0.999797,0.000182,0.01994,-0.002635,-0.009415,-0.006206,-0.00323,0.013455,0.00334,-0.004322
1623490960668288469,240,1623490960668288469,0.00119,-0.011457,-0.002951,0.9998,0.000148,0.01984,-0.002506,-0.007244,-0.001427,-0.000916,0.012896,0.000576,-0.004635
1623490960768284559,241,1623490960768284559,0.001469,-0.011932,-0.000528,0.999795,0.000252,0.020044,-0.002783,-0.00938,-0.005109,0.001165,0.014076,0.002593,-0.00415
1623490960868280888,242,1623490960868280888,-0.000413,-0.01276,-0.001473,0.999798,0.000184,0.01994,-0.00249,-0.013955,-0.008243,-0.000572,0.013099,0.003704,-0.004267
1623490960968276978,243,1623490960968276978,-0.000467,-0.013567,0.002887,0.99979,-5.1e-05,0.020292,-0.002615,-0.015007,-0.01096,0.005252,0.011509,0.00336,-0.004681
1623490961068273306,244,1623490961068273306,-0.00014,-0.014525,0.001513,0.999793,0.000376,0.020192,-0.002369,-0.013369,-0.011866,0.001997,0.013022,0.002537,-0.003944
1623490961168269634,245,1623490961168269634,-0.001071,-0.013712,0.000354,0.999796,0.000212,0.020053,-0.0024,-0.015605,-0.007786,-0.001564,0.013294,0.00172,-0.003071
1623490961268265724,246,1623490961268265724,0.000516,-0.013142,0.001425,0.999794,3e-06,0.020102,-0.002602,-0.011332,-0.006535,-0.0008,0.013052,0.002972,-0.004538
1623490961368262053,247,1623490961368262053,0.000499,-0.01424,-0.002949,0.999798,0.000146,0.019877,-0.00272,-0.01025,-0.010822,-0.007856,0.012573,0.002266,-0.004582
1623490961468258142,248,1623490961468258142,-0.001313,-0.012492,-0.002157,0.999794,0.000138,0.020096,-0.002723,-0.016904,-0.006221,-0.006883,0.011189,0.000923,-0.003946
1623490961568254471,249,1623490961568254471,-0.002219,-0.012902,-0.003916,0.999799,0.000132,0.019818,-0.002708,-0.016932,-0.007639,-0.008953,0.013945,0.002344,-0.004356
1623490961668250561,250,1623490961668250561,-0.001143,-0.013832,-0.003223,0.9998,0.000129,0.019799,-0.002597,-0.01325,-0.009369,-0.006683,0.012999,0.004525,-0.004821
1623490961768246889,251,1623490961768246889,-0.001737,-0.013722,-0.00529,0.999799,0.000283,0.019839,-0.002541,-0.014829,-0.007592,-0.009118,0.013328,0.00285,-0.003848
1623490961868243217,252,1623490961868243217,-0.002711,-0.011175,-0.005166,0.999796,0.000155,0.020034,-0.002372,-0.017019,-0.00015,-0.008645,0.012747,0.004049,-0.004243
1623490961968239307,253,1623490961968239307,-0.001461,-0.012313,-0.005183,0.999794,0.00026,0.020124,-0.002531,-0.013596,-0.00517,-0.008145,0.013711,0.002881,-0.005636
1623490962068235636,254,1623490962068235636,-0.000281,-0.012825,-0.001283,0.999792,-0.000113,0.02023,-0.002557,-0.011532,-0.006852,-0.001563,0.012809,0.003317,-0.004854
1623490962168231726,255,1623490962168231726,0.000384,-0.011508,-0.001119,0.999795,7e-06,0.020022,-0.002914,-0.009499,-0.003445,-0.001523,0.013138,0.002282,-0.004805
1623490962268228054,256,1623490962268228054,0.000105,-0.011961,0.000573,0.999793,0.000184,0.020159,-0.002698,-0.011927,-0.005806,0.000545,0.011527,0.001453,-0.003542
1623490962368224144,257,1623490962368224144,8.2e-05,-0.013011,0.001762,0.999798,1.4e-05,0.019879,-0.002622,-0.011036,-0.007635,0.00176,0.013746,0.003682,-0.004144
1623490962468220472,258,1623490962468220472,-0.000478,-0.014155,-0.002397,0.999799,0.000112,0.019887,-0.002516,-0.010685,-0.010171,-0.004955,0.012878,0.001415,-0.005447
1623490962568216562,259,1623490962568216562,0.00125,-0.013476,0.001385,0.999796,0.000124,0.020012,-0.002431,-0.007128,-0.006725,0.000633,0.01429,0.002236,-0.004397
1623490962668212891,260,1623490962668212891,-0.003018,-0.013318,0.000604,0.999798,5.6e-05,0.019939,-0.002448,-0.018641,-0.005835,-0.000914,0.010959,0.001747,-0.004276
1623490962768209219,261,1623490962768209219,-0.003883,-0.0108,-0.002056,0.999795,2e-06,0.020083,-0.002481,-0.020298,0.000974,-0.005378,0.014736,0.004149,-0.004586
1623490962868205309,262,1623490962868205309,-0.001222,-0.010871,-0.003378,0.999796,0.000115,0.019994,-0.00256,-0.01092,-0.001995,-0.006548,0.012664,0.004015,-0.003404
1623490962968201637,263,1623490962968201637,-0.001126,-0.010524,0.000287,0.999802,2.8e-05,0.019701,-0.002624,-0.011672,-0.002893,-0.000216,0.012858,0.00206,-0.004702
1623490963068197727,264,1623490963068197727,-0.002408,-0.011968,0.000935,0.9998,0.000246,0.01979,-0.002759,-0.015658,-0.007879,-0.001219,0.011968,0.000823,-0.003719
1623490963168194056,265,1623490963168194056,-0.002198,-0.013357,0.001393,0.999799,0.000106,0.019809,-0.00283,-0.01345,-0.011807,-0.001231,0.01377,0.005141,-0.004042
1623490963268190145,266,1623490963268190145,-0.002718,-0.013809,0.0008,0.999799,0.00012,0.019863,-0.002694,-0.015346,-0.011284,-0.002929,0.01338,0.001217,-0.004359
1623490963368186474,267,1623490963368186474,-0.00194,-0.013358,-0.0013,0.999797,0.000118,0.019993,-0.002364,-0.014002,-0.007546,-0.007111,0.013239,0.002694,-0.004554
1623490963468182802,268,1623490963468182802,-0.001134,-0.012847,-0.002989,0.999796,0.000126,0.020055,-0.002331,-0.011273,-0.005167,-0.009262,0.011727,0.003095,-0.004715
1623490963568178892,269,1623490963568178892,-0.00051,-0.012395,-0.000523,0.999787,0.000129,0.020422,-0.002784,-0.013122,-0.005686,-0.004986,0.013155,0.002665,-0.004394
1623490963668175220,270,1623490963668175220,-3.5e-05,-0.01174,-0.000597,0.999795,0.000109,0.020036,-0.002694,-0.011398,-0.004533,-0.004911,0.012628,0.002536,-0.004751
1623490963768171310,271,1623490963768171310,-0.000711,-0.011857,-0.004101,0.999793,0.000145,0.020118,-0.002833,-0.013736,-0.007017,-0.010861,0.012974,0.002926,-0.003834
1623490963868167639,272,1623490963868167639,4.6e-05,-0.012506,-0.004061,0.999794,0.000233,0.020071,-0.002906,-0.012056,-0.009724,-0.009854,0.012887,0.002988,-0.004884
1623490963968163729,273,1623490963968163729,-0.001037,-0.010473,-0.005282,0.999795,1.2e-05,0.020007,-0.002863,-0.01588,-0.003585,-0.010228,0.013956,0.002364,-0.003876
1623490964068160057,274,1623490964068160057,-0.00238,-0.011392,-0.001843,0.999794,0.000166,0.02006,-0.002821,-0.018303,-0.006242,-0.00386,0.013431,0.001984,-0.00452
1623490964168156147,275,1623490964168156147,-0.0019,-0.011932,-2e-06,0.99979,0.000115,0.020238,-0.003025,-0.016768,-0.007902,-0.001798,0.012933,0.003077,-0.004403
1623490964268152475,276,1623490964268152475,-0.001737,-0.012942,0.000795,0.999788,0.000224,0.02036,-0.002966,-0.016891,-0.011298,-0.001684,0.013294,0.002765,-0.003778
1623490964368148804,277,1623490964368148804,-0.001738,-0.012736,0.001268,0.999797,-4.2e-05,0.01995,-0.00251,-0.014605,-0.007112,-0.000913,0.013393,0.004932,-0.004266
1623490964468144894,278,1623490964468144894,-0.001346,-0.012811,0.000174,0.999798,4.5e-05,0.019864,-0.002771,-0.012871,-0.008243,-0.003544,0.013972,0.001903,-0.004625
1623490964568141222,279,1623490964568141222,-0.000585,-0.012268,-0.001353,0.999795,0.000129,0.020032,-0.002631,-0.011666,-0.006696,-0.006731,0.012007,0.001805,-0.003849
1623490964668137312,280,1623490964668137312,0.0008,-0.011405,-0.001244,0.999798,8.7e-05,0.0199,-0.002689,-0.008495,-0.004494,-0.006587,0.012257,0.001902,-0.004713
1623490964768133640,281,1623490964768133640,0.002458,-0.012495,-0.001958,0.999796,0.000267,0.019977,-0.002611,-0.00515,-0.008024,-0.006665,0.013635,0.005223,-0.004712
1623490964868129730,282,1623490964868129730,0.002382,-0.013674,-0.003183,0.999797,0.000304,0.019937,-0.002723,-0.007312,-0.011746,-0.007789,0.013242,0.00044,-0.004677
1623490964968126059,283,1623490964968126059,0.001273,-0.013786,-0.00254,0.999796,0.000189,0.019952,-0.002816,-0.011597,-0.010317,-0.005969,0.012138,0.002671,-0.005192
1623490965068122387,284,1623490965068122387,0.000553,-0.01399,-0.001814,0.999794,0.000228,0.020074,-0.002819,-0.013242,-0.010468,-0.005263,0.011655,0.002571,-0.004686
1623490965168118477,285,1623490965168118477,-0.001403,-0.01246,-0.002637,0.999796,8.9e-05,0.019999,-0.002787,-0.017803,-0.005474,-0.006116,0.012841,0.004004,-0.004974
1623490965268114805,286,1623490965268114805,0.001497,-0.012117,-0.001717,0.999797,0.000122,0.019931,-0.002852,-0.009309,-0.005563,-0.005261,0.013221,0.002596,-0.003731
1623490965368110895,287,1623490965368110895,0.000615,-0.011548,0.000771,0.999793,3.2e-05,0.020109,-0.002838,-0.012834,-0.005352,-0.001905,0.012993,0.003016,-0.003129
1623490965468107224,288,1623490965468107224,0.000145,-0.012886,0.002333,0.999789,0.000226,0.02033,-0.002621,-0.015003,-0.010114,-0.000967,0.012891,0.001946,-0.003243
1623490965568103313,289,1623490965568103313,-0.00021,-0.011858,-0.00124,0.999795,0.000158,0.020046,-0.002614,-0.014995,-0.005901,-0.005547,0.012661,0.003467,-0.005161
1623490965668099642,290,1623490965668099642,0.000595,-0.013224,-0.002306,0.999798,4.7e-05,0.019887,-0.002599,-0.011439,-0.008891,-0.007043,0.013096,0.000478,-0.004369
1623490965768095732,291,1623490965768095732,-0.000613,-0.012849,-0.002948,0.999798,0.000255,0.019906,-0.002607,-0.014294,-0.007097,-0.008063,0.012525,0.002766,-0.004597
1623490965868092060,292,1623490965868092060,-0.000195,-0.011995,-0.004284,0.999798,7.7e-05,0.019895,-0.002719,-0.012446,-0.004862,-0.009738,0.013799,0.001985,-0.003991
1623490965968088388,293,1623490965968088388,0.002956,-0.013677,8.4e-05,0.999796,1.2e-05,0.019985,-0.002835,-0.004765,-0.010189,-0.001879,0.013179,0.005654,-0.004102
1623490966068084478,294,1623490966068084478,0.003235,-0.01223,0.000156,0.999795,0.000157,0.020061,-0.002711,-0.006247,-0.005611,-0.002841,0.013726,0.001796,-0.003628
1623490966168080807,295,1623490966168080807,0.003011,-0.012612,0.001063,0.999793,0.0002,0.02014,-0.002605,-0.009406,-0.006543,-0.002975,0.01118,0.00074,-0.003848
1623490966268076897,296,1623490966268076897,-0.001011,-0.013672,0.000517,0.999789,0.00017,0.020296,-0.002862,-0.019524,-0.01029,-0.003263,0.01409,0.004108,-0.00507
1623490966368073225,297,1623490966368073225,-0.00018,-0.013015,-0.003731,0.999797,0.000108,0.019971,-0.002612,-0.014685,-0.005828,-0.009771,0.01283,0.004275,-0.004298
1623490966468069315,298,1623490966468069315,-0.002012,-0.011083,-0.004809,0.999797,0.000323,0.019957,-0.00266,-0.018657,-0.001183,-0.01157,0.013604,0.001418,-0.003404
1623490966568065643,299,1623490966568065643,4e-06,-0.011559,-0.004464,0.999795,0.000164,0.020004,-0.00291,-0.012949,-0.005251,-0.009869,0.012153,0.002093,-0.004094
1623490966668061972,300,1623490966668061972,-0.000434,-0.011938,-0.006313,0.999795,0.000167,0.020016,-0.002899,-0.01367,-0.007783,-0.012307,0.012396,0.003338,-0.004427
1623490966768058062,301,1623490966768058062,-0.000816,-0.013166,-0.005622,0.999793,0.000133,0.020123,-0.002767,-0.015227,-0.010635,-0.010155,0.012636,0.003973,-0.004275
1623490966868054390,302,1623490966868054390,-0.00289,-0.013068,-0.001615,0.999798,8.6e-05,0.019914,-0.00265,-0.020249,-0.009081,-0.002163,0.013229,0.002842,-0.005982
1623490966968050480,303,1623490966968050480,-0.003317,-0.01271,0.00022,0.9998,0.0002,0.01983,-0.00251,-0.019371,-0.006882,0.000508,0.012827,0.00304,-0.004595
1623490967068046808,304,1623490967068046808,-0.000554,-0.014099,-0.003013,0.999805,0.000274,0.019587,-0.002375,-0.00939,-0.010345,-0.005155,0.0149,0.003116,-0.004056
1623490967168042898,305,1623490967168042898,-0.000483,-0.013153,-0.003406,0.999804,0.00015,0.019662,-0.002265,-0.009814,-0.006233,-0.005546,0.011746,0.003119,-0.004486
1623490967268039227,306,1623490967268039227,-0.000595,-0.011924,-0.001337,0.9998,0.000304,0.019819,-0.002554,-0.011692,-0.003255,-0.002937,0.012506,0.003054,-0.003917
1623490967368035555,307,1623490967368035555,-0.001244,-0.010692,-0.002195,0.999795,6.7e-05,0.020044,-0.002762,-0.01382,-0.002399,-0.005539,0.012843,0.002189,-0.004938
1623490967468031645,308,1623490967468031645,-0.001591,-0.011466,-0.002969,0.999798,9e-05,0.019871,-0.002737,-0.013705,-0.005977,-0.006301,0.013298,0.004513,-0.004321
1623490967568027973,309,1623490967568027973,0.001293,-0.013023,-0.000335,0.999798,0.00018,0.019869,-0.002897,-0.006571,-0.01216,-0.00188,0.013268,0.002113,-0.004767
1623490967668024063,310,1623490967668024063,0.001654,-0.014284,-4.9e-05,0.999795,0.000298,0.020058,-0.002725,-0.007299,-0.013877,-0.002365,0.013893,0.002162,-0.00381
1623490967768020391,311,1623490967768020391,0.000889,-0.014292,-0.002038,0.999799,0.000254,0.019833,-0.002669,-0.009869,-0.011467,-0.005619,0.01477,0.003226,-0.004418
1623490967868016481,312,1623490967868016481,9.8e-05,-0.01478,-0.00523,0.999794,0.000207,0.02002,-0.003026,-0.013328,-0.013155,-0.009295,0.01323,0.004345,-0.004724
1623490967968012810,313,1623490967968012810,0.000931,-0.015276,-0.004366,0.999794,0.000163,0.020059,-0.002833,-0.011149,-0.012474,-0.007604,0.013538,0.003814,-0.003777
1623490968068008900,314,1623490968068008900,0.00197,-0.014669,-0.002663,0.999794,5.5e-05,0.02007,-0.002768,-0.010298,-0.009191,-0.00427,0.012057,0.001839,-0.004065
1623490968168005228,315,1623490968168005228,0.002669,-0.012645,-0.001186,0.999794,0.000102,0.020118,-0.002663,-0.00907,-0.003732,-0.001742,0.01346,0.00204,-0.004055
1623490968268001556,316,1623490968268001556,0.00185,-0.011362,-0.000773,0.999795,5.6e-05,0.020035,-0.002795,-0.011876,-0.001513,-0.001621,0.013544,0.005671,-0.004543
1623490968367997646,317,1623490968367997646,0.00019,-0.012134,0.003519,0.99979,0.000102,0.020308,-0.002708,-0.017543,-0.005479,0.004021,0.013024,0.003001,-0.004476
1623490968467993975,318,1623490968467993975,0.0001,-0.013475,-0.000492,0.999794,0.000305,0.020102,-0.002758,-0.016095,-0.010329,-0.00351,0.013321,0.00375,-0.003643
1623490968567990065,319,1623490968567990065,-0.000307,-0.012351,0.001978,0.999792,-2.9e-05,0.020193,-0.002759,-0.016602,-0.006075,-0.000568,0.01153,0.001508,-0.004527
1623490968667986393,320,1623490968667986393,0.000356,-0.011015,0.00182,0.99979,-7.2e-05,0.02028,-0.00273,-0.014647,-0.002783,-0.001431,0.013843,0.00234,-0.004702
1623490968767982483,321,1623490968767982483,-0.000121,-0.012599,0.000254,0.999793,0.000159,0.020169,-0.002493,-0.01558,-0.008433,-0.003898,0.013302,0.001081,-0.003861
1623490968867978811,322,1623490968867978811,-0.000342,-0.013174,0.000285,0.999793,4.4e-05,0.020164,-0.002515,-0.016056,-0.010625,-0.004102,0.011975,0.002379,-0.005087
1623490968967975140,323,1623490968967975140,-0.000386,-0.013262,0.005456,0.99979,0.000168,0.020313,-0.002613,-0.017347,-0.011253,0.002807,0.013184,0.004795,-0.005762
1623490969067971230,324,1623490969067971230,1.6e-05,-0.012989,0.004884,0.999788,0.000121,0.020363,-0.002908,-0.016041,-0.011167,0.000399,0.01359,0.002519,-0.004686
1623490969167967558,325,1623490969167967558,0.001185,-0.012886,0.00132,0.999793,0.000265,0.020171,-0.002633,-0.011701,-0.008824,-0.005872,0.013767,0.001022,-0.00446
1623490969267963648,326,1623490969267963648,0.001003,-0.011968,0.000284,0.999794,0.000296,0.02008,-0.002713,-0.011804,-0.005778,-0.007117,0.011323,0.004125,-0.003929
1623490969367959976,327,1623490969367959976,0.00151,-0.012861,0.002139,0.999795,0.000165,0.020051,-0.002683,-0.011777,-0.008611,-0.003286,0.014084,0.005331,-0.005384
1623490969467956066,328,1623490969467956066,0.002309,-0.012387,-0.000558,0.999794,0.000194,0.020078,-0.002685,-0.0096,-0.006469,-0.007001,0.014451,0.003929,-0.006683
1623490969567952394,329,1623490969567952394,0.000822,-0.013001,-0.001588,0.999793,0.000308,0.020139,-0.002513,-0.0146,-0.008495,-0.008258,0.012323,0.002076,-0.004449
1623490969667948484,330,1623490969667948484,0.000393,-0.012918,-0.00699,0.999798,0.000169,0.019936,-0.002496,-0.013758,-0.008689,-0.016125,0.013384,0.00333,0.000592
1623490969767944813,331,1623490969767944813,0.000235,-0.012181,-0.008419,0.999795,0.000333,0.020011,-0.002835,-0.012813,-0.002485,-0.016384,0.013969,0.004288,-0.018703
1623490969867941141,332,1623490969867941141,0.001523,-0.012335,-0.006151,0.999796,-0.000174,0.020002,-0.002724,-0.010152,-0.009665,-0.011472,0.011564,0.002048,0.011447
1623490969967937231,333,1623490969967937231,-0.00039,-0.012508,-0.007222,0.999799,-0.000119,0.019877,-0.002589,-0.016653,-0.001554,-0.011816,0.008855,0.003281,-0.027491
1623490970067933559,334,1623490970067933559,-0.002588,-0.012852,-0.006898,0.9998,0.000577,0.01972,-0.003027,-0.020471,-0.011369,-0.010175,0.014631,-0.000435,-0.00581
1623490970167929649,335,1623490970167929649,-0.00486,-0.013419,-0.006052,0.999801,-0.000182,0.019709,-0.002803,-0.024873,-0.017242,-0.008096,0.015887,-0.003135,0.021674
1623490970267925978,336,1623490970267925978,-0.002162,-0.012803,-0.006823,0.999797,-0.000825,0.019921,-0.002875,-0.016536,-0.003094,-0.005051,0.009129,0.01333,-0.015174
1623490970367922068,337,1623490970367922068,-2.6e-05,-0.011765,-0.00513,0.999797,0.000676,0.019881,-0.002998,-0.007569,0.006085,-0.005785,0.007844,-0.003022,-0.046545
1623490970467918396,338,1623490970467918396,0.000367,-0.013208,-0.006358,0.999804,0.000546,0.019579,-0.002762,-0.007211,-0.023146,-0.007769,0.019996,-0.003835,0.054116
1623490970567914724,339,1623490970567914724,-4e-06,-0.013664,-0.006775,0.9998,-0.000689,0.019794,-0.002585,-0.006291,-0.003825,-0.007147,-0.005381,0.001335,-0.040834
1623490970667910814,340,1623490970667910814,-0.000714,-0.013099,-0.0019,0.999807,-0.000527,0.019371,-0.003071,-0.012071,0.003746,0.006292,0.072123,0.013112,0.001614
1623490970767907143,341,1623490970767907143,0.000895,-0.013341,0.001161,0.999801,0.001051,0.019839,-0.001651,-0.013907,-0.022734,-0.007654,-0.040852,-0.038869,0.050896
1623490970867903233,342,1623490970867903233,0.001113,-0.011823,0.002504,0.999788,0.000452,0.020172,-0.003892,-0.006903,-0.018106,0.008069,-0.182464,0.02287,-0.010216
1623490970967899561,343,1623490970967899561,0.002944,-0.008332,-0.00412,0.99979,-0.00018,0.02008,-0.003865,-0.010931,0.033484,-0.001205,0.03064,0.025552,-0.096704
1623490971067895651,344,1623490971067895651,0.00485,-0.004528,-0.009282,0.999787,0.000475,0.020281,-0.003696,-0.015663,0.042356,-0.011327,-0.085693,0.039895,-0.105084
1623490971167891979,345,1623490971167891979,0.004808,-0.005019,-0.016496,0.999808,0.000322,0.019403,-0.002634,-0.014247,0.022483,-0.03547,-0.041888,-0.027695,0.009047
1623490971267888069,346,1623490971267888069,0.002602,-0.009201,-0.019746,0.999809,-0.000918,0.019187,-0.003481,-0.006892,-0.053093,-0.030033,0.179385,-0.002771,0.009028
1623490971367884398,347,1623490971367884398,-0.00064,-0.00795,-0.013733,0.999816,-0.000361,0.019118,-0.001342,-0.02354,0.088176,-0.013405,-0.502745,0.040094,-0.045691
1623490971467880726,348,1623490971467880726,-0.002599,-0.011864,-0.010852,0.999794,0.000188,0.019669,-0.004821,-0.019508,-0.103979,-0.028946,0.38317,-0.024759,0.04511
1623490971567876816,349,1623490971567876816,-0.002745,-0.010466,-0.026472,0.999809,0.000427,0.019345,-0.002376,-0.02629,-0.178046,-0.064958,0.608483,-0.11352,0.094294
1623490971667873144,350,1623490971667873144,-0.002745,-0.006918,-0.02754,0.999821,-0.00028,0.018842,-0.001516,-0.045542,-0.00932,-0.031125,0.088911,0.065248,0.03985
1623490971767869234,351,1623490971767869234,-0.001032,-0.005166,-0.02329,0.999803,-0.000262,0.019449,-0.003758,0.006255,0.030698,-0.040913,-0.090782,0.025467,-0.013099
1623490971867865562,352,1623490971867865562,-0.001308,-0.007211,-0.018928,0.999789,-0.00014,0.020211,-0.003409,-0.003205,0.00111,-0.015848,-0.027295,-0.004345,-0.009381
1623490971967861652,353,1623490971967861652,-0.001005,-0.009332,-0.019662,0.999779,-0.000107,0.020811,-0.002939,-0.029058,-0.031676,-0.005686,0.021446,0.064485,0.020897
1623490972067857981,354,1623490972067857981,0.002031,-0.009119,-0.016592,0.999774,-0.000235,0.021059,-0.002828,0.006436,-0.009833,-0.030115,0.026984,-0.044537,0.01317
1623490972167854309,355,1623490972167854309,0.002591,-0.011223,-0.010964,0.999779,-0.000411,0.020805,-0.002765,0.018011,0.00282,-0.01737,-0.020744,-0.023411,-0.017133
1623490972267850399,356,1623490972267850399,0.003827,-0.012651,-0.009747,0.999789,3e-05,0.020342,-0.002792,0.019163,-0.000646,-0.025421,-0.02714,-0.0366,-0.013455
1623490972367846727,357,1623490972367846727,0.004381,-0.011757,-0.007761,0.99978,-0.000133,0.020731,-0.002878,-0.013451,-0.024464,0.002086,0.028319,0.040087,0.026673
1623490972467842817,358,1623490972467842817,0.005439,-0.011973,-0.006341,0.999775,-6.6e-05,0.020967,-0.002917,-0.001859,-0.022901,-0.013223,0.028706,-0.026049,0.015666
1623490972567839146,359,1623490972567839146,0.003825,-0.012241,-0.000589,0.999775,-0.000269,0.020997,-0.002836,0.000687,0.001616,0.00274,-0.015798,-0.015734,-0.018634
