time,field.header.seq,field.header.stamp,field.pose.pose.position.x,field.pose.pose.position.y,field.pose.pose.position.z,field.pose.pose.orientation.x,field.pose.pose.orientation.y,field.pose.pose.orientation.z,field.pose.pose.orientation.w,field.twist.twist.linear.x,field.twist.twist.linear.y,field.twist.twist.linear.z,field.twist.twist.angular.x,field.twist.twist.angular.y,field.twist.twist.angular.z
1623492960881044865,2,1623492960881044865,-0.001683,-0.000971,-0.008066,0.999693,0.000156,0.024534,-0.0032,0.005701,-0.006235,0.000511,0.010305,0.001671,-0.005653
1623492960981043339,3,1623492960981043339,-0.008353,-0.001395,-0.000601,0.999697,-3e-06,0.02436,-0.003374,-0.010735,-0.006165,0.015769,0.0103,0.003064,-0.004275
1623492961081042051,4,1623492961081042051,-0.007019,-0.00191,0.004564,0.999703,0.000156,0.024114,-0.003451,-0.004319,-0.007213,0.021377,0.012397,0.003711,-0.005032
1623492961181040764,5,1623492961181040764,-0.007964,-1.2e-05,1.7e-05,0.999697,7.2e-05,0.024369,-0.00323,-0.007341,-0.002161,0.008626,0.01161,0.001186,-0.004852
1623492961281039476,6,1623492961281039476,-0.008673,-0.000567,-0.00051,0.999699,0.000104,0.024281,-0.003478,-0.006364,-0.002848,0.005543,0.010721,0.001664,-0.004189
1623492961381037951,7,1623492961381037951,-0.009087,-0.001368,-0.001983,0.9997,0.000124,0.024181,-0.003761,-0.004072,-0.007005,0.00142,0.011345,0.003538,-0.005111
1623492961481036663,8,1623492961481036663,-0.006129,0.001351,-0.002404,0.999697,5.7e-05,0.024406,-0.002995,0.004113,0.003142,0.000121,0.009092,0.002693,-0.003049
1623492961581035376,9,1623492961581035376,-0.006503,-0.000312,-0.002184,0.999693,2.9e-05,0.024548,-0.003303,0.001803,-0.002241,0.000745,0.011845,0.003932,-0.003724
1623492961681034088,10,1623492961681034088,-0.008892,0.000309,-0.000102,0.999694,3.2e-05,0.024459,-0.003576,-0.003562,-0.00103,0.005169,0.010801,0.000126,-0.003269
1623492961781032562,11,1623492961781032562,-0.009254,-0.000533,-0.004598,0.999694,0.000139,0.024463,-0.003631,-0.004575,-0.004005,-0.002462,0.010658,0.002502,-0.004002
1623492961881031275,12,1623492961881031275,-0.004723,0.000716,-0.005304,0.999695,3.8e-05,0.02448,-0.003176,0.007944,0.000471,-0.004378,0.013009,0.003409,-0.00444
1623492961981029987,13,1623492961981029987,-0.005015,0.000169,-0.004653,0.999694,6e-05,0.024506,-0.003307,0.007838,-0.003523,-0.002373,0.012756,0.005057,-0.003894
1623492962081028700,14,1623492962081028700,-0.002825,-0.000655,-0.004895,0.999689,0.0,0.024701,-0.003421,0.01029,-0.006215,-0.001709,0.010134,0.002798,-0.004169
1623492962181027174,15,1623492962181027174,-0.004511,0.000861,-0.009104,0.999693,2.5e-05,0.024517,-0.003419,0.00415,-0.001729,-0.007637,0.011354,0.00322,-0.00436
1623492962281025887,16,1623492962281025887,-0.004576,0.001142,-0.011296,0.999692,0.0,0.024558,-0.003283,0.003442,-0.001095,-0.010203,0.012422,0.002091,-0.004282
1623492962381024599,17,1623492962381024599,-0.005848,0.000321,-0.00709,0.999695,9.3e-05,0.024459,-0.0034,-0.000282,-0.003575,-0.002827,0.012964,0.004864,-0.004385
1623492962481023312,18,1623492962481023312,-0.005877,-0.002263,-0.005412,0.999691,0.000152,0.024599,-0.003555,-0.000635,-0.009777,-0.001104,0.011295,0.002414,-0.006135
1623492962581021786,19,1623492962581021786,-0.003393,-0.00098,-0.008765,0.999698,6.6e-05,0.024363,-0.003174,0.005562,-0.003451,-0.006065,0.010704,0.003047,-0.004499
1623492962681020498,20,1623492962681020498,-0.008297,-0.001236,-0.005029,0.999698,0.000106,0.024294,-0.003517,-0.005208,-0.004691,-0.000668,0.013067,0.004347,-0.004611
1623492962781019211,21,1623492962781019211,-0.006971,0.001357,-0.008289,0.999695,4e-05,0.024428,-0.003411,-0.001482,0.002235,-0.004751,0.011791,0.003995,-0.003069
1623492962881017923,22,1623492962881017923,-0.006998,0.000611,-0.008005,0.999694,0.000191,0.024436,-0.00376,-0.000236,-0.001275,-0.004001,0.011632,0.000577,-0.003647
1623492962981016636,23,1623492962981016636,-0.005681,-0.00264,-0.010389,0.999687,9.3e-05,0.024697,-0.003753,0.002907,-0.012293,-0.006604,0.010898,0.002187,-0.003988
1623492963081015110,24,1623492963081015110,-0.007423,-0.000459,-0.013031,0.999691,0.00012,0.024594,-0.003437,-0.000375,-0.004117,-0.010182,0.012258,0.00408,-0.00339
1623492963181013823,25,1623492963181013823,-0.006303,-0.000488,-0.012216,0.999691,8.9e-05,0.024547,-0.00378,0.001651,-0.003647,-0.006561,0.010667,0.003751,-0.004901
1623492963281012535,26,1623492963281012535,-0.005162,-0.001227,-0.012033,0.999687,7.5e-05,0.024714,-0.003757,0.003271,-0.004955,-0.006036,0.011623,0.002341,-0.0041
1623492963381011248,27,1623492963381011248,-0.004935,0.00038,-0.015857,0.999686,7.9e-05,0.024744,-0.003834,0.003906,-0.000886,-0.011715,0.010361,0.002105,-0.004458
1623492963481009722,28,1623492963481009722,-0.005481,-0.001556,-0.013414,0.999693,0.000113,0.024421,-0.004126,0.002543,-0.008602,-0.006707,0.010522,-7.1e-05,-0.00437
1623492963581008434,29,1623492963581008434,-0.002859,-0.000315,-0.014511,0.999691,0.000147,0.024542,-0.003709,0.009298,-0.002667,-0.007848,0.011925,0.003738,-0.004305
1623492963681007147,30,1623492963681007147,-0.001227,-0.000358,-0.014141,0.999688,1.8e-05,0.024722,-0.003524,0.010734,-0.00231,-0.007293,0.011433,0.004343,-0.004408
1623492963781005859,31,1623492963781005859,-0.003998,-0.000981,-0.0147,0.999683,8.3e-05,0.02487,-0.003686,0.001431,-0.004277,-0.007748,0.011037,0.003148,-0.003622
1623492963881004333,32,1623492963881004333,-0.005349,0.00062,-0.013865,0.999685,7e-06,0.024852,-0.003489,-0.002881,0.001152,-0.007001,0.013313,0.001599,-0.003976
1623492963981003046,33,1623492963981003046,-0.001649,-0.002132,-0.012582,0.999683,3.5e-05,0.024927,-0.003421,0.005677,-0.005489,-0.005825,0.012259,0.002488,-0.003821
1623492964081001759,34,1623492964081001759,-0.001708,-0.001499,-0.012501,0.999692,0.000138,0.024548,-0.003521,0.005714,-0.004527,-0.004789,0.010729,0.001658,-0.00355
1623492964181000471,35,1623492964181000471,-0.001931,-0.001721,-0.012728,0.999697,8.4e-05,0.024355,-0.003479,0.003981,-0.00278,-0.005097,0.012778,0.003638,-0.003632
1623492964280998945,36,1623492964280998945,-0.002367,-0.00082,-0.009092,0.999689,8.7e-05,0.024685,-0.003454,0.002006,-0.000181,0.001113,0.012489,0.005971,-0.004335
1623492964380997658,37,1623492964380997658,-0.004541,-0.000332,-0.007534,0.999689,2.6e-05,0.024654,-0.003562,-0.004222,0.00265,0.003008,0.01166,0.002559,-0.004337
1623492964480996370,38,1623492964480996370,-0.004286,-0.001639,-0.009213,0.999692,0.000161,0.024512,-0.003727,-0.002113,-0.002251,-0.001298,0.012155,0.002805,-0.00419
1623492964580995083,39,1623492964580995083,-0.003413,-0.00283,-0.008204,0.999691,0.000184,0.024595,-0.003559,0.001164,-0.004968,-0.002108,0.011068,0.001132,-0.003973
1623492964680993557,40,1623492964680993557,-0.005101,-0.002776,-0.005569,0.999691,9.6e-05,0.024602,-0.003524,-0.001933,-0.004634,0.001229,0.013203,0.00267,-0.004706
1623492964780992270,41,1623492964780992270,-0.005247,-0.001747,-0.008017,0.999691,0.000289,0.024531,-0.003793,-0.001684,-0.00282,-0.001754,0.011628,0.002209,-0.00289
1623492964880990982,42,1623492964880990982,-0.004076,0.000733,-0.012403,0.999688,-8e-06,0.024718,-0.003337,0.000821,0.006029,-0.008437,0.010587,0.002129,-0.004326
1623492964980989695,43,1623492964980989695,-0.005384,-0.000174,-0.01359,0.999689,0.0,0.024647,-0.003645,-0.001935,0.002351,-0.009451,0.012477,0.002428,-0.003523
1623492965080988169,44,1623492965080988169,-0.004172,0.001172,-0.01637,0.999689,-1e-06,0.024697,-0.00344,-0.000157,0.004063,-0.013749,0.01222,0.00146,-0.005174
1623492965180986881,45,1623492965180986881,-0.006827,-0.000694,-0.012324,0.999694,3.7e-05,0.024457,-0.003612,-0.003737,-0.002578,-0.007883,0.012262,0.002338,-0.005039
1623492965280985594,46,1623492965280985594,-0.004214,-0.000564,-0.013969,0.999692,0.000135,0.024539,-0.003615,0.004385,-0.002729,-0.00998,0.010515,0.002992,-0.004223
1623492965380984306,47,1623492965380984306,-0.006828,0.000802,-0.015755,0.999692,0.000168,0.0245,-0.003781,-0.002113,0.001065,-0.010997,0.012235,0.001893,-0.004701
1623492965480983019,48,1623492965480983019,-0.006614,0.000756,-0.016484,0.999689,5.6e-05,0.02463,-0.003829,-0.000459,-0.000879,-0.010413,0.012261,0.00271,-0.004149
1623492965580981493,49,1623492965580981493,-0.004278,0.002245,-0.012684,0.999696,-1e-06,0.024376,-0.003566,0.006795,0.001623,-0.003208,0.012293,0.002015,-0.003482
1623492965680980206,50,1623492965680980206,-0.002317,0.001707,-0.013435,0.999693,0.00016,0.024504,-0.003553,0.008273,-0.000786,-0.004516,0.012072,0.002354,-0.003427
1623492965780978918,51,1623492965780978918,-0.001315,0.000943,-0.011443,0.999689,5.7e-05,0.024634,-0.003653,0.007139,-0.004617,0.000243,0.01195,0.003344,-0.004047
1623492965880977631,52,1623492965880977631,-0.000897,-0.00046,-0.01434,0.999694,0.000115,0.024483,-0.003488,0.005796,-0.007289,-0.004014,0.012294,0.00305,-0.005725
1623492965980976105,53,1623492965980976105,-0.001291,-9.5e-05,-0.012385,0.999691,0.000106,0.024576,-0.003714,0.003547,-0.006393,-0.000249,0.012548,0.003485,-0.0048
1623492966080974817,54,1623492966080974817,-0.002589,-0.002443,-0.014332,0.999687,0.000186,0.024672,-0.003985,-0.000579,-0.014374,-0.002055,0.012259,0.000823,-0.003603
1623492966180973530,55,1623492966180973530,-0.004311,-0.001634,-0.013044,0.999692,0.000147,0.024518,-0.003681,-0.00357,-0.010552,-0.001437,0.012691,0.001808,-0.005358
1623492966280972242,56,1623492966280972242,-0.005523,-0.00208,-0.007775,0.999691,0.000282,0.024548,-0.003785,-0.006054,-0.010867,0.005681,0.011926,0.003475,-0.005212
1623492966380970716,57,1623492966380970716,-0.003613,-0.002452,-0.008387,0.999692,0.000169,0.024555,-0.003428,-0.000245,-0.007745,0.004494,0.010909,0.003612,-0.005155
1623492966480969429,58,1623492966480969429,-0.005776,-0.001277,-0.010304,0.999697,7.2e-05,0.024295,-0.003757,-0.00289,-0.003736,0.000825,0.011134,0.00283,-0.003877
1623492966580968142,59,1623492966580968142,-0.004396,-0.000473,-0.007684,0.999701,-1.6e-05,0.024208,-0.003427,0.001511,0.001029,0.00354,0.011878,0.004364,-0.003054
1623492966680966854,60,1623492966680966854,-0.004734,-0.001133,-0.010139,0.999698,0.000155,0.024274,-0.003669,0.000608,-0.003865,-0.000808,0.013764,0.003167,-0.004347
1623492966780965328,61,1623492966780965328,-0.002551,-0.00207,-0.010123,0.999694,0.000297,0.024462,-0.003575,0.005878,-0.006661,-0.000885,0.012472,0.001529,-0.005284
1623492966880964041,62,1623492966880964041,-0.000999,-0.001367,-0.011881,0.999687,4e-05,0.024773,-0.003456,0.008332,-0.003952,-0.004069,0.010663,0.002044,-0.004853
1623492966980962753,63,1623492966980962753,-0.00071,-0.000665,-0.015498,0.999691,9.1e-05,0.024572,-0.003526,0.007154,-0.001772,-0.009325,0.009899,0.002481,-0.003607
1623492967080961466,64,1623492967080961466,-0.001812,0.000683,-0.010894,0.999688,0.000165,0.024708,-0.00365,0.003705,0.002128,-0.001075,0.01156,-3.4e-05,-0.00425
1623492967180959940,65,1623492967180959940,4.6e-05,-0.000224,-0.01676,0.999692,3.8e-05,0.02458,-0.003382,0.006354,-0.000499,-0.009955,0.013101,0.003155,-0.004465
1623492967280958652,66,1623492967280958652,0.003137,-0.000632,-0.018193,0.999686,9.3e-05,0.02477,-0.003515,0.010545,-0.002582,-0.009472,0.012328,0.003045,-0.004722
1623492967380957365,67,1623492967380957365,0.001639,-0.002506,-0.014612,0.999693,8.7e-05,0.024495,-0.003549,0.005034,-0.009257,-0.003514,0.012901,0.002384,-0.005065
1623492967480956078,68,1623492967480956078,0.002929,-0.000807,-0.023838,0.99969,0.000303,0.02458,-0.003933,0.006001,-0.006564,-0.015349,0.010643,0.003477,-0.004948
1623492967580954552,69,1623492967580954552,0.00069,-0.002779,-0.014414,0.999689,0.000258,0.024621,-0.003868,-0.000345,-0.011011,0.000542,0.011463,0.0037,-0.005474
1623492967680953264,70,1623492967680953264,4.9e-05,-0.001507,-0.014558,0.999693,0.000167,0.024455,-0.003772,-0.00175,-0.00563,-0.000152,0.012011,0.001603,-0.004605
1623492967780951977,71,1623492967780951977,0.000834,-0.002376,-0.022568,0.999689,8.6e-05,0.024656,-0.003662,-0.000186,-0.007958,-0.009988,0.012231,0.0018,-0.003963
1623492967880950689,72,1623492967880950689,0.001329,-0.000483,-0.021078,0.999684,0.000175,0.024884,-0.003285,0.000516,-0.00044,-0.007391,0.012761,0.00292,-0.004592
1623492967980949163,73,1623492967980949163,0.000454,0.001235,-0.016662,0.999682,0.000242,0.024961,-0.003411,-0.001377,0.005559,-0.001124,0.010889,0.002915,-0.004979
1623492968080947876,74,1623492968080947876,0.001129,0.001893,-0.016929,0.999683,0.000168,0.024922,-0.003367,-0.00012,0.004754,-0.001667,0.007582,0.002705,-0.005073
1623492968180946589,75,1623492968180946589,0.001732,0.003364,-0.018082,0.999688,0.000166,0.024723,-0.003326,0.002244,0.006675,-0.003267,0.013024,0.0015,-0.00401
1623492968280945301,76,1623492968280945301,-1.1e-05,0.000714,-0.017493,0.999685,0.000158,0.02481,-0.003769,-0.002414,-0.003759,0.000649,0.011316,0.003502,-0.003811
1623492968380944014,77,1623492968380944014,0.001347,-0.000136,-0.018946,0.999685,0.000213,0.024792,-0.003634,0.000633,-0.007834,-0.001115,0.013049,0.004282,-0.004917
1623492968480942488,78,1623492968480942488,0.002574,-0.001259,-0.018979,0.999682,0.0002,0.024936,-0.003677,0.002079,-0.010688,-0.00124,0.010683,0.003491,-0.003814
1623492968580941200,79,1623492968580941200,0.000629,-0.001436,-0.02081,0.999686,0.000244,0.024716,-0.004087,-0.002022,-0.010875,-0.003862,0.012283,0.003191,-0.00307
1623492968680939913,80,1623492968680939913,-0.001722,-0.001627,-0.016341,0.999684,0.000173,0.024793,-0.003914,-0.006062,-0.007597,0.001461,0.01225,0.001436,-0.005018
1623492968780938625,81,1623492968780938625,-0.00204,-0.001712,-0.011672,0.999687,0.00013,0.024701,-0.003724,-0.003288,-0.008166,0.006329,0.009348,-0.00064,-0.004319
1623492968880937099,82,1623492968880937099,-0.000972,-0.001108,-0.012234,0.999688,9.2e-05,0.024688,-0.003539,0.001205,-0.006791,0.005593,0.008987,0.001255,-0.005027
1623492968980935812,83,1623492968980935812,-0.001048,-0.001882,-0.010059,0.999689,0.000188,0.024617,-0.003773,0.001841,-0.009117,0.006788,0.013406,0.003514,-0.005132
1623492969080934525,84,1623492969080934525,-0.00053,-0.002347,-0.011279,0.999686,0.000148,0.024759,-0.003637,0.002678,-0.008223,0.004019,0.012151,0.001643,-0.004755
1623492969180933237,85,1623492969180933237,-0.004,-0.000748,-0.008656,0.99969,0.000141,0.024641,-0.003432,-0.004702,-0.001871,0.005342,0.009693,0.002796,-0.005531
1623492969280931711,86,1623492969280931711,-0.002788,-0.001314,-0.013652,0.999697,9.5e-05,0.024338,-0.003407,0.000895,-0.003197,-0.002911,0.01212,0.001157,-0.003899
1623492969380930424,87,1623492969380930424,-0.000284,-0.000845,-0.011607,0.999695,1.2e-05,0.024458,-0.003262,0.006883,-0.002439,-0.00036,0.011236,0.00286,-0.004454
1623492969480929136,88,1623492969480929136,0.002123,-0.00326,-0.010512,0.999698,0.000128,0.024374,-0.003077,0.012916,-0.006763,-0.000379,0.011301,0.002788,-0.003528
1623492969580927849,89,1623492969580927849,0.00075,-0.001575,-0.010552,0.99969,0.000191,0.024662,-0.003299,0.008802,-0.00168,0.000894,0.01212,0.003343,-0.003808
1623492969680926323,90,1623492969680926323,0.00198,-0.000397,-0.011203,0.999683,0.000251,0.024916,-0.003547,0.008398,0.000749,-0.000265,0.012811,0.003458,-0.003556
1623492969780925035,91,1623492969780925035,0.000345,-0.001147,-0.013116,0.999689,0.00028,0.024645,-0.003584,0.003408,-0.002259,-0.002834,0.011592,0.00414,-0.004066
1623492969880923748,92,1623492969880923748,0.003143,-0.001353,-0.015736,0.999687,0.000293,0.024739,-0.003569,0.008271,-0.003061,-0.006715,0.010978,0.002526,-0.003866
1623492969980922461,93,1623492969980922461,0.004524,-0.000836,-0.010103,0.999696,0.000115,0.024429,-0.003178,0.010724,-0.000833,0.001714,0.009848,0.002613,-0.005002
1623492970080920935,94,1623492970080920935,0.001893,-0.003248,-0.005878,0.999691,0.000173,0.024584,-0.003601,0.002227,-0.008046,0.008641,0.013825,0.003403,-0.004101
1623492970180919647,95,1623492970180919647,0.001581,-0.003879,-0.010318,0.999691,0.000247,0.024553,-0.003845,-0.000506,-0.008593,0.001087,0.012666,0.004782,-0.004246
1623492970280918360,96,1623492970280918360,-0.001305,-0.000561,-0.011381,0.999687,0.000174,0.024761,-0.003525,-0.007142,0.001405,-0.001692,0.011558,0.003151,-0.004448
1623492970380917072,97,1623492970380917072,0.000247,-0.002195,-0.016778,0.999687,0.000238,0.024722,-0.003756,-0.002641,-0.004023,-0.00937,0.010481,0.000887,-0.004369
1623492970480915546,98,1623492970480915546,0.000378,-0.002443,-0.016101,0.999684,0.000322,0.024795,-0.003887,-0.001577,-0.00547,-0.007737,0.012512,0.002548,-0.004412
1623492970580914259,99,1623492970580914259,7.8e-05,-0.002591,-0.016434,0.999685,0.000339,0.024812,-0.003743,-0.001791,-0.003443,-0.007838,0.011302,0.002819,-0.004498
1623492970680912971,100,1623492970680912971,0.000177,0.000288,-0.013202,0.999685,-7e-06,0.024864,-0.003334,-0.001373,0.005403,-0.002409,0.01208,0.002333,-0.003258
1623492970780911684,101,1623492970780911684,0.002838,-0.001454,-0.011088,0.999675,0.00024,0.025166,-0.003838,0.003325,-0.002872,0.001837,0.01044,0.003873,-0.00566
1623492970880910397,102,1623492970880910397,0.001844,-0.000822,-0.016641,0.999674,0.000161,0.025197,-0.003997,-0.001263,-0.003322,-0.005742,0.012662,0.00308,-0.004583
1623492970980908871,103,1623492970980908871,0.000901,-0.000837,-0.011404,0.999679,0.000184,0.02506,-0.003597,-0.003411,-0.001174,0.001572,0.010402,0.00282,-0.003913
1623492971080907583,104,1623492971080907583,-0.000306,-0.001971,-0.011494,0.999682,2.7e-05,0.02497,-0.003512,-0.00611,-0.0054,0.001069,0.010098,0.00181,-0.003698
1623492971180906296,105,1623492971180906296,-0.000771,-0.000268,-0.012584,0.999686,-8e-06,0.024798,-0.003553,-0.004978,-0.000545,-0.000159,0.011636,0.000175,-0.003577
1623492971280905008,106,1623492971280905008,-0.001392,-0.001605,-0.009835,0.999688,0.000162,0.024706,-0.003529,-0.004273,-0.003849,0.002309,0.013533,0.004816,-0.004431
1623492971380903482,107,1623492971380903482,-0.000981,-0.002204,-0.008902,0.999687,0.000195,0.024746,-0.003448,-0.004175,-0.006604,0.002907,0.011331,0.004258,-0.004856
1623492971480902195,108,1623492971480902195,-0.002797,-0.001923,-0.0087,0.999696,3.5e-05,0.024414,-0.003369,-0.00505,-0.003791,0.002331,0.012043,0.003486,-0.004386
1623492971580900908,109,1623492971580900908,-0.002519,-0.000383,-0.012613,0.999694,0.000128,0.024506,-0.003353,-0.002965,0.000348,-0.003297,0.009962,0.001358,-0.004158
1623492971680899620,110,1623492971680899620,-0.000892,-0.000354,-0.016828,0.999692,0.000255,0.024548,-0.003397,0.000545,-0.001079,-0.00957,0.012154,0.003103,-0.004459
1623492971780898094,111,1623492971780898094,0.000407,-0.002819,-0.014671,0.999684,0.000132,0.02485,-0.003604,0.002795,-0.007484,-0.005603,0.01166,0.001584,-0.004124
1623492971880896807,112,1623492971880896807,-0.002568,-5.1e-05,-0.010379,0.999689,0.000169,0.02465,-0.003532,-0.001356,0.001649,-7.5e-05,0.011619,0.003215,-0.004694
1623492971980895519,113,1623492971980895519,-0.000791,-9.5e-05,-0.014612,0.999691,0.000196,0.02455,-0.003796,0.001405,-0.00154,-0.004987,0.009405,0.004141,-0.00419
1623492972080894232,114,1623492972080894232,-0.000489,-0.002058,-0.018723,0.999687,1.7e-05,0.024707,-0.003731,0.001116,-0.007582,-0.01087,0.01279,0.002828,-0.00398
1623492972180892706,115,1623492972180892706,-0.000305,-0.002535,-0.012864,0.999681,0.000147,0.024913,-0.003903,0.00133,-0.008321,-0.002868,0.01075,0.000576,-0.003647
1623492972280891418,116,1623492972280891418,0.000925,-0.002071,-0.015928,0.999687,7.6e-05,0.024711,-0.003646,0.003859,-0.00442,-0.006737,0.00943,0.002282,-0.004317
1623492972380890131,117,1623492972380890131,0.002546,-0.002019,-0.019146,0.99969,1.8e-05,0.024646,-0.003391,0.007056,-0.004156,-0.010075,0.011182,0.000717,-0.002872
1623492972480888844,118,1623492972480888844,0.002195,-0.002181,-0.019463,0.999692,0.000131,0.024538,-0.003653,0.005347,-0.004844,-0.009906,0.011777,0.003684,-0.005432
1623492972580887318,119,1623492972580887318,0.002447,-0.002938,-0.018375,0.999685,0.000125,0.02481,-0.003557,0.002445,-0.007119,-0.006227,0.012086,0.001763,-0.004122
1623492972680886030,120,1623492972680886030,0.000411,-0.002158,-0.021568,0.999682,9.1e-05,0.024893,-0.003935,-0.004352,-0.004486,-0.009579,0.010611,0.002244,-0.003695
1623492972780884743,121,1623492972780884743,0.00318,-0.002849,-0.02027,0.999679,0.000152,0.025019,-0.003866,0.002691,-0.006342,-0.005898,0.01043,0.000216,-0.003956
1623492972880883455,122,1623492972880883455,0.002111,-0.002111,-0.014554,0.999683,2.8e-05,0.024924,-0.003318,-0.000359,-0.001922,0.000729,0.011555,0.002865,-0.00358
1623492972980881929,123,1623492972980881929,-0.001272,-8.1e-05,-0.014855,0.999692,0.00016,0.024522,-0.003644,-0.006885,0.001505,-0.000239,0.011749,0.002793,-0.00463
1623492973080880642,124,1623492973080880642,-0.002606,-0.002297,-0.008841,0.999692,0.000254,0.024522,-0.003725,-0.009647,-0.00427,0.008181,0.010176,0.002037,-0.00426
1623492973180879354,125,1623492973180879354,-0.002466,-0.002892,-0.011039,0.999694,0.00013,0.024401,-0.00385,-0.005988,-0.005104,0.00413,0.012185,0.002446,-0.004235
1623492973280878067,126,1623492973280878067,-0.002154,-0.000863,-0.009592,0.999688,6.9e-05,0.024707,-0.003646,-0.003847,0.000831,0.00528,0.012064,0.001438,-0.004525
1623492973380876541,127,1623492973380876541,-9.9e-05,0.000348,-0.010769,0.999685,0.000254,0.024817,-0.00365,0.000865,0.003394,0.002635,0.012103,0.002136,-0.004103
1623492973480875254,128,1623492973480875254,0.000889,-0.000968,-0.008932,0.999684,9.5e-05,0.024855,-0.00352,0.003078,-0.001429,0.003666,0.010667,0.000997,-0.005555
1623492973580873966,129,1623492973580873966,0.003607,-0.002959,-0.011241,0.999688,0.000177,0.024704,-0.003424,0.008174,-0.009059,0.000529,0.011687,0.003766,-0.00538
1623492973680872679,130,1623492973680872679,0.002186,-0.003525,-0.011158,0.999693,7.7e-05,0.024532,-0.003241,0.002365,-0.008832,-0.000368,0.011133,0.003779,-0.004248
1623492973780871391,131,1623492973780871391,0.001751,-0.003557,-0.011658,0.999695,0.000259,0.024385,-0.003667,0.002133,-0.009015,-0.000896,0.010846,0.00312,-0.004344
1623492973880869865,132,1623492973880869865,-0.002033,-0.001995,-0.010423,0.999695,0.000242,0.024432,-0.003405,-0.007528,-0.001331,-0.000505,0.01199,-0.000762,-0.004133
1623492973980868578,133,1623492973980868578,-0.002062,-0.001986,-0.007467,0.999694,0.000245,0.024462,-0.003609,-0.004522,-0.002146,0.004232,0.013063,0.005059,-0.005098
1623492974080867290,134,1623492974080867290,-0.000888,0.001234,-0.008393,0.999687,0.000104,0.024714,-0.003652,-0.001856,0.006656,0.00258,0.012544,0.001278,-0.004237
1623492974180866003,135,1623492974180866003,0.001456,0.000166,-0.009205,0.99969,0.000146,0.0246,-0.003652,0.005971,0.001694,-0.000107,0.010789,0.003024,-0.004355
1623492974280864477,136,1623492974280864477,0.000983,-0.002239,-0.004063,0.999693,0.000177,0.024549,-0.003336,0.004967,-0.006129,0.005174,0.00973,0.002623,-0.003706
1623492974380863190,137,1623492974380863190,0.002093,-0.001096,-0.00966,0.999676,0.000205,0.025212,-0.003471,0.002815,-0.004136,-0.002623,0.01215,0.003642,-0.005137
1623492974480861902,138,1623492974480861902,0.001227,-0.001029,-0.010365,0.999683,0.000107,0.024891,-0.003506,0.00115,-0.001778,-0.003703,0.013049,0.001067,-0.005892
1623492974580860615,139,1623492974580860615,0.002018,-0.000857,-0.012929,0.999688,0.000188,0.024691,-0.003614,0.001812,-0.001354,-0.007294,0.011041,0.004458,-0.003955
1623492974680859089,140,1623492974680859089,0.002072,-0.002998,-0.012709,0.999685,0.000193,0.024825,-0.00364,-2.8e-05,-0.007355,-0.00686,0.012642,0.001801,-0.005422
1623492974780857801,141,1623492974780857801,-0.000103,-0.003376,-0.012954,0.999686,0.000171,0.024802,-0.003557,-0.005135,-0.007507,-0.005719,0.011166,0.002533,-0.002865
1623492974880856514,142,1623492974880856514,-0.000508,-0.003976,-0.011827,0.999687,8.8e-05,0.024724,-0.00365,-0.00424,-0.008428,-0.00417,0.012243,0.001046,-0.005031
1623492974980855227,143,1623492974980855227,-0.001763,-0.001476,-0.010925,0.999688,5.7e-05,0.024697,-0.003511,-0.006209,0.00091,-0.001568,0.01142,0.001337,-0.004929
1623492975080853701,144,1623492975080853701,-0.000846,-0.002601,-0.011988,0.99968,0.00018,0.025014,-0.00375,-0.003315,-0.003926,-0.002601,0.011833,0.001205,-0.004573
1623492975180852413,145,1623492975180852413,-0.00098,-0.000953,-0.015062,0.999686,0.000211,0.024779,-0.003627,-0.003214,0.00042,-0.00769,0.012531,0.004627,-0.004482
1623492975280851126,146,1623492975280851126,0.000183,-0.00083,-0.015219,0.999683,0.000261,0.024867,-0.003832,-0.000853,-0.001383,-0.007547,0.010996,0.001838,-0.003549
1623492975380849838,147,1623492975380849838,0.000507,-0.00087,-0.015744,0.999681,6e-05,0.025011,-0.003462,0.000304,-0.002516,-0.006871,0.010137,0.001432,-0.004571
1623492975480848312,148,1623492975480848312,0.001496,-0.00153,-0.016588,0.999678,0.000155,0.025065,-0.003932,0.002604,-0.006965,-0.007231,0.012704,0.002396,-0.004319
1623492975580847025,149,1623492975580847025,0.001269,-0.000973,-0.015894,0.999683,0.000144,0.024837,-0.003969,0.000958,-0.00723,-0.004597,0.011851,0.001986,-0.003762
1623492975680845737,150,1623492975680845737,0.000753,-0.002622,-0.012729,0.999685,0.000178,0.024802,-0.003822,0.000785,-0.009644,-0.000927,0.012013,0.002966,-0.004173
1623492975780844450,151,1623492975780844450,0.000176,-0.002609,-0.010592,0.999678,0.000323,0.025026,-0.003993,-0.001758,-0.008146,0.002382,0.010815,0.003631,-0.003076
1623492975880842924,152,1623492975880842924,-0.0014,-0.001296,-0.012052,0.999683,0.000197,0.024834,-0.003937,-0.005314,-0.002882,-0.000609,0.011308,0.002349,-0.003328
1623492975980841637,153,1623492975980841637,-0.000883,-0.001854,-0.014959,0.999686,0.000254,0.024695,-0.004086,-0.00324,-0.006732,-0.004683,0.012699,0.001928,-0.004623
1623492976080840349,154,1623492976080840349,2.6e-05,-0.003092,-0.016443,0.999683,0.000223,0.02484,-0.003922,-0.000169,-0.009904,-0.007088,0.012564,0.001962,-0.003729
1623492976180839062,155,1623492976180839062,-0.000181,-0.001709,-0.013718,0.99968,0.000124,0.025024,-0.003612,-0.001121,-0.004875,-0.003449,0.01177,0.001722,-0.00537
1623492976280837536,156,1623492976280837536,0.001438,-0.001294,-0.013925,0.999675,0.000319,0.025176,-0.003804,0.002655,-0.003914,-0.002219,0.012352,0.002229,-0.002846
1623492976380836248,157,1623492976380836248,0.002091,-0.00101,-0.019078,0.999679,0.000154,0.025074,-0.003585,0.003298,-0.00219,-0.010801,0.009803,0.003212,-0.004328
1623492976480834961,158,1623492976480834961,0.00186,-0.001435,-0.011607,0.999679,0.00016,0.025049,-0.003572,0.002604,-0.002388,0.000321,0.010635,0.003469,-0.004869
1623492976580833673,159,1623492976580833673,0.000909,-0.001152,-0.012889,0.999675,9.4e-05,0.025181,-0.003742,-0.001329,-0.003816,-0.001899,0.0114,0.001347,-0.004087
1623492976680832386,160,1623492976680832386,-0.000803,-0.002744,-0.008881,0.999682,0.000221,0.024949,-0.003618,-0.003936,-0.009449,0.002895,0.01313,0.003116,-0.00522
1623492976780830860,161,1623492976780830860,-0.00055,-0.002291,-0.012544,0.99968,0.000186,0.025033,-0.003512,-0.00452,-0.008789,-0.002481,0.012509,0.001195,-0.003483
1623492976880829573,162,1623492976880829573,-0.002357,-0.003354,-0.009754,0.999677,0.000212,0.025118,-0.003703,-0.007811,-0.011011,0.002082,0.011431,0.003677,-0.003725
1623492976980828285,163,1623492976980828285,-0.001696,-0.004168,-0.013056,0.999683,4.7e-05,0.024864,-0.003703,-0.003774,-0.01035,-0.003384,0.011721,0.00168,-0.004556
1623492977080826998,164,1623492977080826998,0.000431,-0.003755,-0.01426,0.999686,0.000148,0.024753,-0.003761,0.001944,-0.008893,-0.004712,0.012762,0.003078,-0.003923
1623492977180825472,165,1623492977180825472,-0.000251,-0.003268,-0.008772,0.999686,0.000102,0.024792,-0.00347,0.000611,-0.005546,0.002867,0.011946,0.001742,-0.003666
1623492977280824184,166,1623492977280824184,0.000102,0.000102,-0.010885,0.99969,8.3e-05,0.024625,-0.003451,0.000849,0.005497,-0.000456,0.010834,0.001868,-0.004399
1623492977380822897,167,1623492977380822897,0.001828,-0.00082,-0.016927,0.999687,0.000156,0.024754,-0.003605,0.004139,-0.000445,-0.008117,0.010846,0.003965,-0.002251
1623492977480821609,168,1623492977480821609,0.004719,-0.000648,-0.01651,0.99969,0.000164,0.024619,-0.003665,0.010274,-0.002167,-0.006939,0.012438,0.004492,-0.004696
1623492977580820084,169,1623492977580820084,0.002768,-0.001347,-0.014465,0.999687,0.000241,0.02472,-0.003587,0.003353,-0.003985,-0.002992,0.011814,0.000412,-0.003489
1623492977680818796,170,1623492977680818796,0.001602,-0.00305,-0.007927,0.999686,0.000213,0.024755,-0.003617,0.000169,-0.007393,0.007343,0.011171,0.003431,-0.00429
1623492977780817509,171,1623492977780817509,0.000302,-0.002529,-0.008313,0.999688,5.2e-05,0.024752,-0.003312,-0.002934,-0.004316,0.005235,0.012132,0.002108,-0.00448
1623492977880816221,172,1623492977880816221,-0.00176,-0.003959,-0.008681,0.99969,0.000197,0.024643,-0.003278,-0.005647,-0.006607,0.002891,0.012626,0.003376,-0.005645
1623492977980814695,173,1623492977980814695,-0.002103,-0.003093,-0.004218,0.999687,0.000173,0.024757,-0.003427,-0.00456,-0.003422,0.008266,0.011891,0.00274,-0.004678
1623492978080813408,174,1623492978080813408,-0.000954,-0.000675,-0.007738,0.999695,0.000165,0.024456,-0.00332,0.000253,0.002944,0.002607,0.011519,0.003017,-0.004441
1623492978180812120,175,1623492978180812120,-0.001146,-0.001672,-0.008782,0.999691,8.9e-05,0.02458,-0.003536,-0.000539,-0.002528,0.001141,0.011706,0.001346,-0.003684
1623492978280810833,176,1623492978280810833,0.000935,-0.003618,-0.007085,0.999694,0.000242,0.024491,-0.003373,0.004487,-0.00791,0.003174,0.011209,0.002267,-0.004707
1623492978380809307,177,1623492978380809307,0.002713,-0.003168,-0.011651,0.999692,6.9e-05,0.024591,-0.00313,0.007594,-0.003308,-0.00445,0.011126,0.002146,-0.005365
1623492978480808020,178,1623492978480808020,0.001276,-0.002126,-0.010305,0.999689,-3e-06,0.024748,-0.002846,0.000414,0.000519,-0.001916,0.01087,0.002457,-0.003576
1623492978580806732,179,1623492978580806732,-0.002358,-0.002316,-0.011395,0.999688,0.000221,0.024781,-0.003007,-0.007457,-0.001025,-0.002509,0.012738,0.003071,-0.003126
1623492978680805445,180,1623492978680805445,-0.001967,-0.002529,-0.009441,0.999681,0.000123,0.024994,-0.003526,-0.005408,-0.004444,0.001417,0.012109,0.002765,-0.006052
1623492978780803919,181,1623492978780803919,-0.001489,-0.00231,-0.006213,0.999688,0.00015,0.024702,-0.003499,-0.002722,-0.003499,0.004575,0.011271,0.0012,-0.003894
1623492978880802631,182,1623492978880802631,-0.001673,-0.001547,-0.007717,0.999689,0.000148,0.024646,-0.003594,-0.002277,-0.001831,0.001563,0.011423,0.002018,-0.004372
1623492978980801344,183,1623492978980801344,-0.001265,-0.001176,-0.003908,0.999696,0.000174,0.024406,-0.003482,0.000473,-0.002057,0.006484,0.012118,0.004415,-0.003276
1623492979080800056,184,1623492979080800056,0.000176,-0.003683,-0.008169,0.999694,0.000258,0.024449,-0.003549,0.00363,-0.009111,-0.000791,0.011932,0.002329,-0.005605
1623492979180798769,185,1623492979180798769,0.000527,-0.00332,-0.010647,0.999695,5.5e-05,0.024441,-0.003403,0.004334,-0.007131,-0.004,0.011752,0.003835,-0.004923
1623492979280797243,186,1623492979280797243,0.00247,-0.002544,-0.013416,0.999701,6.5e-05,0.024208,-0.003192,0.007661,-0.002219,-0.008472,0.01006,0.000722,-0.004527
1623492979380795956,187,1623492979380795956,0.001952,-0.003272,-0.011045,0.999698,0.000286,0.024282,-0.003691,0.005164,-0.003815,-0.003128,0.012776,0.002069,-0.003925
1623492979480794668,188,1623492979480794668,-0.000741,-0.001787,-0.010873,0.999697,7.7e-05,0.024381,-0.00335,-0.000854,-0.000304,-0.003421,0.009958,0.001945,-0.003996
1623492979580793381,189,1623492979580793381,-0.001897,-0.001122,-0.015127,0.999692,7.4e-05,0.024547,-0.003547,-0.00438,0.000339,-0.007499,0.011325,0.003371,-0.005507
1623492979680791855,190,1623492979680791855,-0.002765,-0.006801,-0.012747,0.99969,0.000265,0.024557,-0.003863,-0.005122,-0.018129,-0.001478,0.009405,0.000963,-0.003848
1623492979780790567,191,1623492979780790567,-0.003745,-0.001921,-0.014726,0.999691,0.000113,0.024587,-0.003572,-0.007788,0.000835,-0.004414,0.011728,0.00331,-0.004834
1623492979880789280,192,1623492979880789280,-0.001446,-0.000869,-0.011721,0.999691,0.000149,0.024561,-0.003592,0.00046,0.004215,-0.001124,0.011747,0.001592,-0.005295
1623492979980787992,193,1623492979980787992,-0.000413,0.001202,-0.011958,0.999692,0.000197,0.024552,-0.00344,0.004194,0.009602,-0.002774,0.011795,0.001842,-0.004481
1623492980080786467,194,1623492980080786467,-0.000298,0.000706,-0.012132,0.999692,0.000194,0.024571,-0.003476,0.003831,0.004922,-0.003132,0.011007,0.000665,-0.003715
1623492980180785179,195,1623492980180785179,0.000685,-0.001429,-0.015666,0.999689,0.00014,0.024658,-0.003644,0.005231,-0.004447,-0.008465,0.012297,0.002881,-0.003296
1623492980280783892,196,1623492980280783892,-0.000553,-0.001941,-0.01605,0.99969,8.9e-05,0.024625,-0.003602,0.002413,-0.005372,-0.009704,0.011115,0.002364,-0.002863
1623492980380782604,197,1623492980380782604,0.001891,-0.0022,-0.015251,0.999687,0.000136,0.024736,-0.003512,0.006358,-0.007717,-0.005869,0.011002,0.002711,-0.004362
1623492980480781078,198,1623492980480781078,0.000913,-0.001971,-0.016594,0.999687,0.000167,0.02473,-0.003539,0.001229,-0.004138,-0.007965,0.010549,0.001528,-0.004813
1623492980580779791,199,1623492980580779791,0.001669,-0.002318,-0.009015,0.999688,0.000143,0.024688,-0.003561,0.003098,-0.005053,0.003805,0.012473,0.002173,-0.004215
1623492980680778503,200,1623492980680778503,0.003002,-0.002398,-0.016925,0.999691,0.000157,0.024564,-0.003628,0.004695,-0.004853,-0.007819,0.009884,0.002339,-0.004497
1623492980780777216,201,1623492980780777216,0.000868,-0.001088,-0.014467,0.999688,0.000308,0.02465,-0.003892,-0.00042,-0.002538,-0.003676,0.010089,0.003946,-0.005071
1623492980880775690,202,1623492980880775690,0.001542,-0.002587,-0.017881,0.999686,0.000253,0.02475,-0.003776,0.000363,-0.00637,-0.008915,0.011508,0.002569,-0.004107
1623492980980774403,203,1623492980980774403,-0.002577,-0.001756,-0.014504,0.999686,0.000226,0.024728,-0.003861,-0.008946,-0.003653,-0.00484,0.013356,0.002286,-0.003359
1623492981080773115,204,1623492981080773115,-9.6e-05,-0.002287,-0.017954,0.999682,0.000201,0.024892,-0.003852,-0.002366,-0.005605,-0.00862,0.011769,0.002034,-0.003428
1623492981180771828,205,1623492981180771828,0.001486,-0.001932,-0.015137,0.999685,0.000145,0.024788,-0.003772,0.002194,-0.004684,-0.00421,0.009983,0.003451,-0.003645
1623492981280770302,206,1623492981280770302,0.0022,-0.000657,-0.016389,0.999687,0.000199,0.024738,-0.00366,0.004571,-0.000937,-0.006064,0.010757,0.001657,-0.003833
1623492981380769014,207,1623492981380769014,0.003628,-0.002572,-0.017891,0.999689,0.000256,0.024641,-0.003796,0.005026,-0.008753,-0.006778,0.011566,0.00208,-0.005053
1623492981480767727,208,1623492981480767727,0.002911,-0.002672,-0.016053,0.999691,9.4e-05,0.024601,-0.003505,0.003266,-0.010754,-0.003684,0.012275,0.001015,-0.004515
1623492981580766439,209,1623492981580766439,0.006497,-0.002471,-0.015522,0.999681,0.000213,0.025017,-0.00345,0.008678,-0.007255,-0.000995,0.010685,0.003539,-0.003798
1623492981680764914,210,1623492981680764914,0.002935,-0.002889,-0.015515,0.999684,0.000214,0.024874,-0.003417,-0.001469,-0.006883,-0.002101,0.013338,0.002653,-0.004817
1623492981780763626,211,1623492981780763626,0.004348,-0.00244,-0.013808,0.999688,0.000198,0.024718,-0.003401,0.001476,-0.005588,0.0001,0.011515,0.002588,-0.00499
1623492981880762339,212,1623492981880762339,0.003307,-0.00178,-0.01732,0.999686,0.0001,0.024744,-0.003726,-0.002479,-0.00704,-0.004626,0.011065,0.002524,-0.004179
1623492981980761051,213,1623492981980761051,0.000458,-0.00133,-0.014925,0.999684,0.000213,0.024838,-0.003786,-0.007521,-0.005212,-0.000841,0.010617,0.002114,-0.003859
1623492982080759764,214,1623492982080759764,-0.000551,-0.00091,-0.016861,0.999688,0.000175,0.024678,-0.003805,-0.008683,-0.003714,-0.002393,0.012209,0.000496,-0.00449
1623492982180758238,215,1623492982180758238,-0.002085,-0.00059,-0.017981,0.999693,0.000142,0.024449,-0.003859,-0.010214,-0.002165,-0.003862,0.010472,0.001499,-0.004901
1623492982280756950,216,1623492982280756950,0.000523,-0.002058,-0.01731,0.99969,9e-05,0.024611,-0.003635,-0.001959,-0.005222,-0.00317,0.011804,0.002802,-0.005453
1623492982380755663,217,1623492982380755663,0.001073,-0.002762,-0.01812,0.999691,0.00021,0.024598,-0.003535,0.000804,-0.008257,-0.004345,0.010053,0.002545,-0.004679
1623492982480754375,218,1623492982480754375,0.000448,-0.002618,-0.014683,0.999691,0.000118,0.024575,-0.003511,-0.00064,-0.007491,0.000888,0.012584,0.003792,-0.005381
1623492982580752850,219,1623492982580752850,0.001318,-0.002911,-0.012894,0.99969,0.000255,0.024628,-0.003492,0.003354,-0.006971,0.002257,0.010975,0.000615,-0.003619
1623492982680751562,220,1623492982680751562,-0.000181,-0.001589,-0.010799,0.999696,0.000182,0.024434,-0.003168,0.001554,-0.000838,0.002842,0.011328,0.002133,-0.003628
1623492982780750275,221,1623492982780750275,-0.002669,0.000703,-0.010562,0.999689,0.000192,0.024651,-0.003502,-0.005284,0.00492,0.003697,0.011768,0.001106,-0.003485
1623492982880748987,222,1623492982880748987,-0.001335,-0.001879,-0.013188,0.999693,0.000232,0.024503,-0.003443,-0.00204,-0.003933,-0.001745,0.01187,0.005315,-0.005474
1623492982980747461,223,1623492982980747461,-0.000468,-0.001861,-0.017808,0.999686,0.000132,0.024784,-0.003554,-0.000313,-0.005556,-0.007793,0.010791,0.001955,-0.004237
1623492983080746174,224,1623492983080746174,0.00237,-0.001356,-0.013564,0.999695,0.000238,0.02444,-0.003347,0.006755,-0.00252,-0.0019,0.010651,0.001711,-0.00475
1623492983180744886,225,1623492983180744886,0.001136,-0.000802,-0.012825,0.999695,0.000117,0.024441,-0.003329,0.002419,-0.000638,-7.5e-05,0.011489,0.002203,-0.003828
1623492983280743599,226,1623492983280743599,-3.3e-05,0.000325,-0.011481,0.999691,9.5e-05,0.024582,-0.003441,-0.001533,-4.5e-05,0.001757,0.012439,0.003815,-0.003562
1623492983380742073,227,1623492983380742073,5.7e-05,-0.00207,-0.009285,0.999699,0.000164,0.024325,-0.003085,-0.000531,-0.004663,0.003206,0.010748,0.002122,-0.004182
1623492983480740786,228,1623492983480740786,-0.000904,-0.002061,-0.011169,0.999691,0.000158,0.024645,-0.003119,-0.003413,-0.004036,0.000323,0.01065,0.003807,-0.004269
1623492983580739498,229,1623492983580739498,-0.001582,-0.00307,-0.010261,0.999693,0.000147,0.024551,-0.003315,-0.00409,-0.007839,-0.00125,0.01076,0.003261,-0.003672
1623492983680738211,230,1623492983680738211,-0.004021,-0.001818,-0.010684,0.999697,0.000132,0.024343,-0.003379,-0.007367,-0.003199,-0.001689,0.01132,0.002727,-0.004204
1623492983780736685,231,1623492983780736685,-0.004447,0.002121,-0.011734,0.999695,4.7e-05,0.024412,-0.003562,-0.00715,0.004663,-0.004184,0.010329,0.000515,-0.005158
1623492983880735397,232,1623492983880735397,-0.004315,0.000538,-0.007992,0.999692,8e-06,0.024569,-0.003387,-0.004193,-0.001758,0.002189,0.010745,0.004334,-0.004277
1623492983980734110,233,1623492983980734110,-0.004259,-0.000304,-0.003234,0.999692,0.00016,0.02454,-0.003484,-0.001064,-0.005811,0.008557,0.009977,0.004098,-0.004994
1623492984080732822,234,1623492984080732822,-0.005547,-0.000835,-0.002935,0.999692,8.5e-05,0.024568,-0.003477,-0.002533,-0.005915,0.007359,0.011665,0.002326,-0.005644
1623492984180731297,235,1623492984180731297,-0.005943,0.000467,-0.004889,0.9997,0.000109,0.024252,-0.003385,-0.001139,-0.001688,0.002744,0.010412,0.002788,-0.004646
1623492984280730009,236,1623492984280730009,-0.005238,0.001243,-0.000403,0.999701,0.000107,0.024198,-0.003336,0.002941,-0.001635,0.007796,0.010297,0.001244,-0.004403
1623492984380728722,237,1623492984380728722,-0.005882,-0.001397,-0.004745,0.999696,0.000104,0.024409,-0.003313,0.00094,-0.009419,0.000852,0.010608,0.001732,-0.005374
1623492984480727434,238,1623492984480727434,-0.005966,-0.000477,-0.005649,0.999693,7.2e-05,0.024531,-0.003323,0.00047,-0.006375,-0.001048,0.011205,0.004295,-0.003804
1623492984580726147,239,1623492984580726147,-0.006564,-0.002328,-0.006955,0.999689,0.000124,0.024667,-0.003416,-0.000165,-0.010357,-0.003224,0.010576,0.003248,-0.004107
1623492984680724621,240,1623492984680724621,-0.003799,-0.001409,-0.010242,0.999693,0.000151,0.0245,-0.00357,0.006718,-0.008172,-0.008347,0.010151,0.002492,-0.004737
1623492984780723333,241,1623492984780723333,-0.003528,-0.002062,-0.012189,0.999693,0.000174,0.02449,-0.003631,0.007074,-0.007575,-0.010716,0.012593,0.003385,-0.003862
1623492984880722046,242,1623492984880722046,-0.005048,-0.002231,-0.01429,0.999689,6.4e-05,0.024685,-0.003296,0.002606,-0.00591,-0.011596,0.012494,0.000203,-0.003362
1623492984980720758,243,1623492984980720758,-0.00797,-0.004089,-0.011618,0.999689,0.0,0.024616,-0.003756,-0.004849,-0.011333,-0.007116,0.012948,0.005243,-0.004537
1623492985080719233,244,1623492985080719233,-0.005578,-0.001649,-0.011587,0.999685,0.000134,0.024845,-0.003534,0.001543,-0.002184,-0.005899,0.010652,0.001916,-0.003741
1623492985180717945,245,1623492985180717945,-0.005103,0.000113,-0.011945,0.999692,0.000115,0.024578,-0.003382,0.003583,0.002956,-0.006484,0.01028,0.002495,-0.005129
1623492985280716658,246,1623492985280716658,-0.003827,-0.000105,-0.011648,0.999692,0.000118,0.024567,-0.003295,0.006886,0.001893,-0.006548,0.011646,0.000165,-0.00369
1623492985380715370,247,1623492985380715370,-0.001905,0.001819,-0.01198,0.999687,0.000112,0.024758,-0.003421,0.009343,0.005668,-0.004028,0.010605,0.002902,-0.003735
1623492985480713844,248,1623492985480713844,-0.004886,0.000387,-0.009076,0.999694,0.000163,0.024487,-0.003496,0.000921,-0.001534,-0.000183,0.013739,0.001165,-0.004147
1623492985580712557,249,1623492985580712557,-0.003473,0.002341,-0.010976,0.999694,0.000114,0.024505,-0.003183,0.004897,0.002433,-0.003275,0.013351,0.006102,-0.003722
1623492985680711269,250,1623492985680711269,-0.005047,0.001118,-0.007416,0.999694,3.8e-05,0.024471,-0.003404,0.0011,-0.001152,0.002328,0.010552,0.002231,-0.002652
1623492985780709982,251,1623492985780709982,-0.003984,-0.001419,-0.008363,0.999699,-4e-06,0.024317,-0.003142,0.005142,-0.009534,-0.000315,0.011209,0.002802,-0.004333
1623492985880708456,252,1623492985880708456,-0.004242,-0.000405,-0.00897,0.999694,0.000157,0.024511,-0.003275,0.00441,-0.006031,-0.002285,0.011471,0.000522,-0.002906
1623492985980707169,253,1623492985980707169,-0.007652,-0.002531,-0.006128,0.999695,0.000235,0.02437,-0.003925,-0.003433,-0.012433,0.002167,0.011109,0.002745,-0.005128
1623492986080705881,254,1623492986080705881,-0.00789,-0.002533,0.000431,0.999697,0.000162,0.024269,-0.003874,-0.00275,-0.009878,0.011529,0.01154,0.002006,-0.005115
1623492986180704594,255,1623492986180704594,-0.007385,-0.003128,-0.000737,0.9997,0.000117,0.024179,-0.003799,-0.000685,-0.010337,0.007316,0.010692,0.004294,-0.005468
1623492986280703068,256,1623492986280703068,-0.005735,-0.000526,-0.002331,0.999692,8.5e-05,0.024484,-0.003838,0.003829,-0.001423,0.003598,0.012092,0.002558,-0.004597
1623492986380701780,257,1623492986380701780,-0.007686,0.001987,-0.005919,0.999697,0.000164,0.02431,-0.003604,-0.001829,0.00498,-0.0025,0.011767,0.001367,-0.004457
1623492986480700493,258,1623492986480700493,-0.005033,0.001778,-0.008813,0.999698,6.8e-05,0.024272,-0.003775,0.005179,0.000582,-0.007557,0.01198,0.00102,-0.004531
1623492986580699205,259,1623492986580699205,-0.006398,0.000545,-0.003605,0.999698,0.000221,0.024237,-0.003819,0.001609,-0.004654,-0.000384,0.010171,0.001569,-0.004015
1623492986680697680,260,1623492986680697680,-0.006822,0.001706,-0.005166,0.999704,3e-06,0.024063,-0.003518,0.001073,0.000272,-0.003777,0.014072,0.003947,-0.00495
1623492986780696392,261,1623492986780696392,-0.007777,0.001916,-0.005333,0.999702,-5.4e-05,0.024165,-0.00333,-0.001391,0.00117,-0.003366,0.011414,0.003888,-0.003331
1623492986880695105,262,1623492986880695105,-0.006992,0.001778,-0.004511,0.999701,-3.7e-05,0.024249,-0.003113,0.00077,0.001248,-0.002662,0.011597,0.00312,-0.004317
1623492986980693817,263,1623492986980693817,-0.010463,0.002356,-0.006462,0.999699,3.2e-05,0.024308,-0.003111,-0.007582,0.003412,-0.005237,0.013905,0.001976,-0.002752
1623492987080692291,264,1623492987080692291,-0.009944,0.000912,-0.009273,0.999695,7.9e-05,0.024422,-0.003497,-0.00344,-0.003617,-0.008218,0.011533,0.002612,-0.004078
1623492987180691004,265,1623492987180691004,-0.008975,-0.000446,-0.00807,0.999697,9.8e-05,0.024329,-0.003642,0.000686,-0.008325,-0.003975,0.01136,0.002709,-0.004139
1623492987280689716,266,1623492987280689716,-0.009938,-0.001718,-0.005261,0.999699,0.000187,0.024256,-0.003433,-0.000819,-0.009244,-0.000788,0.010399,0.001832,-0.005142
1623492987380688429,267,1623492987380688429,-0.011135,-0.003701,-0.000976,0.999698,0.000254,0.024255,-0.003794,-0.002083,-0.012777,0.005219,0.010609,0.001475,-0.004667
1623492987480687141,268,1623492987480687141,-0.009038,-0.00367,-0.002362,0.999693,0.000142,0.024482,-0.003723,0.003187,-0.010695,0.00325,0.013955,0.003819,-0.003926
1623492987580685616,269,1623492987580685616,-0.005125,-0.00167,-0.003625,0.999688,0.000127,0.024725,-0.003531,0.010685,-0.004177,0.000399,0.011959,0.001213,-0.004954
1623492987680684328,270,1623492987680684328,-0.003857,-0.001233,-0.007405,0.999684,5.5e-05,0.024906,-0.003251,0.010191,-0.002104,-0.006431,0.012844,0.002841,-0.005198
1623492987780683041,271,1623492987780683041,-0.002365,-0.000997,-0.008366,0.999687,6.3e-05,0.024805,-0.003175,0.013679,-0.003131,-0.007209,0.010779,0.003102,-0.005122
1623492987880681753,272,1623492987880681753,-0.002962,-0.002612,-0.011567,0.999688,0.000122,0.024709,-0.003394,0.009256,-0.006306,-0.010601,0.012627,0.004606,-0.004869
1623492987980680227,273,1623492987980680227,-0.001139,-0.002627,-0.012756,0.999693,4.4e-05,0.024521,-0.003311,0.012028,-0.005793,-0.012592,0.011432,0.00092,-0.005596
1623492988080678940,274,1623492988080678940,-0.001029,-0.001709,-0.012411,0.999686,5.9e-05,0.024774,-0.003507,0.007749,-0.003471,-0.009532,0.011913,0.000613,-0.005448
1623492988180677652,275,1623492988180677652,-0.000689,-0.000671,-0.01443,0.999677,0.000203,0.025108,-0.003738,0.006705,-0.004021,-0.010607,0.011201,0.000557,-0.003602
1623492988280676365,276,1623492988280676365,-0.002338,-0.000734,-0.014899,0.99968,9.8e-05,0.02502,-0.003597,0.002819,-0.003356,-0.011503,0.011379,0.000447,-0.003911
1623492988380674839,277,1623492988380674839,7.9e-05,2e-05,-0.016421,0.99968,0.000126,0.025031,-0.003547,0.007619,-0.003401,-0.012588,0.010775,0.002286,-0.003847
1623492988480673552,278,1623492988480673552,0.000787,0.000877,-0.021841,0.999685,9.2e-05,0.02486,-0.0034,0.008134,-0.001226,-0.019113,0.011843,0.002687,-0.003766
1623492988580672264,279,1623492988580672264,0.001849,-3.4e-05,-0.020704,0.999682,0.000194,0.024954,-0.003472,0.010361,-0.003651,-0.016346,0.009782,0.00195,-0.002861
1623492988680670977,280,1623492988680670977,-0.00059,-0.00049,-0.016923,0.999684,0.000188,0.024874,-0.003447,0.004086,-0.004808,-0.011094,0.011779,0.003545,-0.004631
1623492988780669451,281,1623492988780669451,-0.002547,0.002133,-0.011713,0.999688,0.000142,0.02469,-0.003603,0.000317,0.000411,-0.002894,0.011195,0.001237,-0.004125
1623492988880668163,282,1623492988880668163,-0.004736,0.001444,-0.007538,0.999689,0.00016,0.024665,-0.003575,-0.003045,-0.003252,0.002451,0.012232,0.004116,-0.003998
1623492988980666876,283,1623492988980666876,-0.004003,0.001897,-0.007568,0.999692,9.4e-05,0.02457,-0.003417,-0.000264,-0.001479,0.000898,0.011697,0.004375,-0.005142
1623492989080665588,284,1623492989080665588,-0.004478,-8e-05,-0.006917,0.999696,0.000119,0.024395,-0.003444,0.000374,-0.007909,-0.000568,0.013332,0.002486,-0.005153
1623492989180664063,285,1623492989180664063,-0.003493,-0.002637,-0.00609,0.999693,9.1e-05,0.024526,-0.003408,0.003126,-0.011819,0.00058,0.010195,0.00245,-0.004303
1623492989280662775,286,1623492989280662775,-0.003716,-0.001296,0.001294,0.99969,0.000128,0.024647,-0.003318,0.002559,-0.005598,0.00922,0.011054,0.001404,-0.004371
1623492989380661488,287,1623492989380661488,-0.003241,-0.000806,-0.002978,0.999703,0.000235,0.02412,-0.003398,0.003926,-0.005704,-0.000187,0.010631,0.001756,-0.005229
1623492989480660200,288,1623492989480660200,-0.002852,-0.000816,-0.004036,0.999703,7.7e-05,0.024103,-0.003365,0.004107,-0.005503,-0.000725,0.01225,0.004215,-0.004715
1623492989580658674,289,1623492989580658674,-0.001663,-0.001696,-0.00631,0.9997,0.000119,0.024226,-0.003429,0.007332,-0.008255,-0.004639,0.011217,0.003366,-0.003928
1623492989680657387,290,1623492989680657387,-0.002179,-0.001073,-0.010642,0.999695,0.000107,0.024452,-0.003416,0.004091,-0.005017,-0.010328,0.01289,0.002059,-0.004446
1623492989780656099,291,1623492989780656099,-0.002286,-0.002249,-0.010008,0.999697,0.000105,0.024322,-0.003603,0.003999,-0.009778,-0.009725,0.011889,0.003437,-0.005687
1623492989880654812,292,1623492989880654812,-0.001971,0.000394,-0.014334,0.999695,0.000147,0.02441,-0.003586,0.003164,-0.001836,-0.01404,0.012269,0.002768,-0.005241
1623492989980653524,293,1623492989980653524,-0.002253,-0.003198,-0.008832,0.9997,0.00014,0.024237,-0.003434,0.00422,-0.011238,-0.006366,0.010821,0.001604,-0.003449
1623492990080651999,294,1623492990080651999,-0.004955,-0.003499,-0.003082,0.999696,5.9e-05,0.024419,-0.003238,-0.002083,-0.00807,0.002105,0.011057,0.002734,-0.004125
1623492990180650711,295,1623492990180650711,-0.003284,-0.002124,-0.006063,0.999693,7.4e-05,0.024573,-0.003122,0.002327,-0.004255,-0.002007,0.010921,0.002457,-0.004878
1623492990280649424,296,1623492990280649424,-0.004975,-0.002579,-0.003026,0.999695,9.7e-05,0.024495,-0.003008,-0.002244,-0.005268,0.001137,0.013691,0.003541,-0.004563
1623492990380648136,297,1623492990380648136,-0.004031,-0.002159,-0.009546,0.999685,8.6e-05,0.024879,-0.003277,-0.000917,-0.004932,-0.006157,0.010015,-6e-05,-0.004344
1623492990480646610,298,1623492990480646610,-0.006251,-0.000876,-0.006985,0.99969,4.7e-05,0.024658,-0.00337,-0.004961,-0.000629,-0.002797,0.011888,0.001942,-0.004204
1623492990580645323,299,1623492990580645323,-0.007409,-0.002508,-0.003601,0.999688,0.000137,0.024698,-0.003557,-0.005519,-0.006144,0.000989,0.010792,0.003495,-0.003994
1623492990680644035,300,1623492990680644035,-0.007623,-0.002596,-0.001049,0.9997,4.5e-05,0.024245,-0.003346,-0.003496,-0.004526,0.003052,0.011838,0.0034,-0.004702
1623492990780642748,301,1623492990780642748,-0.005496,-0.002985,-0.005768,0.999692,0.000124,0.024596,-0.003214,0.000794,-0.004463,-0.003933,0.01047,1.1e-05,-0.003215
1623492990880641222,302,1623492990880641222,-0.004409,-0.002647,-0.007469,0.999693,0.000218,0.024497,-0.003456,0.004338,-0.003089,-0.006115,0.011558,0.001748,-0.002944
1623492990980639935,303,1623492990980639935,-0.005137,-0.00211,-0.00929,0.999694,8.9e-05,0.024397,-0.003828,0.003028,-0.004164,-0.00763,0.01235,0.002243,-0.004358
1623492991080638647,304,1623492991080638647,-0.003155,-0.000171,-0.007867,0.999692,0.000243,0.02452,-0.003732,0.005785,0.000902,-0.00348,0.011464,0.004155,-0.005103
1623492991180637360,305,1623492991180637360,-0.004149,-0.001042,-0.009873,0.999691,0.000177,0.024565,-0.003545,0.001376,-0.001846,-0.006796,0.009823,0.001884,-0.005089
1623492991280635834,306,1623492991280635834,-0.003748,-0.001911,-0.008672,0.999693,-2.2e-05,0.024533,-0.003412,0.002445,-0.00412,-0.005431,0.011641,0.004611,-0.004872
1623492991380634546,307,1623492991380634546,-0.004391,-0.002211,-0.008582,0.999693,-5.1e-05,0.024521,-0.003301,0.000235,-0.003739,-0.005402,0.010549,0.001887,-0.004648
1623492991480633259,308,1623492991480633259,-0.004508,-0.003241,-0.007786,0.999696,6.8e-05,0.024409,-0.003349,0.00047,-0.006374,-0.003269,0.011932,0.002911,-0.005633
1623492991580631971,309,1623492991580631971,-0.003101,-0.004038,-0.007104,0.999696,0.000156,0.024379,-0.003507,0.002831,-0.008298,-0.00311,0.011807,0.002913,-0.004041
1623492991680630445,310,1623492991680630445,-0.005481,-0.00303,-0.009911,0.999694,0.00016,0.02444,-0.003632,-0.002693,-0.006491,-0.006157,0.010378,0.004281,-0.004732
1623492991780629158,311,1623492991780629158,-0.005056,-0.000856,-0.009815,0.999696,6e-06,0.02439,-0.003506,-0.000317,0.000142,-0.006104,0.009447,0.002508,-0.004436
1623492991880627871,312,1623492991880627871,-0.004608,-0.000881,-0.00976,0.999696,9e-05,0.024401,-0.003525,0.002815,0.000206,-0.006314,0.011448,0.002638,-0.004159
1623492991980626583,313,1623492991980626583,-0.004967,-0.001029,-0.010052,0.999702,0.000203,0.02414,-0.003518,0.002828,-0.001638,-0.006397,0.012401,0.000437,-0.004518
1623492992080625057,314,1623492992080625057,-0.00739,-0.000686,-0.007834,0.999702,0.00014,0.024103,-0.003724,-0.001221,-0.000898,-0.002363,0.010558,0.002075,-0.004309
1623492992180623770,315,1623492992180623770,-0.005726,-0.000763,-0.006425,0.999699,0.000157,0.024266,-0.003377,0.003291,-0.00077,-0.00104,0.010205,0.001247,-0.003337
1623492992280622482,316,1623492992280622482,-0.005398,0.000528,-0.00205,0.99969,0.000149,0.024654,-0.003441,0.000789,0.002355,0.006352,0.011167,0.00451,-0.00454
1623492992380621195,317,1623492992380621195,-0.003822,0.001692,-0.010911,0.999688,0.000135,0.024732,-0.003464,0.004037,0.00056,-0.007017,0.011496,0.001462,-0.005694
1623492992480619669,318,1623492992480619669,-0.004303,-2.5e-05,-0.007134,0.999699,0.000266,0.024243,-0.003635,0.002684,-0.004715,-0.002513,0.011158,0.002244,-0.004934
1623492992580618382,319,1623492992580618382,-0.003625,-0.000438,-0.004795,0.999696,0.000115,0.024397,-0.003408,0.00429,-0.006075,0.002289,0.014127,0.003638,-0.003848
1623492992680617094,320,1623492992680617094,-0.003797,0.000941,-0.007012,0.999693,2.6e-05,0.024498,-0.00348,0.004013,-0.003652,-0.000772,0.011752,0.00366,-0.0049
1623492992780615807,321,1623492992780615807,-0.002212,-0.001507,-0.013955,0.999685,0.000164,0.024828,-0.003596,0.005475,-0.013712,-0.009763,0.011831,0.002444,-0.003805
1623492992880614519,322,1623492992880614519,-0.002297,-0.001903,-0.008932,0.999684,0.000128,0.024833,-0.003731,0.005463,-0.011749,-0.001663,0.010697,0.003425,-0.004957
1623492992980612993,323,1623492992980612993,-0.000879,-4.8e-05,-0.016726,0.999691,0.000112,0.024612,-0.003465,0.007464,-0.004562,-0.013668,0.012172,0.001983,-0.004233
1623492993080611706,324,1623492993080611706,-0.004162,-0.001887,-0.015479,0.999688,0.000128,0.024687,-0.003679,0.000133,-0.008842,-0.011016,0.011176,0.0005,-0.004939
1623492993180610418,325,1623492993180610418,-0.004661,-0.001186,-0.013763,0.999686,0.000184,0.024766,-0.003757,-0.001718,-0.006502,-0.007265,0.011193,0.002644,-0.004908
1623492993280609131,326,1623492993280609131,-0.005264,-0.001129,-0.008837,0.999687,1.6e-05,0.024752,-0.003573,-0.001277,-0.00381,-0.001111,0.012075,0.00279,-0.004048
1623492993380607605,327,1623492993380607605,-0.005516,-0.001265,-0.012414,0.999692,9.1e-05,0.024531,-0.003608,-0.001165,-0.004449,-0.006231,0.012477,0.004815,-0.004017
1623492993480606318,328,1623492993480606318,-0.004461,-0.002749,-0.006286,0.999693,0.000103,0.024501,-0.003538,0.002588,-0.007536,0.001731,0.010473,0.00128,-0.004321
1623492993580605030,329,1623492993580605030,-0.004526,-0.003225,-0.012564,0.999693,0.000154,0.024469,-0.003677,0.002768,-0.010466,-0.007809,0.010355,0.002391,-0.004872
1623492993680603743,330,1623492993680603743,-0.003941,-0.00207,-0.01259,0.999686,8.4e-05,0.024778,-0.00369,0.003128,-0.007259,-0.006771,0.011011,0.000878,-0.003439
1623492993780602217,331,1623492993780602217,-0.005107,-0.000292,-0.01334,0.999686,0.000123,0.024805,-0.003345,-0.000706,0.000494,-0.007273,0.012501,0.003877,-0.004288
1623492993880600929,332,1623492993880600929,-0.006193,-0.000339,-0.012041,0.999688,7.4e-05,0.02472,-0.003452,-0.00183,-0.000233,-0.004757,0.010773,0.002616,-0.004326
1623492993980599642,333,1623492993980599642,-0.003603,0.00069,-0.008952,0.999687,0.000184,0.024766,-0.003316,0.005619,0.00254,-0.000454,0.011868,0.003409,-0.004928
1623492994080598354,334,1623492994080598354,-0.005796,-0.001196,-0.00772,0.999684,0.000123,0.024892,-0.003273,0.000244,-0.005019,0.001369,0.01239,0.00255,-0.003775
1623492994180596828,335,1623492994180596828,-0.003399,-0.002673,-0.00949,0.999691,0.000137,0.02457,-0.003661,0.006363,-0.010319,-0.001007,0.012744,0.001822,-0.003681
1623492994280595541,336,1623492994280595541,-0.003802,-0.001081,-0.013501,0.99969,0.00011,0.024617,-0.003594,0.003719,-0.005264,-0.006789,0.012824,0.002486,-0.004695
1623492994380594254,337,1623492994380594254,-0.003792,-0.000801,-0.010159,0.999686,1.1e-05,0.024817,-0.003338,0.002633,-0.001568,-0.001468,0.011989,0.004401,-0.0035
1623492994480592966,338,1623492994480592966,-0.003882,0.000106,-0.012367,0.999688,0.000142,0.024679,-0.003743,0.001669,-0.001418,-0.00462,0.011431,0.002515,-0.004893
1623492994580591440,339,1623492994580591440,-0.004345,-0.000783,-0.011608,0.99969,0.000162,0.024592,-0.003784,0.002105,-0.005102,-0.001176,0.012603,0.003542,-0.004236
1623492994680590153,340,1623492994680590153,-0.004659,-0.000431,-0.006211,0.999691,0.00017,0.024529,-0.003771,0.001447,-0.003718,0.006278,0.011868,0.001414,-0.005469
1623492994780588865,341,1623492994780588865,-0.005992,0.001886,-0.008672,0.999694,2e-05,0.024462,-0.003579,-0.001351,0.001171,0.00143,0.010414,0.001872,-0.004774
1623492994880587578,342,1623492994880587578,-0.005466,0.000467,-0.008388,0.999695,6e-05,0.024446,-0.00348,0.001036,-0.003187,0.000161,0.011113,0.002157,-0.004304
1623492994980586052,343,1623492994980586052,-0.002887,0.001078,-0.007277,0.999695,0.000128,0.02446,-0.003317,0.007622,-0.001412,0.001178,0.012784,0.005849,-0.003403
1623492995080584764,344,1623492995080584764,-0.002881,-0.000464,-0.005662,0.999693,0.000119,0.024494,-0.003728,0.006646,-0.007209,0.002171,0.011971,0.003737,-0.004476
1623492995180583477,345,1623492995180583477,-0.003824,0.001001,-0.008871,0.999698,0.000148,0.024297,-0.003447,0.004388,-0.000701,-0.004118,0.010912,0.002614,-0.005376
1623492995280582190,346,1623492995280582190,-0.006297,-0.000172,-0.006221,0.999699,0.000139,0.02423,-0.003817,-0.001844,-0.005114,0.0005,0.012225,0.002695,-0.00376
1623492995380580664,347,1623492995380580664,-0.007442,-0.000374,-0.002005,0.999696,3.2e-05,0.024374,-0.003454,-0.00314,-0.005508,0.004727,0.010116,0.001198,-0.004473
1623492995480579376,348,1623492995480579376,-0.005913,-0.001131,0.000496,0.999694,0.000153,0.02447,-0.003382,0.001052,-0.006152,0.00693,0.01061,0.003039,-0.004803
1623492995580578089,349,1623492995580578089,-0.006109,-0.000729,-0.001109,0.999697,-2.4e-05,0.024395,-0.003165,0.002535,-0.004473,0.002947,0.010084,0.001766,-0.003921
1623492995680576801,350,1623492995680576801,-0.005511,-0.000857,0.001443,0.999698,0.000119,0.024275,-0.003663,0.003402,-0.004491,0.005463,0.012691,0.002203,-0.003152
1623492995780575514,351,1623492995780575514,-0.004746,-0.000853,0.001797,0.9997,6.9e-05,0.024244,-0.003396,0.006006,-0.003363,0.003957,0.011184,0.00035,-0.004992
1623492995880573988,352,1623492995880573988,-0.004634,-0.000876,-0.001941,0.999687,9.2e-05,0.024771,-0.003381,0.004589,-0.004783,-0.001698,0.011786,0.003344,-0.004228
1623492995980572701,353,1623492995980572701,-0.004214,-0.00209,-0.00093,0.999686,5.2e-05,0.024856,-0.003165,0.005347,-0.005658,-0.000565,0.012337,0.00297,-0.004342
1623492996080571413,354,1623492996080571413,-0.00531,-0.000674,-0.005599,0.999683,1.2e-05,0.024935,-0.003222,0.001041,-0.002018,-0.006457,0.011872,0.00362,-0.004788
1623492996180570126,355,1623492996180570126,-0.006141,-0.000136,-0.008559,0.999682,7.5e-05,0.024955,-0.003338,-0.001201,-0.001356,-0.010505,0.012047,0.004118,-0.003775
1623492996280568600,356,1623492996280568600,-0.007136,0.001165,-0.010384,0.999686,0.000108,0.02477,-0.003527,-0.003322,0.00209,-0.012471,0.011921,0.003203,-0.004591
1623492996380567312,357,1623492996380567312,-0.00634,-7.7e-05,-0.008706,0.999691,0.000215,0.02459,-0.003562,0.000308,-0.002308,-0.009886,0.011585,-0.000941,-0.004796
1623492996480566025,358,1623492996480566025,-0.006434,-0.00083,-0.007777,0.999688,0.0,0.024688,-0.003576,0.001997,-0.004626,-0.006656,0.012331,0.002356,-0.004546
1623492996580564737,359,1623492996580564737,-0.006381,2.7e-05,-0.007487,0.999696,3e-05,0.024422,-0.003204,0.004347,-0.001228,-0.007173,0.010797,0.003338,-0.004443
